cemeouhf_ael/Place-CEMID-Sensor-Sensor1-To-Satellite-POLMEO11_AER.csv

"Time (UTCG)","Azimuth (deg)","Elevation (deg)","Range (km)"
1 Jan 2000 13:05:09.575,56.551,51.309,12978.561709
1 Jan 2000 13:05:19.000,56.242,51.341,12976.988134
1 Jan 2000 13:05:29.000,55.913,51.374,12975.381953
1 Jan 2000 13:05:39.000,55.584,51.406,12973.841128
1 Jan 2000 13:05:49.000,55.254,51.436,12972.365699
1 Jan 2000 13:05:59.000,54.923,51.465,12970.955702
1 Jan 2000 13:06:09.000,54.592,51.493,12969.611174
1 Jan 2000 13:06:19.000,54.260,51.519,12968.332150
1 Jan 2000 13:06:29.000,53.928,51.544,12967.118663
1 Jan 2000 13:06:39.000,53.596,51.568,12965.970745
1 Jan 2000 13:06:49.000,53.263,51.590,12964.888425
1 Jan 2000 13:06:59.000,52.930,51.612,12963.871733
1 Jan 2000 13:07:09.000,52.596,51.632,12962.920695
1 Jan 2000 13:07:19.000,52.262,51.650,12962.035337
1 Jan 2000 13:07:29.000,51.928,51.668,12961.215683
1 Jan 2000 13:07:39.000,51.593,51.684,12960.461755
1 Jan 2000 13:07:49.000,51.259,51.698,12959.773574
1 Jan 2000 13:07:59.000,50.924,51.712,12959.151160
1 Jan 2000 13:08:09.000,50.588,51.724,12958.594529
1 Jan 2000 13:08:19.000,50.253,51.734,12958.103699
1 Jan 2000 13:08:29.000,49.917,51.744,12957.678683
1 Jan 2000 13:08:39.000,49.581,51.752,12957.319495
1 Jan 2000 13:08:49.000,49.245,51.758,12957.026147
1 Jan 2000 13:08:59.000,48.910,51.764,12956.798648
1 Jan 2000 13:09:09.000,48.573,51.768,12956.637007
1 Jan 2000 13:09:19.000,48.237,51.771,12956.541231
1 Jan 2000 13:09:29.000,47.901,51.772,12956.511324
1 Jan 2000 13:09:39.000,47.565,51.772,12956.547291
1 Jan 2000 13:09:49.000,47.229,51.771,12956.649134
1 Jan 2000 13:09:59.000,46.893,51.768,12956.816854
1 Jan 2000 13:10:09.000,46.557,51.765,12957.050448
1 Jan 2000 13:10:19.000,46.222,51.759,12957.349916
1 Jan 2000 13:10:29.000,45.886,51.753,12957.715252
1 Jan 2000 13:10:39.000,45.551,51.745,12958.146451
1 Jan 2000 13:10:49.000,45.215,51.736,12958.643507
1 Jan 2000 13:10:59.000,44.880,51.725,12959.206409
1 Jan 2000 13:11:09.000,44.546,51.713,12959.835149
1 Jan 2000 13:11:19.000,44.211,51.700,12960.529713
1 Jan 2000 13:11:29.000,43.877,51.686,12961.290089
1 Jan 2000 13:11:39.000,43.543,51.670,12962.116262
1 Jan 2000 13:11:49.000,43.210,51.653,12963.008215
1 Jan 2000 13:11:59.000,42.877,51.635,12963.965930
1 Jan 2000 13:12:09.000,42.544,51.615,12964.989387
1 Jan 2000 13:12:19.000,42.211,51.594,12966.078565
1 Jan 2000 13:12:29.000,41.880,51.571,12967.233442
1 Jan 2000 13:12:39.000,41.548,51.548,12968.453993
1 Jan 2000 13:12:49.000,41.217,51.523,12969.740193
1 Jan 2000 13:12:59.000,40.887,51.497,12971.092013
1 Jan 2000 13:13:09.000,40.557,51.469,12972.509426
1 Jan 2000 13:13:19.000,40.228,51.440,12973.992400
1 Jan 2000 13:13:29.000,39.899,51.410,12975.540905
1 Jan 2000 13:13:39.000,39.571,51.379,12977.154905
1 Jan 2000 13:13:49.000,39.244,51.346,12978.834367
1 Jan 2000 13:13:59.000,38.917,51.312,12980.579254
1 Jan 2000 13:14:09.000,38.591,51.277,12982.389528
1 Jan 2000 13:14:19.000,38.265,51.240,12984.265149
1 Jan 2000 13:14:29.000,37.941,51.203,12986.206076
1 Jan 2000 13:14:39.000,37.617,51.164,12988.212266
1 Jan 2000 13:14:49.000,37.294,51.123,12990.283676
1 Jan 2000 13:14:59.000,36.971,51.082,12992.420260
1 Jan 2000 13:15:09.000,36.650,51.039,12994.621970
1 Jan 2000 13:15:19.000,36.329,50.995,12996.888759
1 Jan 2000 13:15:29.000,36.009,50.950,12999.220576
1 Jan 2000 13:15:39.000,35.690,50.904,13001.617369
1 Jan 2000 13:15:49.000,35.372,50.856,13004.079086
1 Jan 2000 13:15:59.000,35.055,50.807,13006.605671
1 Jan 2000 13:16:09.000,34.739,50.757,13009.197070
1 Jan 2000 13:16:19.000,34.423,50.706,13011.853224
1 Jan 2000 13:16:29.000,34.109,50.653,13014.574074
1 Jan 2000 13:16:39.000,33.796,50.600,13017.359560
1 Jan 2000 13:16:49.000,33.483,50.545,13020.209620
1 Jan 2000 13:16:59.000,33.172,50.489,13023.124192
1 Jan 2000 13:17:09.000,32.861,50.432,13026.103209
1 Jan 2000 13:17:19.000,32.552,50.373,13029.146606
1 Jan 2000 13:17:29.000,32.244,50.314,13032.254315
1 Jan 2000 13:17:39.000,31.937,50.253,13035.426268
1 Jan 2000 13:17:49.000,31.631,50.191,13038.662393
1 Jan 2000 13:17:59.000,31.326,50.128,13041.962619
1 Jan 2000 13:18:09.000,31.022,50.064,13045.326872
1 Jan 2000 13:18:19.000,30.719,49.999,13048.755078
1 Jan 2000 13:18:29.000,30.417,49.933,13052.247160
1 Jan 2000 13:18:39.000,30.117,49.865,13055.803041
1 Jan 2000 13:18:49.000,29.818,49.797,13059.422642
1 Jan 2000 13:18:59.000,29.520,49.727,13063.105883
1 Jan 2000 13:19:09.000,29.223,49.656,13066.852682
1 Jan 2000 13:19:19.000,28.927,49.584,13070.662955
1 Jan 2000 13:19:29.000,28.633,49.512,13074.536619
1 Jan 2000 13:19:39.000,28.340,49.438,13078.473588
1 Jan 2000 13:19:49.000,28.048,49.363,13082.473774
1 Jan 2000 13:19:59.000,27.757,49.287,13086.537089
1 Jan 2000 13:20:09.000,27.468,49.209,13090.663443
1 Jan 2000 13:20:19.000,27.180,49.131,13094.852745
1 Jan 2000 13:20:29.000,26.893,49.052,13099.104903
1 Jan 2000 13:20:39.000,26.607,48.972,13103.419822
1 Jan 2000 13:20:49.000,26.323,48.891,13107.797408
1 Jan 2000 13:20:59.000,26.040,48.809,13112.237563
1 Jan 2000 13:21:09.000,25.759,48.725,13116.740192
1 Jan 2000 13:21:19.000,25.478,48.641,13121.305193
1 Jan 2000 13:21:29.000,25.199,48.556,13125.932467
1 Jan 2000 13:21:39.000,24.922,48.470,13130.621913
1 Jan 2000 13:21:49.000,24.645,48.383,13135.373427
1 Jan 2000 13:21:59.000,24.370,48.295,13140.186905
1 Jan 2000 13:22:09.000,24.097,48.206,13145.062243
1 Jan 2000 13:22:19.000,23.825,48.116,13149.999333
1 Jan 2000 13:22:29.000,23.554,48.025,13154.998068
1 Jan 2000 13:22:39.000,23.284,47.934,13160.058338
1 Jan 2000 13:22:49.000,23.016,47.841,13165.180033
1 Jan 2000 13:22:59.000,22.750,47.747,13170.363042
1 Jan 2000 13:23:09.000,22.484,47.653,13175.607251
1 Jan 2000 13:23:19.000,22.220,47.557,13180.912548
1 Jan 2000 13:23:29.000,21.958,47.461,13186.278816
1 Jan 2000 13:23:39.000,21.697,47.364,13191.705940
1 Jan 2000 13:23:49.000,21.437,47.266,13197.193803
1 Jan 2000 13:23:59.000,21.179,47.167,13202.742284
1 Jan 2000 13:24:09.000,20.922,47.068,13208.351265
1 Jan 2000 13:24:19.000,20.666,46.967,13214.020625
1 Jan 2000 13:24:29.000,20.412,46.866,13219.750241
1 Jan 2000 13:24:39.000,20.159,46.764,13225.539991
1 Jan 2000 13:24:49.000,19.908,46.661,13231.389750
1 Jan 2000 13:24:59.000,19.658,46.557,13237.299392
1 Jan 2000 13:25:09.000,19.410,46.452,13243.268792
1 Jan 2000 13:25:19.000,19.163,46.347,13249.297820
1 Jan 2000 13:25:29.000,18.917,46.241,13255.386350
1 Jan 2000 13:25:39.000,18.673,46.134,13261.534250
1 Jan 2000 13:25:49.000,18.430,46.026,13267.741390
1 Jan 2000 13:25:59.000,18.189,45.918,13274.007637
1 Jan 2000 13:26:09.000,17.949,45.808,13280.332860
1 Jan 2000 13:26:19.000,17.710,45.699,13286.716923
1 Jan 2000 13:26:29.000,17.473,45.588,13293.159693
1 Jan 2000 13:26:39.000,17.237,45.477,13299.661031
1 Jan 2000 13:26:49.000,17.003,45.364,13306.220802
1 Jan 2000 13:26:59.000,16.770,45.252,13312.838868
1 Jan 2000 13:27:09.000,16.538,45.138,13319.515088
1 Jan 2000 13:27:19.000,16.308,45.024,13326.249324
1 Jan 2000 13:27:29.000,16.079,44.909,13333.041433
1 Jan 2000 13:27:39.000,15.852,44.793,13339.891274
1 Jan 2000 13:27:49.000,15.626,44.677,13346.798704
1 Jan 2000 13:27:59.000,15.401,44.560,13353.763578
1 Jan 2000 13:28:09.000,15.178,44.443,13360.785753
1 Jan 2000 13:28:19.000,14.956,44.325,13367.865081
1 Jan 2000 13:28:29.000,14.736,44.206,13375.001416
1 Jan 2000 13:28:39.000,14.517,44.086,13382.194610
1 Jan 2000 13:28:49.000,14.299,43.966,13389.444515
1 Jan 2000 13:28:59.000,14.083,43.845,13396.750981
1 Jan 2000 13:29:09.000,13.868,43.724,13404.113858
1 Jan 2000 13:29:19.000,13.654,43.602,13411.532995
1 Jan 2000 13:29:29.000,13.442,43.480,13419.008238
1 Jan 2000 13:29:39.000,13.231,43.357,13426.539436
1 Jan 2000 13:29:49.000,13.022,43.233,13434.126434
1 Jan 2000 13:29:59.000,12.814,43.109,13441.769077
1 Jan 2000 13:30:09.000,12.607,42.984,13449.467210
1 Jan 2000 13:30:19.000,12.401,42.858,13457.220677
1 Jan 2000 13:30:29.000,12.197,42.733,13465.029321
1 Jan 2000 13:30:39.000,11.994,42.606,13472.892983
1 Jan 2000 13:30:49.000,11.793,42.479,13480.811504
1 Jan 2000 13:30:59.000,11.593,42.352,13488.784725
1 Jan 2000 13:31:09.000,11.394,42.224,13496.812487
1 Jan 2000 13:31:19.000,11.196,42.095,13504.894626
1 Jan 2000 13:31:29.000,11.000,41.966,13513.030983
1 Jan 2000 13:31:39.000,10.805,41.836,13521.221393
1 Jan 2000 13:31:49.000,10.611,41.706,13529.465694
1 Jan 2000 13:31:59.000,10.419,41.576,13537.763721
1 Jan 2000 13:32:09.000,10.228,41.445,13546.115311
1 Jan 2000 13:32:19.000,10.038,41.313,13554.520296
1 Jan 2000 13:32:29.000,9.849,41.181,13562.978512
1 Jan 2000 13:32:39.000,9.662,41.049,13571.489790
1 Jan 2000 13:32:49.000,9.476,40.916,13580.053964
1 Jan 2000 13:32:59.000,9.291,40.782,13588.670866
1 Jan 2000 13:33:09.000,9.108,40.649,13597.340325
1 Jan 2000 13:33:19.000,8.925,40.514,13606.062173
1 Jan 2000 13:33:29.000,8.744,40.380,13614.836240
1 Jan 2000 13:33:39.000,8.564,40.245,13623.662354
1 Jan 2000 13:33:49.000,8.386,40.109,13632.540345
1 Jan 2000 13:33:59.000,8.208,39.973,13641.470039
1 Jan 2000 13:34:09.000,8.032,39.837,13650.451265
1 Jan 2000 13:34:19.000,7.857,39.700,13659.483848
1 Jan 2000 13:34:29.000,7.683,39.563,13668.567616
1 Jan 2000 13:34:39.000,7.511,39.426,13677.702393
1 Jan 2000 13:34:49.000,7.339,39.288,13686.888005
1 Jan 2000 13:34:59.000,7.169,39.149,13696.124275
1 Jan 2000 13:35:09.000,7.000,39.011,13705.411029
1 Jan 2000 13:35:19.000,6.832,38.872,13714.748088
1 Jan 2000 13:35:29.000,6.665,38.732,13724.135276
1 Jan 2000 13:35:39.000,6.499,38.593,13733.572415
1 Jan 2000 13:35:49.000,6.335,38.453,13743.059327
1 Jan 2000 13:35:59.000,6.171,38.312,13752.595833
1 Jan 2000 13:36:09.000,6.009,38.171,13762.181753
1 Jan 2000 13:36:19.000,5.848,38.030,13771.816908
1 Jan 2000 13:36:29.000,5.688,37.889,13781.501118
1 Jan 2000 13:36:39.000,5.529,37.747,13791.234202
1 Jan 2000 13:36:49.000,5.371,37.605,13801.015978
1 Jan 2000 13:36:59.000,5.215,37.463,13810.846265
1 Jan 2000 13:37:09.000,5.059,37.320,13820.724881
1 Jan 2000 13:37:19.000,4.905,37.177,13830.651644
1 Jan 2000 13:37:29.000,4.751,37.034,13840.626370
1 Jan 2000 13:37:39.000,4.599,36.890,13850.648876
1 Jan 2000 13:37:49.000,4.448,36.746,13860.718978
1 Jan 2000 13:37:59.000,4.297,36.602,13870.836492
1 Jan 2000 13:38:09.000,4.148,36.458,13881.001234
1 Jan 2000 13:38:19.000,4.000,36.313,13891.213018
1 Jan 2000 13:38:29.000,3.853,36.168,13901.471660
1 Jan 2000 13:38:39.000,3.707,36.023,13911.776972
1 Jan 2000 13:38:49.000,3.562,35.877,13922.128771
1 Jan 2000 13:38:59.000,3.418,35.732,13932.526868
1 Jan 2000 13:39:09.000,3.275,35.586,13942.971077
1 Jan 2000 13:39:19.000,3.133,35.440,13953.461211
1 Jan 2000 13:39:29.000,2.992,35.293,13963.997083
1 Jan 2000 13:39:39.000,2.852,35.146,13974.578505
1 Jan 2000 13:39:48.913,2.714,35.001,13985.112506

Interval Statistics
"Min Elevation",1 Jan 2000 13:39:48.913,2.714,35.001,13985.112506
"Max Elevation",1 Jan 2000 13:09:34.772,47.707,51.772,12956.524045
"Mean Elevation",,,46.369,
"Min Range",1 Jan 2000 13:09:28.540,47.917,51.772,12956.511255
"Max Range",1 Jan 2000 13:39:48.913,2.714,35.001,13985.112506
"Mean Range",,,,13265.793163

"Time (UTCG)","Azimuth (deg)","Elevation (deg)","Range (km)"
1 Jan 2000 19:58:53.719,306.755,37.509,13802.456690
1 Jan 2000 19:59:03.000,306.983,37.525,13801.384265
1 Jan 2000 19:59:13.000,307.228,37.542,13800.256829
1 Jan 2000 19:59:23.000,307.474,37.558,13799.158465
1 Jan 2000 19:59:33.000,307.720,37.575,13798.089153
1 Jan 2000 19:59:43.000,307.966,37.590,13797.048870
1 Jan 2000 19:59:53.000,308.212,37.606,13796.037595
1 Jan 2000 20:00:03.000,308.458,37.621,13795.055307
1 Jan 2000 20:00:13.000,308.705,37.635,13794.101984
1 Jan 2000 20:00:23.000,308.951,37.649,13793.177604
1 Jan 2000 20:00:33.000,309.197,37.663,13792.282144
1 Jan 2000 20:00:43.000,309.444,37.676,13791.415580
1 Jan 2000 20:00:53.000,309.690,37.689,13790.577892
1 Jan 2000 20:01:03.000,309.937,37.701,13789.769053
1 Jan 2000 20:01:13.000,310.184,37.713,13788.989042
1 Jan 2000 20:01:23.000,310.431,37.725,13788.237834
1 Jan 2000 20:01:33.000,310.677,37.736,13787.515406
1 Jan 2000 20:01:43.000,310.924,37.747,13786.821731
1 Jan 2000 20:01:53.000,311.171,37.757,13786.156787
1 Jan 2000 20:02:03.000,311.418,37.767,13785.520547
1 Jan 2000 20:02:13.000,311.665,37.776,13784.912987
1 Jan 2000 20:02:23.000,311.912,37.785,13784.334080
1 Jan 2000 20:02:33.000,312.160,37.794,13783.783802
1 Jan 2000 20:02:43.000,312.407,37.802,13783.262125
1 Jan 2000 20:02:53.000,312.654,37.810,13782.769024
1 Jan 2000 20:03:03.000,312.901,37.817,13782.304472
1 Jan 2000 20:03:13.000,313.149,37.824,13781.868442
1 Jan 2000 20:03:23.000,313.396,37.831,13781.460906
1 Jan 2000 20:03:33.000,313.643,37.837,13781.081838
1 Jan 2000 20:03:43.000,313.891,37.843,13780.731210
1 Jan 2000 20:03:53.000,314.138,37.848,13780.408993
1 Jan 2000 20:04:03.000,314.385,37.853,13780.115159
1 Jan 2000 20:04:13.000,314.633,37.857,13779.849681
1 Jan 2000 20:04:23.000,314.880,37.861,13779.612528
1 Jan 2000 20:04:33.000,315.128,37.865,13779.403673
1 Jan 2000 20:04:43.000,315.375,37.868,13779.223085
1 Jan 2000 20:04:53.000,315.622,37.871,13779.070736
1 Jan 2000 20:05:03.000,315.870,37.873,13778.946595
1 Jan 2000 20:05:13.000,316.117,37.875,13778.850633
1 Jan 2000 20:05:23.000,316.365,37.877,13778.782819
1 Jan 2000 20:05:33.000,316.612,37.878,13778.743123
1 Jan 2000 20:05:43.000,316.859,37.879,13778.731513
1 Jan 2000 20:05:53.000,317.107,37.879,13778.747959
1 Jan 2000 20:06:03.000,317.354,37.879,13778.792430
1 Jan 2000 20:06:13.000,317.601,37.879,13778.864894
1 Jan 2000 20:06:23.000,317.849,37.878,13778.965319
1 Jan 2000 20:06:33.000,318.096,37.876,13779.093673
1 Jan 2000 20:06:43.000,318.343,37.875,13779.249923
1 Jan 2000 20:06:53.000,318.591,37.872,13779.434039
1 Jan 2000 20:07:03.000,318.838,37.870,13779.645986
1 Jan 2000 20:07:13.000,319.085,37.867,13779.885731
1 Jan 2000 20:07:23.000,319.332,37.864,13780.153242
1 Jan 2000 20:07:33.000,319.579,37.860,13780.448485
1 Jan 2000 20:07:43.000,319.826,37.856,13780.771426
1 Jan 2000 20:07:53.000,320.073,37.851,13781.122031
1 Jan 2000 20:08:03.000,320.320,37.846,13781.500266
1 Jan 2000 20:08:13.000,320.566,37.841,13781.906097
1 Jan 2000 20:08:23.000,320.813,37.835,13782.339489
1 Jan 2000 20:08:33.000,321.060,37.829,13782.800407
1 Jan 2000 20:08:43.000,321.307,37.822,13783.288816
1 Jan 2000 20:08:53.000,321.553,37.815,13783.804681
1 Jan 2000 20:09:03.000,321.800,37.808,13784.347966
1 Jan 2000 20:09:13.000,322.046,37.800,13784.918636
1 Jan 2000 20:09:23.000,322.292,37.792,13785.516653
1 Jan 2000 20:09:33.000,322.539,37.783,13786.141983
1 Jan 2000 20:09:43.000,322.785,37.774,13786.794589
1 Jan 2000 20:09:53.000,323.031,37.764,13787.474433
1 Jan 2000 20:10:03.000,323.277,37.755,13788.181480
1 Jan 2000 20:10:13.000,323.523,37.744,13788.915692
1 Jan 2000 20:10:23.000,323.768,37.734,13789.677031
1 Jan 2000 20:10:33.000,324.014,37.723,13790.465461
1 Jan 2000 20:10:43.000,324.260,37.711,13791.280943
1 Jan 2000 20:10:53.000,324.505,37.700,13792.123440
1 Jan 2000 20:11:03.000,324.751,37.688,13792.992913
1 Jan 2000 20:11:13.000,324.996,37.675,13793.889324
1 Jan 2000 20:11:23.000,325.241,37.662,13794.812634
1 Jan 2000 20:11:33.000,325.486,37.649,13795.762805
1 Jan 2000 20:11:43.000,325.731,37.635,13796.739797
1 Jan 2000 20:11:53.000,325.976,37.621,13797.743572
1 Jan 2000 20:12:03.000,326.220,37.606,13798.774089
1 Jan 2000 20:12:13.000,326.465,37.591,13799.831310
1 Jan 2000 20:12:23.000,326.709,37.576,13800.915195
1 Jan 2000 20:12:33.000,326.954,37.560,13802.025703
1 Jan 2000 20:12:43.000,327.198,37.544,13803.162794
1 Jan 2000 20:12:53.000,327.442,37.528,13804.326429
1 Jan 2000 20:13:03.000,327.686,37.511,13805.516565
1 Jan 2000 20:13:13.000,327.930,37.494,13806.733163
1 Jan 2000 20:13:23.000,328.173,37.476,13807.976182
1 Jan 2000 20:13:33.000,328.417,37.458,13809.245580
1 Jan 2000 20:13:43.000,328.660,37.440,13810.541316
1 Jan 2000 20:13:53.000,328.903,37.421,13811.863349
1 Jan 2000 20:14:03.000,329.146,37.402,13813.211637
1 Jan 2000 20:14:13.000,329.389,37.383,13814.586137
1 Jan 2000 20:14:23.000,329.632,37.363,13815.986808
1 Jan 2000 20:14:33.000,329.874,37.343,13817.413607
1 Jan 2000 20:14:43.000,330.117,37.322,13818.866493
1 Jan 2000 20:14:53.000,330.359,37.301,13820.345422
1 Jan 2000 20:15:03.000,330.601,37.280,13821.850351
1 Jan 2000 20:15:13.000,330.843,37.258,13823.381238
1 Jan 2000 20:15:23.000,331.085,37.236,13824.938039
1 Jan 2000 20:15:33.000,331.326,37.214,13826.520712
1 Jan 2000 20:15:43.000,331.568,37.191,13828.129211
1 Jan 2000 20:15:53.000,331.809,37.168,13829.763495
1 Jan 2000 20:16:03.000,332.050,37.144,13831.423519
1 Jan 2000 20:16:13.000,332.291,37.121,13833.109238
1 Jan 2000 20:16:23.000,332.531,37.096,13834.820610
1 Jan 2000 20:16:33.000,332.772,37.072,13836.557588
1 Jan 2000 20:16:43.000,333.012,37.047,13838.320130
1 Jan 2000 20:16:53.000,333.252,37.021,13840.108190
1 Jan 2000 20:17:03.000,333.492,36.996,13841.921723
1 Jan 2000 20:17:13.000,333.732,36.970,13843.760684
1 Jan 2000 20:17:23.000,333.972,36.943,13845.625029
1 Jan 2000 20:17:33.000,334.211,36.917,13847.514711
1 Jan 2000 20:17:43.000,334.450,36.890,13849.429686
1 Jan 2000 20:17:53.000,334.689,36.862,13851.369907
1 Jan 2000 20:18:03.000,334.928,36.834,13853.335330
1 Jan 2000 20:18:13.000,335.166,36.806,13855.325907
1 Jan 2000 20:18:23.000,335.405,36.778,13857.341594
1 Jan 2000 20:18:33.000,335.643,36.749,13859.382343
1 Jan 2000 20:18:43.000,335.881,36.720,13861.448108
1 Jan 2000 20:18:53.000,336.118,36.690,13863.538844
1 Jan 2000 20:19:03.000,336.356,36.661,13865.654502
1 Jan 2000 20:19:13.000,336.593,36.630,13867.795037
1 Jan 2000 20:19:23.000,336.830,36.600,13869.960401
1 Jan 2000 20:19:33.000,337.067,36.569,13872.150548
1 Jan 2000 20:19:43.000,337.303,36.538,13874.365429
1 Jan 2000 20:19:53.000,337.540,36.506,13876.604998
1 Jan 2000 20:20:03.000,337.776,36.474,13878.869208
1 Jan 2000 20:20:13.000,338.012,36.442,13881.158010
1 Jan 2000 20:20:23.000,338.248,36.410,13883.471357
1 Jan 2000 20:20:33.000,338.483,36.377,13885.809200
1 Jan 2000 20:20:43.000,338.718,36.344,13888.171493
1 Jan 2000 20:20:53.000,338.953,36.310,13890.558186
1 Jan 2000 20:21:03.000,339.188,36.276,13892.969232
1 Jan 2000 20:21:13.000,339.423,36.242,13895.404582
1 Jan 2000 20:21:23.000,339.657,36.208,13897.864187
1 Jan 2000 20:21:33.000,339.891,36.173,13900.347999
1 Jan 2000 20:21:43.000,340.125,36.138,13902.855970
1 Jan 2000 20:21:53.000,340.358,36.102,13905.388049
1 Jan 2000 20:22:03.000,340.592,36.066,13907.944189
1 Jan 2000 20:22:13.000,340.825,36.030,13910.524339
1 Jan 2000 20:22:23.000,341.058,35.994,13913.128451
1 Jan 2000 20:22:33.000,341.290,35.957,13915.756476
1 Jan 2000 20:22:43.000,341.523,35.920,13918.408364
1 Jan 2000 20:22:53.000,341.755,35.883,13921.084065
1 Jan 2000 20:23:03.000,341.987,35.845,13923.783530
1 Jan 2000 20:23:13.000,342.218,35.807,13926.506708
1 Jan 2000 20:23:23.000,342.450,35.769,13929.253551
1 Jan 2000 20:23:33.000,342.681,35.730,13932.024007
1 Jan 2000 20:23:43.000,342.912,35.692,13934.818028
1 Jan 2000 20:23:53.000,343.142,35.652,13937.635562
1 Jan 2000 20:24:03.000,343.372,35.613,13940.476559
1 Jan 2000 20:24:13.000,343.603,35.573,13943.340969
1 Jan 2000 20:24:23.000,343.832,35.533,13946.228741
1 Jan 2000 20:24:33.000,344.062,35.493,13949.139825
1 Jan 2000 20:24:43.000,344.291,35.452,13952.074170
1 Jan 2000 20:24:53.000,344.520,35.411,13955.031725
1 Jan 2000 20:25:03.000,344.749,35.370,13958.012440
1 Jan 2000 20:25:13.000,344.977,35.328,13961.016263
1 Jan 2000 20:25:23.000,345.206,35.286,13964.043143
1 Jan 2000 20:25:33.000,345.434,35.244,13967.093029
1 Jan 2000 20:25:43.000,345.661,35.202,13970.165869
1 Jan 2000 20:25:53.000,345.889,35.159,13973.261613
1 Jan 2000 20:26:03.000,346.116,35.116,13976.380209
1 Jan 2000 20:26:13.000,346.343,35.073,13979.521606
1 Jan 2000 20:26:23.000,346.569,35.029,13982.685751
1 Jan 2000 20:26:29.635,346.720,35.000,13984.797751

Interval Statistics
"Min Elevation",1 Jan 2000 20:26:29.635,346.720,35.000,13984.797751
"Max Elevation",1 Jan 2000 20:05:55.779,317.176,37.879,13778.757508
"Mean Elevation",,,37.104,
"Min Range",1 Jan 2000 20:05:42.138,316.838,37.879,13778.731408
"Max Range",1 Jan 2000 20:26:29.635,346.720,35.000,13984.797751
"Mean Range",,,,13833.920166

"Time (UTCG)","Azimuth (deg)","Elevation (deg)","Range (km)"
2 Jan 2000 03:52:26.678,359.799,57.887,12679.807193
2 Jan 2000 03:52:36.000,359.760,58.079,12671.799969
2 Jan 2000 03:52:46.000,359.718,58.286,12663.258823
2 Jan 2000 03:52:56.000,359.675,58.493,12654.768392
2 Jan 2000 03:53:06.000,359.630,58.700,12646.328856
2 Jan 2000 03:53:16.000,359.584,58.908,12637.940393
2 Jan 2000 03:53:26.000,359.537,59.115,12629.603182
2 Jan 2000 03:53:36.000,359.489,59.323,12621.317402
2 Jan 2000 03:53:46.000,359.440,59.530,12613.083230
2 Jan 2000 03:53:56.000,359.389,59.738,12604.900843
2 Jan 2000 03:54:06.000,359.337,59.946,12596.770417
2 Jan 2000 03:54:16.000,359.284,60.154,12588.692128
2 Jan 2000 03:54:26.000,359.229,60.362,12580.666152
2 Jan 2000 03:54:36.000,359.173,60.571,12572.692662
2 Jan 2000 03:54:46.000,359.116,60.779,12564.771834
2 Jan 2000 03:54:56.000,359.057,60.988,12556.903839
2 Jan 2000 03:55:06.000,358.997,61.196,12549.088852
2 Jan 2000 03:55:16.000,358.935,61.405,12541.327043
2 Jan 2000 03:55:26.000,358.872,61.614,12533.618584
2 Jan 2000 03:55:36.000,358.808,61.823,12525.963646
2 Jan 2000 03:55:46.000,358.741,62.033,12518.362400
2 Jan 2000 03:55:56.000,358.673,62.242,12510.815013
2 Jan 2000 03:56:06.000,358.604,62.451,12503.321655
2 Jan 2000 03:56:16.000,358.533,62.661,12495.882494
2 Jan 2000 03:56:26.000,358.460,62.870,12488.497696
2 Jan 2000 03:56:36.000,358.385,63.080,12481.167429
2 Jan 2000 03:56:46.000,358.308,63.290,12473.891857
2 Jan 2000 03:56:56.000,358.230,63.499,12466.671147
2 Jan 2000 03:57:06.000,358.150,63.709,12459.505461
2 Jan 2000 03:57:16.000,358.067,63.919,12452.394964
2 Jan 2000 03:57:26.000,357.983,64.129,12445.339817
2 Jan 2000 03:57:36.000,357.897,64.340,12438.340184
2 Jan 2000 03:57:46.000,357.809,64.550,12431.396224
2 Jan 2000 03:57:56.000,357.718,64.760,12424.508097
2 Jan 2000 03:58:06.000,357.625,64.970,12417.675964
2 Jan 2000 03:58:16.000,357.531,65.181,12410.899983
2 Jan 2000 03:58:26.000,357.433,65.391,12404.180311
2 Jan 2000 03:58:36.000,357.334,65.602,12397.517104
2 Jan 2000 03:58:46.000,357.232,65.812,12390.910520
2 Jan 2000 03:58:56.000,357.127,66.023,12384.360713
2 Jan 2000 03:59:06.000,357.020,66.233,12377.867837
2 Jan 2000 03:59:16.000,356.910,66.444,12371.432046
2 Jan 2000 03:59:26.000,356.798,66.655,12365.053491
2 Jan 2000 03:59:36.000,356.683,66.865,12358.732325
2 Jan 2000 03:59:46.000,356.565,67.076,12352.468697
2 Jan 2000 03:59:56.000,356.444,67.287,12346.262758
2 Jan 2000 04:00:06.000,356.320,67.497,12340.114655
2 Jan 2000 04:00:16.000,356.193,67.708,12334.024537
2 Jan 2000 04:00:26.000,356.063,67.919,12327.992550
2 Jan 2000 04:00:36.000,355.930,68.129,12322.018839
2 Jan 2000 04:00:46.000,355.793,68.340,12316.103551
2 Jan 2000 04:00:56.000,355.653,68.551,12310.246827
2 Jan 2000 04:01:06.000,355.509,68.761,12304.448811
2 Jan 2000 04:01:16.000,355.361,68.972,12298.709645
2 Jan 2000 04:01:26.000,355.210,69.182,12293.029469
2 Jan 2000 04:01:36.000,355.055,69.392,12287.408423
2 Jan 2000 04:01:46.000,354.896,69.603,12281.846645
2 Jan 2000 04:01:56.000,354.733,69.813,12276.344272
2 Jan 2000 04:02:06.000,354.566,70.023,12270.901442
2 Jan 2000 04:02:16.000,354.394,70.233,12265.518290
2 Jan 2000 04:02:26.000,354.218,70.443,12260.194949
2 Jan 2000 04:02:36.000,354.037,70.653,12254.931553
2 Jan 2000 04:02:46.000,353.851,70.862,12249.728234
2 Jan 2000 04:02:56.000,353.660,71.072,12244.585123
2 Jan 2000 04:03:06.000,353.464,71.281,12239.502350
2 Jan 2000 04:03:16.000,353.263,71.491,12234.480043
2 Jan 2000 04:03:26.000,353.057,71.700,12229.518329
2 Jan 2000 04:03:36.000,352.844,71.908,12224.617336
2 Jan 2000 04:03:46.000,352.626,72.117,12219.777188
2 Jan 2000 04:03:56.000,352.402,72.326,12214.998009
2 Jan 2000 04:04:06.000,352.172,72.534,12210.279923
2 Jan 2000 04:04:16.000,351.935,72.742,12205.623050
2 Jan 2000 04:04:26.000,351.691,72.950,12201.027511
2 Jan 2000 04:04:36.000,351.441,73.157,12196.493426
2 Jan 2000 04:04:46.000,351.183,73.364,12192.020913
2 Jan 2000 04:04:56.000,350.918,73.571,12187.610087
2 Jan 2000 04:05:06.000,350.645,73.778,12183.261065
2 Jan 2000 04:05:16.000,350.364,73.984,12178.973961
2 Jan 2000 04:05:26.000,350.075,74.190,12174.748889
2 Jan 2000 04:05:36.000,349.778,74.395,12170.585959
2 Jan 2000 04:05:46.000,349.471,74.600,12166.485282
2 Jan 2000 04:05:56.000,349.155,74.805,12162.446968
2 Jan 2000 04:06:06.000,348.829,75.009,12158.471124
2 Jan 2000 04:06:16.000,348.494,75.212,12154.557858
2 Jan 2000 04:06:26.000,348.148,75.416,12150.707274
2 Jan 2000 04:06:36.000,347.791,75.618,12146.919476
2 Jan 2000 04:06:46.000,347.423,75.820,12143.194567
2 Jan 2000 04:06:56.000,347.043,76.022,12139.532649
2 Jan 2000 04:07:06.000,346.652,76.223,12135.933821
2 Jan 2000 04:07:16.000,346.247,76.423,12132.398183
2 Jan 2000 04:07:26.000,345.829,76.622,12128.925831
2 Jan 2000 04:07:36.000,345.398,76.821,12125.516861
2 Jan 2000 04:07:46.000,344.952,77.019,12122.171369
2 Jan 2000 04:07:56.000,344.492,77.216,12118.889446
2 Jan 2000 04:08:06.000,344.015,77.412,12115.671186
2 Jan 2000 04:08:16.000,343.523,77.607,12112.516679
2 Jan 2000 04:08:26.000,343.014,77.802,12109.426013
2 Jan 2000 04:08:36.000,342.487,77.995,12106.399276
2 Jan 2000 04:08:46.000,341.941,78.187,12103.436555
2 Jan 2000 04:08:56.000,341.377,78.378,12100.537934
2 Jan 2000 04:09:06.000,340.792,78.568,12097.703497
2 Jan 2000 04:09:16.000,340.187,78.757,12094.933325
2 Jan 2000 04:09:26.000,339.560,78.944,12092.227500
2 Jan 2000 04:09:36.000,338.910,79.130,12089.586100
2 Jan 2000 04:09:46.000,338.236,79.314,12087.009203
2 Jan 2000 04:09:56.000,337.537,79.497,12084.496884
2 Jan 2000 04:10:06.000,336.812,79.678,12082.049220
2 Jan 2000 04:10:16.000,336.061,79.857,12079.666282
2 Jan 2000 04:10:26.000,335.281,80.035,12077.348144
2 Jan 2000 04:10:36.000,334.472,80.210,12075.094874
2 Jan 2000 04:10:46.000,333.632,80.383,12072.906542
2 Jan 2000 04:10:56.000,332.760,80.555,12070.783215
2 Jan 2000 04:11:06.000,331.855,80.723,12068.724959
2 Jan 2000 04:11:16.000,330.915,80.889,12066.731838
2 Jan 2000 04:11:26.000,329.939,81.053,12064.803915
2 Jan 2000 04:11:36.000,328.926,81.214,12062.941252
2 Jan 2000 04:11:46.000,327.874,81.372,12061.143907
2 Jan 2000 04:11:56.000,326.782,81.526,12059.411940
2 Jan 2000 04:12:06.000,325.648,81.678,12057.745406
2 Jan 2000 04:12:16.000,324.472,81.826,12056.144362
2 Jan 2000 04:12:26.000,323.251,81.970,12054.608860
2 Jan 2000 04:12:36.000,321.985,82.110,12053.138953
2 Jan 2000 04:12:46.000,320.673,82.246,12051.734691
2 Jan 2000 04:12:56.000,319.313,82.378,12050.396124
2 Jan 2000 04:13:06.000,317.905,82.505,12049.123298
2 Jan 2000 04:13:16.000,316.447,82.628,12047.916260
2 Jan 2000 04:13:26.000,314.941,82.745,12046.775054
2 Jan 2000 04:13:36.000,313.385,82.857,12045.699722
2 Jan 2000 04:13:46.000,311.779,82.963,12044.690307
2 Jan 2000 04:13:56.000,310.125,83.064,12043.746846
2 Jan 2000 04:14:06.000,308.422,83.158,12042.869380
2 Jan 2000 04:14:16.000,306.672,83.246,12042.057943
2 Jan 2000 04:14:26.000,304.877,83.327,12041.312571
2 Jan 2000 04:14:36.000,303.038,83.402,12040.633297
2 Jan 2000 04:14:46.000,301.159,83.469,12040.020152
2 Jan 2000 04:14:56.000,299.241,83.529,12039.473168
2 Jan 2000 04:15:06.000,297.290,83.581,12038.992372
2 Jan 2000 04:15:16.000,295.308,83.626,12038.577791
2 Jan 2000 04:15:26.000,293.300,83.662,12038.229450
2 Jan 2000 04:15:36.000,291.270,83.691,12037.947374
2 Jan 2000 04:15:46.000,289.225,83.711,12037.731584
2 Jan 2000 04:15:56.000,287.168,83.724,12037.582101
2 Jan 2000 04:16:06.000,285.106,83.727,12037.498944
2 Jan 2000 04:16:16.000,283.044,83.723,12037.482130
2 Jan 2000 04:16:26.000,280.987,83.710,12037.531675
2 Jan 2000 04:16:36.000,278.941,83.689,12037.647592
2 Jan 2000 04:16:46.000,276.912,83.660,12037.829895
2 Jan 2000 04:16:56.000,274.904,83.622,12038.078594
2 Jan 2000 04:17:06.000,272.922,83.577,12038.393698
2 Jan 2000 04:17:16.000,270.971,83.524,12038.775216
2 Jan 2000 04:17:26.000,269.054,83.463,12039.223152
2 Jan 2000 04:17:36.000,267.174,83.395,12039.737512
2 Jan 2000 04:17:46.000,265.335,83.320,12040.318298
2 Jan 2000 04:17:56.000,263.540,83.238,12040.965511
2 Jan 2000 04:18:06.000,261.790,83.149,12041.679151
2 Jan 2000 04:18:16.000,260.087,83.054,12042.459217
2 Jan 2000 04:18:26.000,258.432,82.953,12043.305703
2 Jan 2000 04:18:36.000,256.826,82.846,12044.218605
2 Jan 2000 04:18:46.000,255.270,82.733,12045.197917
2 Jan 2000 04:18:56.000,253.763,82.615,12046.243629
2 Jan 2000 04:19:06.000,252.305,82.492,12047.355731
2 Jan 2000 04:19:16.000,250.896,82.363,12048.534212
2 Jan 2000 04:19:26.000,249.535,82.231,12049.779058
2 Jan 2000 04:19:36.000,248.222,82.094,12051.090255
2 Jan 2000 04:19:46.000,246.955,81.952,12052.467785
2 Jan 2000 04:19:56.000,245.733,81.807,12053.911631
2 Jan 2000 04:20:06.000,244.556,81.658,12055.421773
2 Jan 2000 04:20:16.000,243.420,81.506,12056.998190
2 Jan 2000 04:20:26.000,242.327,81.350,12058.640858
2 Jan 2000 04:20:36.000,241.273,81.191,12060.349753
2 Jan 2000 04:20:46.000,240.258,81.029,12062.124849
2 Jan 2000 04:20:56.000,239.281,80.864,12063.966118
2 Jan 2000 04:21:06.000,238.339,80.697,12065.873530
2 Jan 2000 04:21:16.000,237.432,80.527,12067.847055
2 Jan 2000 04:21:26.000,236.558,80.355,12069.886661
2 Jan 2000 04:21:36.000,235.715,80.180,12071.992313
2 Jan 2000 04:21:46.000,234.904,80.003,12074.163975
2 Jan 2000 04:21:56.000,234.121,79.824,12076.401610
2 Jan 2000 04:22:06.000,233.367,79.644,12078.705180
2 Jan 2000 04:22:16.000,232.639,79.461,12081.074644
2 Jan 2000 04:22:26.000,231.938,79.277,12083.509960
2 Jan 2000 04:22:36.000,231.261,79.091,12086.011084
2 Jan 2000 04:22:46.000,230.608,78.904,12088.577971
2 Jan 2000 04:22:56.000,229.977,78.715,12091.210575
2 Jan 2000 04:23:06.000,229.368,78.525,12093.908848
2 Jan 2000 04:23:16.000,228.780,78.333,12096.672739
2 Jan 2000 04:23:26.000,228.212,78.141,12099.502198
2 Jan 2000 04:23:36.000,227.663,77.947,12102.397171
2 Jan 2000 04:23:46.000,227.133,77.752,12105.357605
2 Jan 2000 04:23:56.000,226.620,77.556,12108.383443
2 Jan 2000 04:24:06.000,226.123,77.358,12111.474628
2 Jan 2000 04:24:16.000,225.643,77.160,12114.631101
2 Jan 2000 04:24:26.000,225.178,76.961,12117.852801
2 Jan 2000 04:24:36.000,224.728,76.762,12121.139667
2 Jan 2000 04:24:46.000,224.292,76.561,12124.491634
2 Jan 2000 04:24:56.000,223.870,76.359,12127.908639
2 Jan 2000 04:25:06.000,223.461,76.157,12131.390615
2 Jan 2000 04:25:16.000,223.064,75.954,12134.937493
2 Jan 2000 04:25:26.000,222.680,75.751,12138.549204
2 Jan 2000 04:25:36.000,222.307,75.547,12142.225678
2 Jan 2000 04:25:46.000,221.945,75.342,12145.966841
2 Jan 2000 04:25:56.000,221.594,75.137,12149.772621
2 Jan 2000 04:26:06.000,221.253,74.931,12153.642941
2 Jan 2000 04:26:16.000,220.922,74.724,12157.577725
2 Jan 2000 04:26:26.000,220.601,74.518,12161.576895
2 Jan 2000 04:26:36.000,220.289,74.310,12165.640371
2 Jan 2000 04:26:46.000,219.986,74.102,12169.768071
2 Jan 2000 04:26:56.000,219.691,73.894,12173.959915
2 Jan 2000 04:27:06.000,219.404,73.686,12178.215816
2 Jan 2000 04:27:16.000,219.125,73.477,12182.535691
2 Jan 2000 04:27:26.000,218.854,73.267,12186.919452
2 Jan 2000 04:27:36.000,218.591,73.058,12191.367012
2 Jan 2000 04:27:46.000,218.334,72.848,12195.878280
2 Jan 2000 04:27:56.000,218.084,72.637,12200.453166
2 Jan 2000 04:28:06.000,217.841,72.427,12205.091577
2 Jan 2000 04:28:16.000,217.604,72.216,12209.793420
2 Jan 2000 04:28:26.000,217.373,72.005,12214.558599
2 Jan 2000 04:28:36.000,217.148,71.793,12219.387018
2 Jan 2000 04:28:46.000,216.929,71.582,12224.278580
2 Jan 2000 04:28:56.000,216.716,71.370,12229.233186
2 Jan 2000 04:29:06.000,216.508,71.158,12234.250734
2 Jan 2000 04:29:16.000,216.305,70.946,12239.331123
2 Jan 2000 04:29:26.000,216.107,70.733,12244.474251
2 Jan 2000 04:29:36.000,215.914,70.521,12249.680011
2 Jan 2000 04:29:46.000,215.726,70.308,12254.948300
2 Jan 2000 04:29:56.000,215.542,70.095,12260.279010
2 Jan 2000 04:30:06.000,215.363,69.882,12265.672032
2 Jan 2000 04:30:16.000,215.188,69.669,12271.127258
2 Jan 2000 04:30:26.000,215.017,69.456,12276.644576
2 Jan 2000 04:30:36.000,214.850,69.242,12282.223874
2 Jan 2000 04:30:46.000,214.687,69.029,12287.865038
2 Jan 2000 04:30:56.000,214.528,68.815,12293.567955
2 Jan 2000 04:31:06.000,214.372,68.601,12299.332509
2 Jan 2000 04:31:16.000,214.220,68.388,12305.158582
2 Jan 2000 04:31:26.000,214.072,68.174,12311.046056
2 Jan 2000 04:31:36.000,213.927,67.960,12316.994812
2 Jan 2000 04:31:46.000,213.785,67.746,12323.004728
2 Jan 2000 04:31:56.000,213.646,67.532,12329.075684
2 Jan 2000 04:32:06.000,213.510,67.318,12335.207556
2 Jan 2000 04:32:16.000,213.378,67.104,12341.400220
2 Jan 2000 04:32:26.000,213.248,66.890,12347.653551
2 Jan 2000 04:32:36.000,213.121,66.676,12353.967421
2 Jan 2000 04:32:46.000,212.997,66.462,12360.341704
2 Jan 2000 04:32:56.000,212.875,66.247,12366.776270
2 Jan 2000 04:33:06.000,212.756,66.033,12373.270990
2 Jan 2000 04:33:16.000,212.640,65.819,12379.825733
2 Jan 2000 04:33:26.000,212.526,65.605,12386.440365
2 Jan 2000 04:33:36.000,212.414,65.391,12393.114755
2 Jan 2000 04:33:46.000,212.305,65.177,12399.848768
2 Jan 2000 04:33:56.000,212.198,64.962,12406.642268
2 Jan 2000 04:34:06.000,212.094,64.748,12413.495118
2 Jan 2000 04:34:16.000,211.991,64.534,12420.407182
2 Jan 2000 04:34:26.000,211.891,64.320,12427.378321
2 Jan 2000 04:34:36.000,211.792,64.106,12434.408394
2 Jan 2000 04:34:46.000,211.696,63.892,12441.497262
2 Jan 2000 04:34:56.000,211.601,63.678,12448.644783
2 Jan 2000 04:35:06.000,211.509,63.464,12455.850813
2 Jan 2000 04:35:16.000,211.418,63.250,12463.115209
2 Jan 2000 04:35:26.000,211.329,63.037,12470.437827
2 Jan 2000 04:35:36.000,211.242,62.823,12477.818520
2 Jan 2000 04:35:46.000,211.156,62.609,12485.257143
2 Jan 2000 04:35:56.000,211.072,62.396,12492.753547
2 Jan 2000 04:36:06.000,210.990,62.182,12500.307584
2 Jan 2000 04:36:16.000,210.910,61.969,12507.919104
2 Jan 2000 04:36:26.000,210.830,61.755,12515.587956
2 Jan 2000 04:36:36.000,210.753,61.542,12523.313991
2 Jan 2000 04:36:46.000,210.677,61.329,12531.097054
2 Jan 2000 04:36:56.000,210.602,61.115,12538.936993
2 Jan 2000 04:37:06.000,210.529,60.902,12546.833654
2 Jan 2000 04:37:16.000,210.457,60.689,12554.786882
2 Jan 2000 04:37:26.000,210.387,60.476,12562.796521
2 Jan 2000 04:37:36.000,210.318,60.264,12570.862414
2 Jan 2000 04:37:46.000,210.250,60.051,12578.984404
2 Jan 2000 04:37:56.000,210.184,59.838,12587.162332
2 Jan 2000 04:38:06.000,210.118,59.626,12595.396038
2 Jan 2000 04:38:16.000,210.054,59.414,12603.685364
2 Jan 2000 04:38:26.000,209.991,59.201,12612.030148
2 Jan 2000 04:38:36.000,209.929,58.989,12620.430228
2 Jan 2000 04:38:46.000,209.869,58.777,12628.885442
2 Jan 2000 04:38:56.000,209.809,58.565,12637.395626
2 Jan 2000 04:39:06.000,209.751,58.353,12645.960617
2 Jan 2000 04:39:16.000,209.693,58.142,12654.580249
2 Jan 2000 04:39:26.000,209.637,57.930,12663.254357
2 Jan 2000 04:39:36.000,209.582,57.719,12671.982775
2 Jan 2000 04:39:46.000,209.527,57.507,12680.765336
2 Jan 2000 04:39:56.000,209.474,57.296,12689.601872
2 Jan 2000 04:40:06.000,209.421,57.085,12698.492214
2 Jan 2000 04:40:16.000,209.370,56.874,12707.436193
2 Jan 2000 04:40:26.000,209.319,56.663,12716.433640
2 Jan 2000 04:40:36.000,209.270,56.453,12725.484383
2 Jan 2000 04:40:46.000,209.221,56.242,12734.588252
2 Jan 2000 04:40:56.000,209.173,56.032,12743.745075
2 Jan 2000 04:41:06.000,209.126,55.821,12752.954678
2 Jan 2000 04:41:16.000,209.079,55.611,12762.216889
2 Jan 2000 04:41:26.000,209.034,55.401,12771.531534
2 Jan 2000 04:41:36.000,208.989,55.192,12780.898439
2 Jan 2000 04:41:46.000,208.945,54.982,12790.317428
2 Jan 2000 04:41:56.000,208.902,54.772,12799.788325
2 Jan 2000 04:42:06.000,208.860,54.563,12809.310955
2 Jan 2000 04:42:16.000,208.818,54.354,12818.885140
2 Jan 2000 04:42:26.000,208.777,54.145,12828.510703
2 Jan 2000 04:42:36.000,208.737,53.936,12838.187466
2 Jan 2000 04:42:46.000,208.697,53.727,12847.915251
2 Jan 2000 04:42:56.000,208.658,53.519,12857.693877
2 Jan 2000 04:43:06.000,208.620,53.310,12867.523166
2 Jan 2000 04:43:16.000,208.582,53.102,12877.402938
2 Jan 2000 04:43:26.000,208.545,52.894,12887.333011
2 Jan 2000 04:43:36.000,208.509,52.686,12897.313204
2 Jan 2000 04:43:46.000,208.473,52.478,12907.343335
2 Jan 2000 04:43:56.000,208.438,52.270,12917.423223
2 Jan 2000 04:44:06.000,208.404,52.063,12927.552685
2 Jan 2000 04:44:16.000,208.370,51.856,12937.731537
2 Jan 2000 04:44:26.000,208.336,51.649,12947.959595
2 Jan 2000 04:44:36.000,208.303,51.442,12958.236676
2 Jan 2000 04:44:46.000,208.271,51.235,12968.562595
2 Jan 2000 04:44:56.000,208.239,51.028,12978.937168
2 Jan 2000 04:45:06.000,208.208,50.822,12989.360207
2 Jan 2000 04:45:16.000,208.177,50.616,12999.831529
2 Jan 2000 04:45:26.000,208.147,50.410,13010.350945
2 Jan 2000 04:45:36.000,208.117,50.204,13020.918271
2 Jan 2000 04:45:46.000,208.088,49.998,13031.533318
2 Jan 2000 04:45:56.000,208.060,49.793,13042.195900
2 Jan 2000 04:46:06.000,208.031,49.587,13052.905828
2 Jan 2000 04:46:16.000,208.003,49.382,13063.662914
2 Jan 2000 04:46:26.000,207.976,49.177,13074.466970
2 Jan 2000 04:46:36.000,207.949,48.972,13085.317807
2 Jan 2000 04:46:46.000,207.923,48.768,13096.215235
2 Jan 2000 04:46:56.000,207.897,48.563,13107.159065
2 Jan 2000 04:47:06.000,207.871,48.359,13118.149108
2 Jan 2000 04:47:16.000,207.846,48.155,13129.185172
2 Jan 2000 04:47:26.000,207.821,47.951,13140.267068
2 Jan 2000 04:47:36.000,207.797,47.748,13151.394605
2 Jan 2000 04:47:46.000,207.773,47.544,13162.567591
2 Jan 2000 04:47:56.000,207.749,47.341,13173.785835
2 Jan 2000 04:48:06.000,207.726,47.138,13185.049146
2 Jan 2000 04:48:16.000,207.703,46.935,13196.357332
2 Jan 2000 04:48:26.000,207.681,46.732,13207.710199
2 Jan 2000 04:48:36.000,207.659,46.530,13219.107557
2 Jan 2000 04:48:46.000,207.637,46.327,13230.549212
2 Jan 2000 04:48:56.000,207.616,46.125,13242.034972
2 Jan 2000 04:49:06.000,207.595,45.923,13253.564643
2 Jan 2000 04:49:16.000,207.574,45.722,13265.138032
2 Jan 2000 04:49:26.000,207.554,45.520,13276.754945
2 Jan 2000 04:49:36.000,207.534,45.319,13288.415190
2 Jan 2000 04:49:46.000,207.514,45.118,13300.118571
2 Jan 2000 04:49:56.000,207.495,44.917,13311.864894
2 Jan 2000 04:50:06.000,207.475,44.716,13323.653966
2 Jan 2000 04:50:16.000,207.457,44.515,13335.485592
2 Jan 2000 04:50:26.000,207.438,44.315,13347.359578
2 Jan 2000 04:50:36.000,207.420,44.115,13359.275727
2 Jan 2000 04:50:46.000,207.402,43.915,13371.233846
2 Jan 2000 04:50:56.000,207.385,43.715,13383.233740
2 Jan 2000 04:51:06.000,207.367,43.516,13395.275213
2 Jan 2000 04:51:16.000,207.350,43.316,13407.358070
2 Jan 2000 04:51:26.000,207.333,43.117,13419.482115
2 Jan 2000 04:51:36.000,207.317,42.918,13431.647153
2 Jan 2000 04:51:46.000,207.301,42.720,13443.852988
2 Jan 2000 04:51:56.000,207.285,42.521,13456.099425
2 Jan 2000 04:52:06.000,207.269,42.323,13468.386267
2 Jan 2000 04:52:16.000,207.253,42.125,13480.713319
2 Jan 2000 04:52:26.000,207.238,41.927,13493.080384
2 Jan 2000 04:52:36.000,207.223,41.729,13505.487267
2 Jan 2000 04:52:46.000,207.209,41.532,13517.933771
2 Jan 2000 04:52:56.000,207.194,41.334,13530.419700
2 Jan 2000 04:53:06.000,207.180,41.137,13542.944857
2 Jan 2000 04:53:16.000,207.166,40.940,13555.509048
2 Jan 2000 04:53:26.000,207.152,40.744,13568.112074
2 Jan 2000 04:53:36.000,207.138,40.547,13580.753740
2 Jan 2000 04:53:46.000,207.125,40.351,13593.433849
2 Jan 2000 04:53:56.000,207.112,40.155,13606.152205
2 Jan 2000 04:54:06.000,207.099,39.959,13618.908612
2 Jan 2000 04:54:16.000,207.086,39.764,13631.702872
2 Jan 2000 04:54:26.000,207.073,39.568,13644.534790
2 Jan 2000 04:54:36.000,207.061,39.373,13657.404169
2 Jan 2000 04:54:46.000,207.049,39.178,13670.310813
2 Jan 2000 04:54:56.000,207.037,38.983,13683.254524
2 Jan 2000 04:55:06.000,207.025,38.789,13696.235107
2 Jan 2000 04:55:16.000,207.013,38.594,13709.252366
2 Jan 2000 04:55:26.000,207.002,38.400,13722.306104
2 Jan 2000 04:55:36.000,206.991,38.206,13735.396124
2 Jan 2000 04:55:46.000,206.979,38.013,13748.522231
2 Jan 2000 04:55:56.000,206.969,37.819,13761.684228
2 Jan 2000 04:56:06.000,206.958,37.626,13774.881920
2 Jan 2000 04:56:16.000,206.947,37.433,13788.115109
2 Jan 2000 04:56:26.000,206.937,37.240,13801.383600
2 Jan 2000 04:56:36.000,206.927,37.047,13814.687197
2 Jan 2000 04:56:46.000,206.917,36.855,13828.025705
2 Jan 2000 04:56:56.000,206.907,36.663,13841.398927
2 Jan 2000 04:57:06.000,206.897,36.471,13854.806667
2 Jan 2000 04:57:16.000,206.887,36.279,13868.248731
2 Jan 2000 04:57:26.000,206.878,36.087,13881.724922
2 Jan 2000 04:57:36.000,206.868,35.896,13895.235046
2 Jan 2000 04:57:46.000,206.859,35.705,13908.778906
2 Jan 2000 04:57:56.000,206.850,35.514,13922.356309
2 Jan 2000 04:58:06.000,206.841,35.323,13935.967057
2 Jan 2000 04:58:16.000,206.833,35.133,13949.610958
2 Jan 2000 04:58:22.930,206.827,35.001,13959.085880

Interval Statistics
"Min Elevation",2 Jan 2000 04:58:22.930,206.827,35.001,13959.085880
"Max Elevation",2 Jan 2000 04:16:05.589,285.191,83.727,12037.501054
"Mean Elevation",,,64.775,
"Min Range",2 Jan 2000 04:16:13.534,283.552,83.725,12037.480113
"Max Range",2 Jan 2000 04:58:22.930,206.827,35.001,13959.085880
"Mean Range",,,,12545.988229

"Time (UTCG)","Azimuth (deg)","Elevation (deg)","Range (km)"
2 Jan 2000 16:04:51.610,189.228,57.640,12674.295293
2 Jan 2000 16:05:01.000,189.366,57.827,12666.558498
2 Jan 2000 16:05:11.000,189.514,58.027,12658.369596
2 Jan 2000 16:05:21.000,189.665,58.226,12650.232860
2 Jan 2000 16:05:31.000,189.817,58.425,12642.148427
2 Jan 2000 16:05:41.000,189.970,58.624,12634.116435
2 Jan 2000 16:05:51.000,190.125,58.823,12626.137021
2 Jan 2000 16:06:01.000,190.282,59.023,12618.210319
2 Jan 2000 16:06:11.000,190.441,59.222,12610.336465
2 Jan 2000 16:06:21.000,190.601,59.421,12602.515593
2 Jan 2000 16:06:31.000,190.763,59.620,12594.747836
2 Jan 2000 16:06:41.000,190.928,59.819,12587.033327
2 Jan 2000 16:06:51.000,191.093,60.018,12579.372197
2 Jan 2000 16:07:01.000,191.261,60.217,12571.764578
2 Jan 2000 16:07:11.000,191.431,60.417,12564.210598
2 Jan 2000 16:07:21.000,191.603,60.616,12556.710388
2 Jan 2000 16:07:31.000,191.777,60.815,12549.264076
2 Jan 2000 16:07:41.000,191.953,61.014,12541.871789
2 Jan 2000 16:07:51.000,192.131,61.212,12534.533654
2 Jan 2000 16:08:01.000,192.311,61.411,12527.249797
2 Jan 2000 16:08:11.000,192.494,61.610,12520.020342
2 Jan 2000 16:08:21.000,192.678,61.809,12512.845415
2 Jan 2000 16:08:31.000,192.865,62.007,12505.725137
2 Jan 2000 16:08:41.000,193.055,62.206,12498.659631
2 Jan 2000 16:08:51.000,193.246,62.404,12491.649019
2 Jan 2000 16:09:01.000,193.441,62.603,12484.693420
2 Jan 2000 16:09:11.000,193.637,62.801,12477.792955
2 Jan 2000 16:09:21.000,193.836,62.999,12470.947742
2 Jan 2000 16:09:31.000,194.038,63.197,12464.157899
2 Jan 2000 16:09:41.000,194.243,63.395,12457.423542
2 Jan 2000 16:09:51.000,194.450,63.593,12450.744787
2 Jan 2000 16:10:01.000,194.660,63.791,12444.121749
2 Jan 2000 16:10:11.000,194.872,63.989,12437.554541
2 Jan 2000 16:10:21.000,195.088,64.186,12431.043277
2 Jan 2000 16:10:31.000,195.307,64.383,12424.588069
2 Jan 2000 16:10:41.000,195.528,64.580,12418.189027
2 Jan 2000 16:10:51.000,195.753,64.777,12411.846260
2 Jan 2000 16:11:01.000,195.981,64.974,12405.559879
2 Jan 2000 16:11:11.000,196.212,65.171,12399.329991
2 Jan 2000 16:11:21.000,196.446,65.367,12393.156703
2 Jan 2000 16:11:31.000,196.684,65.564,12387.040120
2 Jan 2000 16:11:41.000,196.925,65.760,12380.980347
2 Jan 2000 16:11:51.000,197.170,65.955,12374.977488
2 Jan 2000 16:12:01.000,197.418,66.151,12369.031647
2 Jan 2000 16:12:11.000,197.670,66.346,12363.142923
2 Jan 2000 16:12:21.000,197.926,66.541,12357.311419
2 Jan 2000 16:12:31.000,198.186,66.736,12351.537233
2 Jan 2000 16:12:41.000,198.449,66.931,12345.820464
2 Jan 2000 16:12:51.000,198.717,67.125,12340.161209
2 Jan 2000 16:13:01.000,198.989,67.319,12334.559564
2 Jan 2000 16:13:11.000,199.265,67.513,12329.015625
2 Jan 2000 16:13:21.000,199.545,67.706,12323.529486
2 Jan 2000 16:13:31.000,199.830,67.899,12318.101240
2 Jan 2000 16:13:41.000,200.120,68.092,12312.730978
2 Jan 2000 16:13:51.000,200.414,68.284,12307.418791
2 Jan 2000 16:14:01.000,200.713,68.476,12302.164769
2 Jan 2000 16:14:11.000,201.017,68.668,12296.968999
2 Jan 2000 16:14:21.000,201.326,68.859,12291.831571
2 Jan 2000 16:14:31.000,201.640,69.050,12286.752569
2 Jan 2000 16:14:41.000,201.959,69.240,12281.732078
2 Jan 2000 16:14:51.000,202.284,69.430,12276.770183
2 Jan 2000 16:15:01.000,202.614,69.620,12271.866966
2 Jan 2000 16:15:11.000,202.950,69.809,12267.022508
2 Jan 2000 16:15:21.000,203.292,69.997,12262.236890
2 Jan 2000 16:15:31.000,203.640,70.186,12257.510191
2 Jan 2000 16:15:41.000,203.994,70.373,12252.842488
2 Jan 2000 16:15:51.000,204.354,70.560,12248.233859
2 Jan 2000 16:16:01.000,204.721,70.746,12243.684379
2 Jan 2000 16:16:11.000,205.094,70.932,12239.194123
2 Jan 2000 16:16:21.000,205.474,71.117,12234.763162
2 Jan 2000 16:16:31.000,205.861,71.302,12230.391570
2 Jan 2000 16:16:41.000,206.256,71.486,12226.079417
2 Jan 2000 16:16:51.000,206.657,71.669,12221.826772
2 Jan 2000 16:17:01.000,207.067,71.852,12217.633704
2 Jan 2000 16:17:11.000,207.484,72.034,12213.500279
2 Jan 2000 16:17:21.000,207.908,72.215,12209.426563
2 Jan 2000 16:17:31.000,208.342,72.395,12205.412620
2 Jan 2000 16:17:41.000,208.783,72.574,12201.458514
2 Jan 2000 16:17:51.000,209.233,72.753,12197.564307
2 Jan 2000 16:18:01.000,209.692,72.931,12193.730058
2 Jan 2000 16:18:11.000,210.160,73.108,12189.955829
2 Jan 2000 16:18:21.000,210.637,73.284,12186.241675
2 Jan 2000 16:18:31.000,211.124,73.459,12182.587656
2 Jan 2000 16:18:41.000,211.620,73.633,12178.993825
2 Jan 2000 16:18:51.000,212.126,73.806,12175.460237
2 Jan 2000 16:19:01.000,212.643,73.978,12171.986945
2 Jan 2000 16:19:11.000,213.171,74.148,12168.574001
2 Jan 2000 16:19:21.000,213.709,74.318,12165.221455
2 Jan 2000 16:19:31.000,214.258,74.487,12161.929357
2 Jan 2000 16:19:41.000,214.818,74.654,12158.697753
2 Jan 2000 16:19:51.000,215.391,74.820,12155.526690
2 Jan 2000 16:20:01.000,215.975,74.984,12152.416213
2 Jan 2000 16:20:11.000,216.571,75.148,12149.366366
2 Jan 2000 16:20:21.000,217.180,75.310,12146.377192
2 Jan 2000 16:20:31.000,217.802,75.470,12143.448732
2 Jan 2000 16:20:41.000,218.437,75.629,12140.581024
2 Jan 2000 16:20:51.000,219.086,75.786,12137.774109
2 Jan 2000 16:21:01.000,219.748,75.942,12135.028022
2 Jan 2000 16:21:11.000,220.424,76.096,12132.342800
2 Jan 2000 16:21:21.000,221.115,76.248,12129.718477
2 Jan 2000 16:21:31.000,221.821,76.399,12127.155086
2 Jan 2000 16:21:41.000,222.541,76.547,12124.652659
2 Jan 2000 16:21:51.000,223.277,76.694,12122.211226
2 Jan 2000 16:22:01.000,224.028,76.839,12119.830817
2 Jan 2000 16:22:11.000,224.795,76.981,12117.511458
2 Jan 2000 16:22:21.000,225.579,77.122,12115.253176
2 Jan 2000 16:22:31.000,226.378,77.260,12113.055996
2 Jan 2000 16:22:41.000,227.195,77.396,12110.919942
2 Jan 2000 16:22:51.000,228.028,77.530,12108.845036
2 Jan 2000 16:23:01.000,228.879,77.661,12106.831298
2 Jan 2000 16:23:11.000,229.747,77.789,12104.878748
2 Jan 2000 16:23:21.000,230.633,77.915,12102.987404
2 Jan 2000 16:23:31.000,231.536,78.039,12101.157284
2 Jan 2000 16:23:41.000,232.458,78.159,12099.388401
2 Jan 2000 16:23:51.000,233.397,78.277,12097.680771
2 Jan 2000 16:24:01.000,234.355,78.392,12096.034405
2 Jan 2000 16:24:11.000,235.331,78.503,12094.449315
2 Jan 2000 16:24:21.000,236.325,78.612,12092.925511
2 Jan 2000 16:24:31.000,237.337,78.717,12091.463001
2 Jan 2000 16:24:41.000,238.368,78.819,12090.061792
2 Jan 2000 16:24:51.000,239.416,78.918,12088.721890
2 Jan 2000 16:25:01.000,240.482,79.013,12087.443300
2 Jan 2000 16:25:11.000,241.566,79.104,12086.226023
2 Jan 2000 16:25:21.000,242.667,79.192,12085.070062
2 Jan 2000 16:25:31.000,243.786,79.276,12083.975417
2 Jan 2000 16:25:41.000,244.921,79.356,12082.942086
2 Jan 2000 16:25:51.000,246.072,79.433,12081.970067
2 Jan 2000 16:26:01.000,247.239,79.505,12081.059356
2 Jan 2000 16:26:11.000,248.421,79.573,12080.209948
2 Jan 2000 16:26:21.000,249.618,79.637,12079.421835
2 Jan 2000 16:26:31.000,250.829,79.696,12078.695009
2 Jan 2000 16:26:41.000,252.052,79.751,12078.029461
2 Jan 2000 16:26:51.000,253.288,79.802,12077.425181
2 Jan 2000 16:27:01.000,254.536,79.848,12076.882154
2 Jan 2000 16:27:11.000,255.794,79.890,12076.400369
2 Jan 2000 16:27:21.000,257.061,79.927,12075.979810
2 Jan 2000 16:27:31.000,258.337,79.960,12075.620460
2 Jan 2000 16:27:41.000,259.620,79.987,12075.322301
2 Jan 2000 16:27:51.000,260.909,80.010,12075.085315
2 Jan 2000 16:28:01.000,262.203,80.028,12074.909481
2 Jan 2000 16:28:11.000,263.502,80.042,12074.794776
2 Jan 2000 16:28:21.000,264.802,80.050,12074.741177
2 Jan 2000 16:28:31.000,266.105,80.054,12074.748661
2 Jan 2000 16:28:41.000,267.407,80.053,12074.817199
2 Jan 2000 16:28:51.000,268.709,80.047,12074.946766
2 Jan 2000 16:29:01.000,270.008,80.036,12075.137332
2 Jan 2000 16:29:11.000,271.304,80.021,12075.388867
2 Jan 2000 16:29:21.000,272.595,80.000,12075.701340
2 Jan 2000 16:29:31.000,273.880,79.975,12076.074717
2 Jan 2000 16:29:41.000,275.158,79.946,12076.508965
2 Jan 2000 16:29:51.000,276.428,79.911,12077.004047
2 Jan 2000 16:30:01.000,277.689,79.872,12077.559927
2 Jan 2000 16:30:11.000,278.940,79.828,12078.176566
2 Jan 2000 16:30:21.000,280.180,79.780,12078.853925
2 Jan 2000 16:30:31.000,281.408,79.728,12079.591962
2 Jan 2000 16:30:41.000,282.623,79.671,12080.390636
2 Jan 2000 16:30:51.000,283.824,79.610,12081.249903
2 Jan 2000 16:31:01.000,285.012,79.545,12082.169717
2 Jan 2000 16:31:11.000,286.184,79.475,12083.150032
2 Jan 2000 16:31:21.000,287.340,79.402,12084.190801
2 Jan 2000 16:31:31.000,288.481,79.324,12085.291975
2 Jan 2000 16:31:41.000,289.605,79.243,12086.453502
2 Jan 2000 16:31:51.000,290.713,79.158,12087.675332
2 Jan 2000 16:32:01.000,291.803,79.069,12088.957412
2 Jan 2000 16:32:11.000,292.875,78.977,12090.299687
2 Jan 2000 16:32:21.000,293.930,78.881,12091.702101
2 Jan 2000 16:32:31.000,294.967,78.782,12093.164599
2 Jan 2000 16:32:41.000,295.986,78.679,12094.687120
2 Jan 2000 16:32:51.000,296.987,78.573,12096.269608
2 Jan 2000 16:33:01.000,297.970,78.465,12097.911999
2 Jan 2000 16:33:11.000,298.935,78.353,12099.614233
2 Jan 2000 16:33:21.000,299.881,78.238,12101.376245
2 Jan 2000 16:33:31.000,300.810,78.120,12103.197972
2 Jan 2000 16:33:41.000,301.721,78.000,12105.079348
2 Jan 2000 16:33:51.000,302.614,77.877,12107.020305
2 Jan 2000 16:34:01.000,303.489,77.751,12109.020775
2 Jan 2000 16:34:11.000,304.347,77.623,12111.080688
2 Jan 2000 16:34:21.000,305.188,77.493,12113.199973
2 Jan 2000 16:34:31.000,306.012,77.360,12115.378559
2 Jan 2000 16:34:41.000,306.819,77.225,12117.616372
2 Jan 2000 16:34:51.000,307.610,77.087,12119.913337
2 Jan 2000 16:35:01.000,308.385,76.948,12122.269378
2 Jan 2000 16:35:11.000,309.144,76.806,12124.684418
2 Jan 2000 16:35:21.000,309.887,76.663,12127.158380
2 Jan 2000 16:35:31.000,310.615,76.518,12129.691183
2 Jan 2000 16:35:41.000,311.329,76.371,12132.282747
2 Jan 2000 16:35:51.000,312.027,76.222,12134.932990
2 Jan 2000 16:36:01.000,312.711,76.071,12137.641828
2 Jan 2000 16:36:11.000,313.381,75.919,12140.409178
2 Jan 2000 16:36:21.000,314.037,75.765,12143.234954
2 Jan 2000 16:36:31.000,314.680,75.610,12146.119069
2 Jan 2000 16:36:41.000,315.310,75.453,12149.061436
2 Jan 2000 16:36:51.000,315.927,75.295,12152.061965
2 Jan 2000 16:37:01.000,316.531,75.135,12155.120566
2 Jan 2000 16:37:11.000,317.123,74.974,12158.237149
2 Jan 2000 16:37:21.000,317.703,74.812,12161.411620
2 Jan 2000 16:37:31.000,318.272,74.648,12164.643886
2 Jan 2000 16:37:41.000,318.829,74.484,12167.933852
2 Jan 2000 16:37:51.000,319.375,74.318,12171.281423
2 Jan 2000 16:38:01.000,319.910,74.151,12174.686502
2 Jan 2000 16:38:11.000,320.435,73.983,12178.148989
2 Jan 2000 16:38:21.000,320.950,73.814,12181.668787
2 Jan 2000 16:38:31.000,321.454,73.644,12185.245795
2 Jan 2000 16:38:41.000,321.949,73.473,12188.879912
2 Jan 2000 16:38:51.000,322.434,73.302,12192.571035
2 Jan 2000 16:39:01.000,322.910,73.129,12196.319060
2 Jan 2000 16:39:11.000,323.377,72.955,12200.123883
2 Jan 2000 16:39:21.000,323.836,72.781,12203.985399
2 Jan 2000 16:39:31.000,324.286,72.606,12207.903501
2 Jan 2000 16:39:41.000,324.727,72.430,12211.878080
2 Jan 2000 16:39:51.000,325.160,72.253,12215.909028
2 Jan 2000 16:40:01.000,325.586,72.076,12219.996236
2 Jan 2000 16:40:11.000,326.003,71.898,12224.139593
2 Jan 2000 16:40:21.000,326.414,71.720,12228.338985
2 Jan 2000 16:40:31.000,326.817,71.540,12232.594302
2 Jan 2000 16:40:41.000,327.213,71.360,12236.905428
2 Jan 2000 16:40:51.000,327.601,71.180,12241.272249
2 Jan 2000 16:41:01.000,327.984,70.999,12245.694650
2 Jan 2000 16:41:11.000,328.359,70.817,12250.172512
2 Jan 2000 16:41:21.000,328.728,70.635,12254.705719
2 Jan 2000 16:41:31.000,329.091,70.453,12259.294152
2 Jan 2000 16:41:41.000,329.448,70.270,12263.937691
2 Jan 2000 16:41:51.000,329.799,70.086,12268.636214
2 Jan 2000 16:42:01.000,330.144,69.902,12273.389602
2 Jan 2000 16:42:11.000,330.484,69.718,12278.197730
2 Jan 2000 16:42:21.000,330.818,69.533,12283.060476
2 Jan 2000 16:42:31.000,331.146,69.348,12287.977716
2 Jan 2000 16:42:41.000,331.470,69.163,12292.949323
2 Jan 2000 16:42:51.000,331.788,68.977,12297.975172
2 Jan 2000 16:43:01.000,332.101,68.791,12303.055135
2 Jan 2000 16:43:11.000,332.410,68.604,12308.189085
2 Jan 2000 16:43:21.000,332.714,68.417,12313.376893
2 Jan 2000 16:43:31.000,333.013,68.230,12318.618430
2 Jan 2000 16:43:41.000,333.308,68.043,12323.913563
2 Jan 2000 16:43:51.000,333.598,67.855,12329.262163
2 Jan 2000 16:44:01.000,333.884,67.667,12334.664097
2 Jan 2000 16:44:11.000,334.166,67.479,12340.119231
2 Jan 2000 16:44:21.000,334.443,67.290,12345.627433
2 Jan 2000 16:44:31.000,334.717,67.102,12351.188566
2 Jan 2000 16:44:41.000,334.987,66.913,12356.802496
2 Jan 2000 16:44:51.000,335.253,66.724,12362.469087
2 Jan 2000 16:45:01.000,335.516,66.534,12368.188200
2 Jan 2000 16:45:11.000,335.774,66.345,12373.959699
2 Jan 2000 16:45:21.000,336.030,66.155,12379.783444
2 Jan 2000 16:45:31.000,336.281,65.965,12385.659297
2 Jan 2000 16:45:41.000,336.530,65.775,12391.587116
2 Jan 2000 16:45:51.000,336.775,65.585,12397.566761
2 Jan 2000 16:46:01.000,337.017,65.395,12403.598091
2 Jan 2000 16:46:11.000,337.256,65.204,12409.680962
2 Jan 2000 16:46:21.000,337.491,65.014,12415.815232
2 Jan 2000 16:46:31.000,337.724,64.823,12422.000757
2 Jan 2000 16:46:41.000,337.954,64.632,12428.237392
2 Jan 2000 16:46:51.000,338.181,64.441,12434.524992
2 Jan 2000 16:47:01.000,338.405,64.250,12440.863412
2 Jan 2000 16:47:11.000,338.626,64.059,12447.252503
2 Jan 2000 16:47:21.000,338.845,63.868,12453.692120
2 Jan 2000 16:47:31.000,339.061,63.677,12460.182113
2 Jan 2000 16:47:41.000,339.274,63.486,12466.722336
2 Jan 2000 16:47:51.000,339.485,63.294,12473.312637
2 Jan 2000 16:48:01.000,339.694,63.103,12479.952868
2 Jan 2000 16:48:11.000,339.900,62.912,12486.642877
2 Jan 2000 16:48:21.000,340.104,62.720,12493.382514
2 Jan 2000 16:48:31.000,340.305,62.529,12500.171627
2 Jan 2000 16:48:41.000,340.504,62.337,12507.010064
2 Jan 2000 16:48:51.000,340.701,62.146,12513.897671
2 Jan 2000 16:49:01.000,340.896,61.954,12520.834294
2 Jan 2000 16:49:11.000,341.089,61.762,12527.819781
2 Jan 2000 16:49:21.000,341.279,61.571,12534.853976
2 Jan 2000 16:49:31.000,341.468,61.379,12541.936724
2 Jan 2000 16:49:41.000,341.655,61.187,12549.067869
2 Jan 2000 16:49:51.000,341.839,60.996,12556.247254
2 Jan 2000 16:50:01.000,342.022,60.804,12563.474723
2 Jan 2000 16:50:11.000,342.203,60.613,12570.750119
2 Jan 2000 16:50:21.000,342.382,60.421,12578.073283
2 Jan 2000 16:50:31.000,342.559,60.229,12585.444057
2 Jan 2000 16:50:41.000,342.735,60.038,12592.862282
2 Jan 2000 16:50:51.000,342.909,59.846,12600.327799
2 Jan 2000 16:51:01.000,343.081,59.655,12607.840448
2 Jan 2000 16:51:11.000,343.251,59.464,12615.400067
2 Jan 2000 16:51:21.000,343.420,59.272,12623.006498
2 Jan 2000 16:51:31.000,343.587,59.081,12630.659577
2 Jan 2000 16:51:41.000,343.753,58.890,12638.359143
2 Jan 2000 16:51:51.000,343.917,58.698,12646.105035
2 Jan 2000 16:52:01.000,344.079,58.507,12653.897089
2 Jan 2000 16:52:11.000,344.241,58.316,12661.735142
2 Jan 2000 16:52:21.000,344.400,58.125,12669.619031
2 Jan 2000 16:52:31.000,344.559,57.934,12677.548592
2 Jan 2000 16:52:41.000,344.716,57.743,12685.523660
2 Jan 2000 16:52:51.000,344.871,57.552,12693.544071
2 Jan 2000 16:53:01.000,345.025,57.361,12701.609660
2 Jan 2000 16:53:11.000,345.178,57.171,12709.720261
2 Jan 2000 16:53:21.000,345.330,56.980,12717.875708
2 Jan 2000 16:53:31.000,345.480,56.790,12726.075836
2 Jan 2000 16:53:41.000,345.629,56.599,12734.320477
2 Jan 2000 16:53:51.000,345.777,56.409,12742.609464
2 Jan 2000 16:54:01.000,345.924,56.219,12750.942631
2 Jan 2000 16:54:11.000,346.069,56.028,12759.319810
2 Jan 2000 16:54:21.000,346.214,55.838,12767.740832
2 Jan 2000 16:54:31.000,346.357,55.648,12776.205530
2 Jan 2000 16:54:41.000,346.499,55.459,12784.713735
2 Jan 2000 16:54:51.000,346.640,55.269,12793.265278
2 Jan 2000 16:55:01.000,346.780,55.079,12801.859991
2 Jan 2000 16:55:11.000,346.919,54.890,12810.497703
2 Jan 2000 16:55:21.000,347.057,54.700,12819.178245
2 Jan 2000 16:55:31.000,347.194,54.511,12827.901446
2 Jan 2000 16:55:41.000,347.329,54.322,12836.667138
2 Jan 2000 16:55:51.000,347.464,54.133,12845.475149
2 Jan 2000 16:56:01.000,347.598,53.944,12854.325308
2 Jan 2000 16:56:11.000,347.731,53.755,12863.217445
2 Jan 2000 16:56:21.000,347.863,53.566,12872.151388
2 Jan 2000 16:56:31.000,347.994,53.377,12881.126965
2 Jan 2000 16:56:41.000,348.124,53.189,12890.144006
2 Jan 2000 16:56:51.000,348.254,53.001,12899.202339
2 Jan 2000 16:57:01.000,348.382,52.812,12908.301790
2 Jan 2000 16:57:11.000,348.510,52.624,12917.442189
2 Jan 2000 16:57:21.000,348.637,52.436,12926.623362
2 Jan 2000 16:57:31.000,348.763,52.249,12935.845137
2 Jan 2000 16:57:41.000,348.888,52.061,12945.107341
2 Jan 2000 16:57:51.000,349.012,51.874,12954.409801
2 Jan 2000 16:58:01.000,349.136,51.686,12963.752344
2 Jan 2000 16:58:11.000,349.258,51.499,12973.134796
2 Jan 2000 16:58:21.000,349.380,51.312,12982.556985
2 Jan 2000 16:58:31.000,349.502,51.125,12992.018736
2 Jan 2000 16:58:41.000,349.622,50.938,13001.519876
2 Jan 2000 16:58:51.000,349.742,50.751,13011.060231
2 Jan 2000 16:59:01.000,349.861,50.565,13020.639627
2 Jan 2000 16:59:11.000,349.979,50.379,13030.257890
2 Jan 2000 16:59:21.000,350.097,50.192,13039.914846
2 Jan 2000 16:59:31.000,350.214,50.006,13049.610320
2 Jan 2000 16:59:41.000,350.330,49.821,13059.344138
2 Jan 2000 16:59:51.000,350.446,49.635,13069.116125
2 Jan 2000 17:00:01.000,350.561,49.449,13078.926107
2 Jan 2000 17:00:11.000,350.676,49.264,13088.773910
2 Jan 2000 17:00:21.000,350.789,49.079,13098.659358
2 Jan 2000 17:00:31.000,350.903,48.894,13108.582277
2 Jan 2000 17:00:41.000,351.015,48.709,13118.542492
2 Jan 2000 17:00:51.000,351.127,48.524,13128.539828
2 Jan 2000 17:01:01.000,351.239,48.339,13138.574110
2 Jan 2000 17:01:11.000,351.350,48.155,13148.645163
2 Jan 2000 17:01:21.000,351.460,47.971,13158.752812
2 Jan 2000 17:01:31.000,351.570,47.787,13168.896883
2 Jan 2000 17:01:41.000,351.679,47.603,13179.077199
2 Jan 2000 17:01:51.000,351.787,47.419,13189.293586
2 Jan 2000 17:02:01.000,351.895,47.235,13199.545870
2 Jan 2000 17:02:11.000,352.003,47.052,13209.833874
2 Jan 2000 17:02:21.000,352.110,46.869,13220.157424
2 Jan 2000 17:02:31.000,352.217,46.686,13230.516344
2 Jan 2000 17:02:41.000,352.323,46.503,13240.910460
2 Jan 2000 17:02:51.000,352.428,46.320,13251.339597
2 Jan 2000 17:03:01.000,352.533,46.138,13261.803579
2 Jan 2000 17:03:11.000,352.638,45.955,13272.302232
2 Jan 2000 17:03:21.000,352.742,45.773,13282.835381
2 Jan 2000 17:03:31.000,352.845,45.591,13293.402850
2 Jan 2000 17:03:41.000,352.949,45.409,13304.004465
2 Jan 2000 17:03:51.000,353.051,45.228,13314.640051
2 Jan 2000 17:04:01.000,353.154,45.046,13325.309434
2 Jan 2000 17:04:11.000,353.256,44.865,13336.012438
2 Jan 2000 17:04:21.000,353.357,44.684,13346.748889
2 Jan 2000 17:04:31.000,353.458,44.503,13357.518612
2 Jan 2000 17:04:41.000,353.559,44.322,13368.321433
2 Jan 2000 17:04:51.000,353.659,44.142,13379.157178
