cemeouhf_ael/Place-CEMID-Sensor-Sensor1-To-Satellite-POLMEO25_AER.csv

"Time (UTCG)","Azimuth (deg)","Elevation (deg)","Range (km)"
1 Jan 2000 21:08:09.058,154.170,55.519,12766.084807
1 Jan 2000 21:08:19.000,154.140,55.729,12756.811792
1 Jan 2000 21:08:29.000,154.109,55.940,12747.537065
1 Jan 2000 21:08:39.000,154.078,56.151,12738.314740
1 Jan 2000 21:08:49.000,154.046,56.363,12729.144987
1 Jan 2000 21:08:59.000,154.014,56.574,12720.027979
1 Jan 2000 21:09:09.000,153.980,56.786,12710.963886
1 Jan 2000 21:09:19.000,153.947,56.998,12701.952878
1 Jan 2000 21:09:29.000,153.912,57.210,12692.995124
1 Jan 2000 21:09:39.000,153.877,57.422,12684.090793
1 Jan 2000 21:09:49.000,153.840,57.635,12675.240053
1 Jan 2000 21:09:59.000,153.804,57.847,12666.443071
1 Jan 2000 21:10:09.000,153.766,58.060,12657.700013
1 Jan 2000 21:10:19.000,153.728,58.273,12649.011046
1 Jan 2000 21:10:29.000,153.688,58.486,12640.376335
1 Jan 2000 21:10:39.000,153.648,58.699,12631.796044
1 Jan 2000 21:10:49.000,153.608,58.912,12623.270336
1 Jan 2000 21:10:59.000,153.566,59.126,12614.799374
1 Jan 2000 21:11:09.000,153.523,59.339,12606.383321
1 Jan 2000 21:11:19.000,153.480,59.553,12598.022338
1 Jan 2000 21:11:29.000,153.435,59.767,12589.716585
1 Jan 2000 21:11:39.000,153.390,59.981,12581.466222
1 Jan 2000 21:11:49.000,153.344,60.195,12573.271408
1 Jan 2000 21:11:59.000,153.297,60.409,12565.132301
1 Jan 2000 21:12:09.000,153.248,60.623,12557.049058
1 Jan 2000 21:12:19.000,153.199,60.838,12549.021836
1 Jan 2000 21:12:29.000,153.149,61.052,12541.050790
1 Jan 2000 21:12:39.000,153.097,61.267,12533.136075
1 Jan 2000 21:12:49.000,153.045,61.482,12525.277844
1 Jan 2000 21:12:59.000,152.991,61.697,12517.476252
1 Jan 2000 21:13:09.000,152.936,61.912,12509.731449
1 Jan 2000 21:13:19.000,152.880,62.127,12502.043588
1 Jan 2000 21:13:29.000,152.823,62.342,12494.412817
1 Jan 2000 21:13:39.000,152.764,62.558,12486.839287
1 Jan 2000 21:13:49.000,152.704,62.773,12479.323147
1 Jan 2000 21:13:59.000,152.643,62.989,12471.864543
1 Jan 2000 21:14:09.000,152.581,63.204,12464.463622
1 Jan 2000 21:14:19.000,152.517,63.420,12457.120530
1 Jan 2000 21:14:29.000,152.452,63.636,12449.835412
1 Jan 2000 21:14:39.000,152.385,63.852,12442.608410
1 Jan 2000 21:14:49.000,152.317,64.068,12435.439668
1 Jan 2000 21:14:59.000,152.247,64.284,12428.329328
1 Jan 2000 21:15:09.000,152.176,64.500,12421.277530
1 Jan 2000 21:15:19.000,152.103,64.717,12414.284414
1 Jan 2000 21:15:29.000,152.028,64.933,12407.350118
1 Jan 2000 21:15:39.000,151.952,65.150,12400.474780
1 Jan 2000 21:15:49.000,151.874,65.366,12393.658536
1 Jan 2000 21:15:59.000,151.794,65.583,12386.901523
1 Jan 2000 21:16:09.000,151.713,65.799,12380.203874
1 Jan 2000 21:16:19.000,151.629,66.016,12373.565724
1 Jan 2000 21:16:29.000,151.543,66.233,12366.987203
1 Jan 2000 21:16:39.000,151.456,66.450,12360.468444
1 Jan 2000 21:16:49.000,151.366,66.667,12354.009577
1 Jan 2000 21:16:59.000,151.275,66.883,12347.610730
1 Jan 2000 21:17:09.000,151.181,67.100,12341.272032
1 Jan 2000 21:17:19.000,151.084,67.317,12334.993609
1 Jan 2000 21:17:29.000,150.986,67.535,12328.775586
1 Jan 2000 21:17:39.000,150.885,67.752,12322.618089
1 Jan 2000 21:17:49.000,150.782,67.969,12316.521241
1 Jan 2000 21:17:59.000,150.676,68.186,12310.485164
1 Jan 2000 21:18:09.000,150.567,68.403,12304.509979
1 Jan 2000 21:18:19.000,150.456,68.620,12298.595805
1 Jan 2000 21:18:29.000,150.342,68.837,12292.742761
1 Jan 2000 21:18:39.000,150.225,69.054,12286.950966
1 Jan 2000 21:18:49.000,150.105,69.272,12281.220534
1 Jan 2000 21:18:59.000,149.982,69.489,12275.551581
1 Jan 2000 21:19:09.000,149.856,69.706,12269.944221
1 Jan 2000 21:19:19.000,149.727,69.923,12264.398566
1 Jan 2000 21:19:29.000,149.594,70.140,12258.914728
1 Jan 2000 21:19:39.000,149.458,70.357,12253.492816
1 Jan 2000 21:19:49.000,149.318,70.574,12248.132940
1 Jan 2000 21:19:59.000,149.175,70.791,12242.835207
1 Jan 2000 21:20:09.000,149.028,71.008,12237.599723
1 Jan 2000 21:20:19.000,148.876,71.225,12232.426593
1 Jan 2000 21:20:29.000,148.721,71.441,12227.315922
1 Jan 2000 21:20:39.000,148.561,71.658,12222.267810
1 Jan 2000 21:20:49.000,148.397,71.875,12217.282360
1 Jan 2000 21:20:59.000,148.228,72.091,12212.359671
1 Jan 2000 21:21:09.000,148.055,72.307,12207.499842
1 Jan 2000 21:21:19.000,147.877,72.524,12202.702970
1 Jan 2000 21:21:29.000,147.693,72.740,12197.969149
1 Jan 2000 21:21:39.000,147.504,72.956,12193.298476
1 Jan 2000 21:21:49.000,147.310,73.172,12188.691043
1 Jan 2000 21:21:59.000,147.110,73.387,12184.146942
1 Jan 2000 21:22:09.000,146.904,73.603,12179.666262
1 Jan 2000 21:22:19.000,146.692,73.818,12175.249094
1 Jan 2000 21:22:29.000,146.473,74.033,12170.895525
1 Jan 2000 21:22:39.000,146.248,74.248,12166.605640
1 Jan 2000 21:22:49.000,146.016,74.463,12162.379525
1 Jan 2000 21:22:59.000,145.776,74.678,12158.217263
1 Jan 2000 21:23:09.000,145.530,74.892,12154.118936
1 Jan 2000 21:23:19.000,145.275,75.106,12150.084625
1 Jan 2000 21:23:29.000,145.012,75.320,12146.114409
1 Jan 2000 21:23:39.000,144.740,75.533,12142.208365
1 Jan 2000 21:23:49.000,144.460,75.746,12138.366570
1 Jan 2000 21:23:59.000,144.170,75.959,12134.589099
1 Jan 2000 21:24:09.000,143.871,76.171,12130.876026
1 Jan 2000 21:24:19.000,143.561,76.383,12127.227421
1 Jan 2000 21:24:29.000,143.241,76.595,12123.643356
1 Jan 2000 21:24:39.000,142.909,76.806,12120.123900
1 Jan 2000 21:24:49.000,142.566,77.017,12116.669120
1 Jan 2000 21:24:59.000,142.211,77.227,12113.279083
1 Jan 2000 21:25:09.000,141.843,77.436,12109.953852
1 Jan 2000 21:25:19.000,141.462,77.646,12106.693492
1 Jan 2000 21:25:29.000,141.067,77.854,12103.498063
1 Jan 2000 21:25:39.000,140.657,78.062,12100.367626
1 Jan 2000 21:25:49.000,140.231,78.269,12097.302240
1 Jan 2000 21:25:59.000,139.789,78.476,12094.301962
1 Jan 2000 21:26:09.000,139.330,78.682,12091.366846
1 Jan 2000 21:26:19.000,138.854,78.887,12088.496948
1 Jan 2000 21:26:29.000,138.358,79.091,12085.692320
1 Jan 2000 21:26:39.000,137.842,79.294,12082.953013
1 Jan 2000 21:26:49.000,137.306,79.497,12080.279077
1 Jan 2000 21:26:59.000,136.747,79.698,12077.670559
1 Jan 2000 21:27:09.000,136.165,79.899,12075.127506
1 Jan 2000 21:27:19.000,135.558,80.098,12072.649963
1 Jan 2000 21:27:29.000,134.926,80.296,12070.237973
1 Jan 2000 21:27:39.000,134.266,80.492,12067.891578
1 Jan 2000 21:27:49.000,133.577,80.688,12065.610819
1 Jan 2000 21:27:59.000,132.857,80.882,12063.395733
1 Jan 2000 21:28:09.000,132.106,81.074,12061.246359
1 Jan 2000 21:28:19.000,131.320,81.264,12059.162731
1 Jan 2000 21:28:29.000,130.498,81.453,12057.144884
1 Jan 2000 21:28:39.000,129.637,81.640,12055.192851
1 Jan 2000 21:28:49.000,128.737,81.825,12053.306661
1 Jan 2000 21:28:59.000,127.794,82.007,12051.486345
1 Jan 2000 21:29:09.000,126.806,82.187,12049.731929
1 Jan 2000 21:29:19.000,125.770,82.365,12048.043441
1 Jan 2000 21:29:29.000,124.684,82.540,12046.420905
1 Jan 2000 21:29:39.000,123.545,82.712,12044.864343
1 Jan 2000 21:29:49.000,122.350,82.881,12043.373778
1 Jan 2000 21:29:59.000,121.096,83.046,12041.949228
1 Jan 2000 21:30:09.000,119.781,83.208,12040.590713
1 Jan 2000 21:30:19.000,118.400,83.366,12039.298248
1 Jan 2000 21:30:29.000,116.953,83.520,12038.071849
1 Jan 2000 21:30:39.000,115.434,83.669,12036.911529
1 Jan 2000 21:30:49.000,113.842,83.814,12035.817300
1 Jan 2000 21:30:59.000,112.174,83.953,12034.789173
1 Jan 2000 21:31:09.000,110.428,84.087,12033.827155
1 Jan 2000 21:31:19.000,108.602,84.215,12032.931254
1 Jan 2000 21:31:29.000,106.694,84.336,12032.101475
1 Jan 2000 21:31:39.000,104.703,84.451,12031.337823
1 Jan 2000 21:31:49.000,102.631,84.559,12030.640299
1 Jan 2000 21:31:59.000,100.476,84.659,12030.008904
1 Jan 2000 21:32:09.000,98.242,84.751,12029.443637
1 Jan 2000 21:32:19.000,95.931,84.835,12028.944495
1 Jan 2000 21:32:29.000,93.547,84.909,12028.511475
1 Jan 2000 21:32:39.000,91.096,84.975,12028.144570
1 Jan 2000 21:32:49.000,88.585,85.030,12027.843774
1 Jan 2000 21:32:59.000,86.021,85.076,12027.609077
1 Jan 2000 21:33:09.000,83.415,85.112,12027.440468
1 Jan 2000 21:33:19.000,80.776,85.137,12027.337936
1 Jan 2000 21:33:29.000,78.115,85.152,12027.301466
1 Jan 2000 21:33:39.000,75.444,85.155,12027.331044
1 Jan 2000 21:33:49.000,72.776,85.148,12027.426652
1 Jan 2000 21:33:59.000,70.121,85.131,12027.588272
1 Jan 2000 21:34:09.000,67.492,85.103,12027.815884
1 Jan 2000 21:34:19.000,64.899,85.064,12028.109465
1 Jan 2000 21:34:29.000,62.352,85.015,12028.468994
1 Jan 2000 21:34:39.000,59.861,84.957,12028.894444
1 Jan 2000 21:34:49.000,57.432,84.889,12029.385789
1 Jan 2000 21:34:59.000,55.072,84.811,12029.943001
1 Jan 2000 21:35:09.000,52.787,84.726,12030.566051
1 Jan 2000 21:35:19.000,50.580,84.631,12031.254906
1 Jan 2000 21:35:29.000,48.453,84.529,12032.009536
1 Jan 2000 21:35:39.000,46.409,84.420,12032.829904
1 Jan 2000 21:35:49.000,44.447,84.303,12033.715976
1 Jan 2000 21:35:59.000,42.567,84.180,12034.667712
1 Jan 2000 21:36:09.000,40.769,84.051,12035.685076
1 Jan 2000 21:36:19.000,39.051,83.916,12036.768025
1 Jan 2000 21:36:29.000,37.410,83.776,12037.916518
1 Jan 2000 21:36:39.000,35.844,83.630,12039.130510
1 Jan 2000 21:36:49.000,34.351,83.480,12040.409957
1 Jan 2000 21:36:59.000,32.928,83.326,12041.754812
1 Jan 2000 21:37:09.000,31.571,83.168,12043.165026
1 Jan 2000 21:37:19.000,30.279,83.005,12044.640550
1 Jan 2000 21:37:29.000,29.047,82.840,12046.181331
1 Jan 2000 21:37:39.000,27.873,82.671,12047.787317
1 Jan 2000 21:37:49.000,26.754,82.499,12049.458453
1 Jan 2000 21:37:59.000,25.687,82.324,12051.194683
1 Jan 2000 21:38:09.000,24.670,82.147,12052.995950
1 Jan 2000 21:38:19.000,23.700,81.967,12054.862195
1 Jan 2000 21:38:29.000,22.773,81.785,12056.793357
1 Jan 2000 21:38:39.000,21.889,81.600,12058.789373
1 Jan 2000 21:38:49.000,21.045,81.414,12060.850181
1 Jan 2000 21:38:59.000,20.238,81.226,12062.975715
1 Jan 2000 21:39:09.000,19.467,81.036,12065.165908
1 Jan 2000 21:39:19.000,18.729,80.845,12067.420693
1 Jan 2000 21:39:29.000,18.023,80.652,12069.740000
1 Jan 2000 21:39:39.000,17.347,80.458,12072.123758
1 Jan 2000 21:39:49.000,16.700,80.262,12074.571895
1 Jan 2000 21:39:59.000,16.079,80.065,12077.084336
1 Jan 2000 21:40:09.000,15.485,79.867,12079.661007
1 Jan 2000 21:40:19.000,14.914,79.668,12082.301829
1 Jan 2000 21:40:29.000,14.366,79.468,12085.006726
1 Jan 2000 21:40:39.000,13.841,79.267,12087.775618
1 Jan 2000 21:40:49.000,13.336,79.065,12090.608422
1 Jan 2000 21:40:59.000,12.850,78.862,12093.505057
1 Jan 2000 21:41:09.000,12.384,78.659,12096.465439
1 Jan 2000 21:41:19.000,11.935,78.454,12099.489482
1 Jan 2000 21:41:29.000,11.503,78.249,12102.577100
1 Jan 2000 21:41:39.000,11.087,78.044,12105.728204
1 Jan 2000 21:41:49.000,10.686,77.837,12108.942705
1 Jan 2000 21:41:59.000,10.300,77.631,12112.220512
1 Jan 2000 21:42:09.000,9.928,77.423,12115.561532
1 Jan 2000 21:42:19.000,9.569,77.215,12118.965673
1 Jan 2000 21:42:29.000,9.223,77.007,12122.432837
1 Jan 2000 21:42:39.000,8.888,76.798,12125.962931
1 Jan 2000 21:42:49.000,8.566,76.589,12129.555855
1 Jan 2000 21:42:59.000,8.254,76.380,12133.211510
1 Jan 2000 21:43:09.000,7.953,76.170,12136.929797
1 Jan 2000 21:43:19.000,7.662,75.960,12140.710613
1 Jan 2000 21:43:29.000,7.381,75.749,12144.553855
1 Jan 2000 21:43:39.000,7.109,75.538,12148.459419
1 Jan 2000 21:43:49.000,6.846,75.327,12152.427200
1 Jan 2000 21:43:59.000,6.591,75.116,12156.457090
1 Jan 2000 21:44:09.000,6.345,74.904,12160.548981
1 Jan 2000 21:44:19.000,6.106,74.692,12164.702764
1 Jan 2000 21:44:29.000,5.875,74.480,12168.918328
1 Jan 2000 21:44:39.000,5.652,74.268,12173.195561
1 Jan 2000 21:44:49.000,5.435,74.055,12177.534350
1 Jan 2000 21:44:59.000,5.225,73.843,12181.934579
1 Jan 2000 21:45:09.000,5.021,73.630,12186.396135
1 Jan 2000 21:45:19.000,4.823,73.417,12190.918898
1 Jan 2000 21:45:29.000,4.632,73.204,12195.502752
1 Jan 2000 21:45:39.000,4.446,72.991,12200.147577
1 Jan 2000 21:45:49.000,4.265,72.778,12204.853252
1 Jan 2000 21:45:59.000,4.090,72.564,12209.619656
1 Jan 2000 21:46:09.000,3.920,72.351,12214.446666
1 Jan 2000 21:46:19.000,3.755,72.138,12219.334157
1 Jan 2000 21:46:29.000,3.595,71.924,12224.282005
1 Jan 2000 21:46:39.000,3.440,71.710,12229.290083
1 Jan 2000 21:46:49.000,3.289,71.497,12234.358263
1 Jan 2000 21:46:59.000,3.142,71.283,12239.486417
1 Jan 2000 21:47:09.000,2.999,71.069,12244.674415
1 Jan 2000 21:47:19.000,2.861,70.855,12249.922126
1 Jan 2000 21:47:29.000,2.726,70.642,12255.229418
1 Jan 2000 21:47:39.000,2.595,70.428,12260.596158
1 Jan 2000 21:47:49.000,2.468,70.214,12266.022211
1 Jan 2000 21:47:59.000,2.344,70.000,12271.507443
1 Jan 2000 21:48:09.000,2.224,69.786,12277.051718
1 Jan 2000 21:48:19.000,2.107,69.573,12282.654897
1 Jan 2000 21:48:29.000,1.994,69.359,12288.316842
1 Jan 2000 21:48:39.000,1.883,69.145,12294.037415
1 Jan 2000 21:48:49.000,1.775,68.931,12299.816474
1 Jan 2000 21:48:59.000,1.671,68.718,12305.653877
1 Jan 2000 21:49:09.000,1.569,68.504,12311.549484
1 Jan 2000 21:49:19.000,1.470,68.290,12317.503149
1 Jan 2000 21:49:29.000,1.374,68.077,12323.514728
1 Jan 2000 21:49:39.000,1.280,67.863,12329.584076
1 Jan 2000 21:49:49.000,1.189,67.650,12335.711047
1 Jan 2000 21:49:59.000,1.100,67.437,12341.895493
1 Jan 2000 21:50:09.000,1.014,67.223,12348.137266
1 Jan 2000 21:50:19.000,0.930,67.010,12354.436216
1 Jan 2000 21:50:29.000,0.848,66.797,12360.792193
1 Jan 2000 21:50:39.000,0.768,66.584,12367.205047
1 Jan 2000 21:50:49.000,0.691,66.371,12373.674625
1 Jan 2000 21:50:59.000,0.615,66.158,12380.200774
1 Jan 2000 21:51:09.000,0.542,65.945,12386.783340
1 Jan 2000 21:51:19.000,0.471,65.732,12393.422169
1 Jan 2000 21:51:29.000,0.401,65.520,12400.117105
1 Jan 2000 21:51:39.000,0.334,65.307,12406.867992
1 Jan 2000 21:51:49.000,0.268,65.095,12413.674673
1 Jan 2000 21:51:59.000,0.204,64.882,12420.536988
1 Jan 2000 21:52:09.000,0.142,64.670,12427.454781
1 Jan 2000 21:52:19.000,0.082,64.458,12434.427890
1 Jan 2000 21:52:29.000,0.023,64.246,12441.456155
1 Jan 2000 21:52:39.000,359.966,64.034,12448.539415
1 Jan 2000 21:52:49.000,359.910,63.822,12455.677508
1 Jan 2000 21:52:59.000,359.856,63.611,12462.870271
1 Jan 2000 21:53:09.000,359.803,63.399,12470.117540
1 Jan 2000 21:53:19.000,359.752,63.188,12477.419151
1 Jan 2000 21:53:29.000,359.702,62.977,12484.774939
1 Jan 2000 21:53:39.000,359.654,62.765,12492.184738
1 Jan 2000 21:53:49.000,359.607,62.554,12499.648380
1 Jan 2000 21:53:59.000,359.562,62.344,12507.165700
1 Jan 2000 21:54:09.000,359.517,62.133,12514.736528
1 Jan 2000 21:54:19.000,359.474,61.922,12522.360696
1 Jan 2000 21:54:29.000,359.433,61.712,12530.038036
1 Jan 2000 21:54:39.000,359.392,61.502,12537.768375
1 Jan 2000 21:54:49.000,359.353,61.291,12545.551545
1 Jan 2000 21:54:59.000,359.314,61.082,12553.387373
1 Jan 2000 21:55:09.000,359.277,60.872,12561.275688
1 Jan 2000 21:55:19.000,359.241,60.662,12569.216317
1 Jan 2000 21:55:29.000,359.207,60.452,12577.209086
1 Jan 2000 21:55:39.000,359.173,60.243,12585.253821
1 Jan 2000 21:55:49.000,359.140,60.034,12593.350349
1 Jan 2000 21:55:59.000,359.108,59.825,12601.498494
1 Jan 2000 21:56:09.000,359.078,59.616,12609.698080
1 Jan 2000 21:56:19.000,359.048,59.407,12617.948931
1 Jan 2000 21:56:29.000,359.019,59.199,12626.250870
1 Jan 2000 21:56:39.000,358.991,58.990,12634.603720
1 Jan 2000 21:56:49.000,358.965,58.782,12643.007303
1 Jan 2000 21:56:59.000,358.939,58.574,12651.461441
1 Jan 2000 21:57:09.000,358.914,58.366,12659.965954
1 Jan 2000 21:57:19.000,358.889,58.159,12668.520663
1 Jan 2000 21:57:29.000,358.866,57.951,12677.125388
1 Jan 2000 21:57:39.000,358.844,57.744,12685.779949
1 Jan 2000 21:57:49.000,358.822,57.536,12694.484165
1 Jan 2000 21:57:59.000,358.801,57.329,12703.237853
1 Jan 2000 21:58:09.000,358.781,57.123,12712.040833
1 Jan 2000 21:58:19.000,358.762,56.916,12720.892921
1 Jan 2000 21:58:29.000,358.743,56.710,12729.793936
1 Jan 2000 21:58:39.000,358.725,56.503,12738.743693
1 Jan 2000 21:58:49.000,358.708,56.297,12747.742010
1 Jan 2000 21:58:59.000,358.692,56.091,12756.788701
1 Jan 2000 21:59:09.000,358.677,55.886,12765.883583
1 Jan 2000 21:59:19.000,358.662,55.680,12775.026471
1 Jan 2000 21:59:29.000,358.647,55.475,12784.217179
1 Jan 2000 21:59:39.000,358.634,55.270,12793.455521
1 Jan 2000 21:59:49.000,358.621,55.065,12802.741312
1 Jan 2000 21:59:59.000,358.609,54.860,12812.074365
1 Jan 2000 22:00:09.000,358.597,54.655,12821.454494
1 Jan 2000 22:00:19.000,358.586,54.451,12830.881510
1 Jan 2000 22:00:29.000,358.576,54.247,12840.355228
1 Jan 2000 22:00:39.000,358.566,54.043,12849.875458
1 Jan 2000 22:00:49.000,358.557,53.839,12859.442013
1 Jan 2000 22:00:59.000,358.549,53.636,12869.054705
1 Jan 2000 22:01:09.000,358.541,53.432,12878.713345
1 Jan 2000 22:01:19.000,358.533,53.229,12888.417743
1 Jan 2000 22:01:29.000,358.527,53.026,12898.167711
1 Jan 2000 22:01:39.000,358.520,52.823,12907.963059
1 Jan 2000 22:01:49.000,358.515,52.621,12917.803597
1 Jan 2000 22:01:59.000,358.510,52.418,12927.689135
1 Jan 2000 22:02:09.000,358.505,52.216,12937.619483
1 Jan 2000 22:02:19.000,358.501,52.014,12947.594449
1 Jan 2000 22:02:29.000,358.497,51.813,12957.613845
1 Jan 2000 22:02:39.000,358.494,51.611,12967.677477
1 Jan 2000 22:02:49.000,358.492,51.410,12977.785156
1 Jan 2000 22:02:59.000,358.489,51.209,12987.936689
1 Jan 2000 22:03:09.000,358.488,51.008,12998.131886
1 Jan 2000 22:03:19.000,358.487,50.807,13008.370553
1 Jan 2000 22:03:29.000,358.486,50.607,13018.652500
1 Jan 2000 22:03:39.000,358.486,50.406,13028.977534
1 Jan 2000 22:03:49.000,358.486,50.206,13039.345462
1 Jan 2000 22:03:59.000,358.487,50.006,13049.756093
1 Jan 2000 22:04:09.000,358.488,49.807,13060.209233
1 Jan 2000 22:04:19.000,358.489,49.607,13070.704690
1 Jan 2000 22:04:29.000,358.491,49.408,13081.242270
1 Jan 2000 22:04:39.000,358.494,49.209,13091.821781
1 Jan 2000 22:04:49.000,358.497,49.010,13102.443030
1 Jan 2000 22:04:59.000,358.500,48.812,13113.105823
1 Jan 2000 22:05:09.000,358.503,48.613,13123.809966
1 Jan 2000 22:05:19.000,358.507,48.415,13134.555267
1 Jan 2000 22:05:29.000,358.512,48.217,13145.341532
1 Jan 2000 22:05:39.000,358.517,48.020,13156.168567
1 Jan 2000 22:05:49.000,358.522,47.822,13167.036178
1 Jan 2000 22:05:59.000,358.527,47.625,13177.944171
1 Jan 2000 22:06:09.000,358.533,47.428,13188.892353
1 Jan 2000 22:06:19.000,358.540,47.231,13199.880530
1 Jan 2000 22:06:29.000,358.546,47.035,13210.908508
1 Jan 2000 22:06:39.000,358.554,46.838,13221.976093
1 Jan 2000 22:06:49.000,358.561,46.642,13233.083090
1 Jan 2000 22:06:59.000,358.569,46.446,13244.229305
1 Jan 2000 22:07:09.000,358.577,46.250,13255.414546
1 Jan 2000 22:07:19.000,358.585,46.055,13266.638617
1 Jan 2000 22:07:29.000,358.594,45.860,13277.901324
1 Jan 2000 22:07:39.000,358.603,45.665,13289.202474
1 Jan 2000 22:07:49.000,358.613,45.470,13300.541872
1 Jan 2000 22:07:59.000,358.622,45.275,13311.919324
1 Jan 2000 22:08:09.000,358.633,45.081,13323.334636
1 Jan 2000 22:08:19.000,358.643,44.887,13334.787614
1 Jan 2000 22:08:29.000,358.654,44.693,13346.278064
1 Jan 2000 22:08:39.000,358.665,44.499,13357.805793
1 Jan 2000 22:08:49.000,358.676,44.306,13369.370606
1 Jan 2000 22:08:59.000,358.688,44.113,13380.972309
1 Jan 2000 22:09:09.000,358.700,43.920,13392.610709
1 Jan 2000 22:09:19.000,358.712,43.727,13404.285611
1 Jan 2000 22:09:29.000,358.725,43.534,13415.996824
1 Jan 2000 22:09:39.000,358.737,43.342,13427.744151
1 Jan 2000 22:09:49.000,358.751,43.150,13439.527401
1 Jan 2000 22:09:59.000,358.764,42.958,13451.346380
1 Jan 2000 22:10:09.000,358.778,42.766,13463.200895
1 Jan 2000 22:10:19.000,358.792,42.575,13475.090751
1 Jan 2000 22:10:29.000,358.806,42.384,13487.015757
1 Jan 2000 22:10:39.000,358.820,42.193,13498.975720
1 Jan 2000 22:10:49.000,358.835,42.002,13510.970445
1 Jan 2000 22:10:59.000,358.850,41.812,13522.999742
1 Jan 2000 22:11:09.000,358.866,41.621,13535.063416
1 Jan 2000 22:11:19.000,358.881,41.431,13547.161276
1 Jan 2000 22:11:29.000,358.897,41.241,13559.293129
1 Jan 2000 22:11:39.000,358.913,41.052,13571.458783
1 Jan 2000 22:11:49.000,358.930,40.862,13583.658047
1 Jan 2000 22:11:59.000,358.946,40.673,13595.890727
1 Jan 2000 22:12:09.000,358.963,40.484,13608.156632
1 Jan 2000 22:12:19.000,358.980,40.296,13620.455572
1 Jan 2000 22:12:29.000,358.997,40.107,13632.787353
1 Jan 2000 22:12:39.000,359.015,39.919,13645.151786
1 Jan 2000 22:12:49.000,359.033,39.731,13657.548679
1 Jan 2000 22:12:59.000,359.051,39.543,13669.977841
1 Jan 2000 22:13:09.000,359.069,39.356,13682.439082
1 Jan 2000 22:13:19.000,359.088,39.169,13694.932211
1 Jan 2000 22:13:29.000,359.107,38.982,13707.457038
1 Jan 2000 22:13:39.000,359.126,38.795,13720.013372
1 Jan 2000 22:13:49.000,359.145,38.608,13732.601024
1 Jan 2000 22:13:59.000,359.164,38.422,13745.219804
1 Jan 2000 22:14:09.000,359.184,38.236,13757.869523
1 Jan 2000 22:14:19.000,359.204,38.050,13770.549992
1 Jan 2000 22:14:29.000,359.224,37.864,13783.261021
1 Jan 2000 22:14:39.000,359.244,37.679,13796.002421
1 Jan 2000 22:14:49.000,359.265,37.493,13808.774005
1 Jan 2000 22:14:59.000,359.285,37.308,13821.575583
1 Jan 2000 22:15:09.000,359.306,37.124,13834.406969
1 Jan 2000 22:15:19.000,359.327,36.939,13847.267973
1 Jan 2000 22:15:29.000,359.349,36.755,13860.158409
1 Jan 2000 22:15:39.000,359.370,36.571,13873.078088
1 Jan 2000 22:15:49.000,359.392,36.387,13886.026825
1 Jan 2000 22:15:59.000,359.414,36.203,13899.004432
1 Jan 2000 22:16:09.000,359.436,36.020,13912.010722
1 Jan 2000 22:16:19.000,359.459,35.837,13925.045510
1 Jan 2000 22:16:29.000,359.481,35.654,13938.108609
1 Jan 2000 22:16:39.000,359.504,35.471,13951.199834
1 Jan 2000 22:16:49.000,359.527,35.289,13964.318999
1 Jan 2000 22:16:59.000,359.550,35.107,13977.465919
1 Jan 2000 22:17:04.810,359.564,35.001,13985.116403

Interval Statistics
"Min Elevation",1 Jan 2000 22:17:04.810,359.564,35.001,13985.116403
"Max Elevation",1 Jan 2000 21:33:37.541,75.834,85.156,12027.322613
"Mean Elevation",,,64.752,
"Min Range",1 Jan 2000 21:33:29.521,77.976,85.152,12027.301376
"Max Range",1 Jan 2000 22:17:04.810,359.564,35.001,13985.116403
"Mean Range",,,,12557.440954

"Time (UTCG)","Azimuth (deg)","Elevation (deg)","Range (km)"
2 Jan 2000 05:59:06.783,65.457,37.301,13814.370807
2 Jan 2000 05:59:16.000,65.680,37.268,13816.594700
2 Jan 2000 05:59:26.000,65.922,37.232,13819.037034
2 Jan 2000 05:59:36.000,66.164,37.196,13821.510105
2 Jan 2000 05:59:46.000,66.406,37.159,13824.013919
2 Jan 2000 05:59:56.000,66.647,37.122,13826.548483
2 Jan 2000 06:00:06.000,66.889,37.084,13829.113802
2 Jan 2000 06:00:16.000,67.129,37.046,13831.709882
2 Jan 2000 06:00:26.000,67.370,37.008,13834.336728
2 Jan 2000 06:00:36.000,67.611,36.969,13836.994344
2 Jan 2000 06:00:46.000,67.851,36.929,13839.682736
2 Jan 2000 06:00:56.000,68.091,36.890,13842.401907
2 Jan 2000 06:01:06.000,68.330,36.849,13845.151861
2 Jan 2000 06:01:16.000,68.570,36.809,13847.932602
2 Jan 2000 06:01:26.000,68.809,36.768,13850.744132
2 Jan 2000 06:01:36.000,69.047,36.727,13853.586454
2 Jan 2000 06:01:46.000,69.286,36.685,13856.459571
2 Jan 2000 06:01:56.000,69.524,36.643,13859.363484
2 Jan 2000 06:02:06.000,69.762,36.600,13862.298196
2 Jan 2000 06:02:16.000,70.000,36.557,13865.263707
2 Jan 2000 06:02:26.000,70.237,36.513,13868.260018
2 Jan 2000 06:02:36.000,70.474,36.470,13871.287131
2 Jan 2000 06:02:46.000,70.711,36.425,13874.345045
2 Jan 2000 06:02:56.000,70.948,36.381,13877.433760
2 Jan 2000 06:03:06.000,71.184,36.336,13880.553276
2 Jan 2000 06:03:16.000,71.420,36.290,13883.703593
2 Jan 2000 06:03:26.000,71.656,36.244,13886.884708
2 Jan 2000 06:03:36.000,71.891,36.198,13890.096621
2 Jan 2000 06:03:46.000,72.126,36.152,13893.339329
2 Jan 2000 06:03:56.000,72.361,36.105,13896.612831
2 Jan 2000 06:04:06.000,72.595,36.057,13899.917124
2 Jan 2000 06:04:16.000,72.829,36.009,13903.252206
2 Jan 2000 06:04:26.000,73.063,35.961,13906.618072
2 Jan 2000 06:04:36.000,73.296,35.912,13910.014719
2 Jan 2000 06:04:46.000,73.530,35.864,13913.442144
2 Jan 2000 06:04:56.000,73.762,35.814,13916.900343
2 Jan 2000 06:05:06.000,73.995,35.764,13920.389309
2 Jan 2000 06:05:16.000,74.227,35.714,13923.909040
2 Jan 2000 06:05:26.000,74.459,35.664,13927.459528
2 Jan 2000 06:05:36.000,74.691,35.613,13931.040769
2 Jan 2000 06:05:46.000,74.922,35.561,13934.652757
2 Jan 2000 06:05:56.000,75.153,35.510,13938.295485
2 Jan 2000 06:06:06.000,75.383,35.458,13941.968947
2 Jan 2000 06:06:16.000,75.614,35.405,13945.673135
2 Jan 2000 06:06:26.000,75.843,35.352,13949.408043
2 Jan 2000 06:06:36.000,76.073,35.299,13953.173661
2 Jan 2000 06:06:46.000,76.302,35.246,13956.969983
2 Jan 2000 06:06:56.000,76.531,35.192,13960.796999
2 Jan 2000 06:07:06.000,76.760,35.137,13964.654702
2 Jan 2000 06:07:16.000,76.988,35.083,13968.543081
2 Jan 2000 06:07:26.000,77.216,35.028,13972.462128
2 Jan 2000 06:07:30.921,77.328,35.000,13974.401850

Interval Statistics
"Min Elevation",2 Jan 2000 06:07:30.921,77.328,35.000,13974.401850
"Max Elevation",2 Jan 2000 05:59:06.783,65.457,37.301,13814.370807
"Mean Elevation",,,36.223,
"Min Range",2 Jan 2000 05:59:06.783,65.457,37.301,13814.370807
"Max Range",2 Jan 2000 06:07:30.921,77.328,35.000,13974.401850
"Mean Range",,,,13888.722592

"Time (UTCG)","Azimuth (deg)","Elevation (deg)","Range (km)"
2 Jan 2000 12:36:34.546,319.587,50.561,13018.670388
2 Jan 2000 12:36:44.000,319.281,50.583,13017.484648
2 Jan 2000 12:36:54.000,318.958,50.606,13016.294139
2 Jan 2000 12:37:04.000,318.634,50.627,13015.169105
2 Jan 2000 12:37:14.000,318.310,50.647,13014.109571
2 Jan 2000 12:37:24.000,317.985,50.666,13013.115558
2 Jan 2000 12:37:34.000,317.660,50.683,13012.187086
2 Jan 2000 12:37:44.000,317.335,50.699,13011.324173
2 Jan 2000 12:37:54.000,317.009,50.714,13010.526837
2 Jan 2000 12:38:04.000,316.683,50.727,13009.795092
2 Jan 2000 12:38:14.000,316.357,50.740,13009.128953
2 Jan 2000 12:38:24.000,316.030,50.751,13008.528432
2 Jan 2000 12:38:34.000,315.704,50.760,13007.993540
2 Jan 2000 12:38:44.000,315.377,50.769,13007.524286
2 Jan 2000 12:38:54.000,315.050,50.776,13007.120678
2 Jan 2000 12:39:04.000,314.723,50.782,13006.782722
2 Jan 2000 12:39:14.000,314.395,50.786,13006.510422
2 Jan 2000 12:39:24.000,314.068,50.790,13006.303782
2 Jan 2000 12:39:34.000,313.740,50.792,13006.162803
2 Jan 2000 12:39:44.000,313.413,50.792,13006.087485
2 Jan 2000 12:39:54.000,313.085,50.792,13006.077827
2 Jan 2000 12:40:04.000,312.758,50.790,13006.133824
2 Jan 2000 12:40:14.000,312.430,50.787,13006.255474
2 Jan 2000 12:40:24.000,312.102,50.782,13006.442769
2 Jan 2000 12:40:34.000,311.775,50.776,13006.695701
2 Jan 2000 12:40:44.000,311.447,50.769,13007.014262
2 Jan 2000 12:40:54.000,311.120,50.761,13007.398440
2 Jan 2000 12:41:04.000,310.793,50.751,13007.848223
2 Jan 2000 12:41:14.000,310.466,50.741,13008.363598
2 Jan 2000 12:41:24.000,310.139,50.728,13008.944547
2 Jan 2000 12:41:34.000,309.813,50.715,13009.591055
2 Jan 2000 12:41:44.000,309.486,50.700,13010.303103
2 Jan 2000 12:41:54.000,309.160,50.684,13011.080671
2 Jan 2000 12:42:04.000,308.834,50.667,13011.923736
2 Jan 2000 12:42:14.000,308.509,50.648,13012.832276
2 Jan 2000 12:42:24.000,308.184,50.628,13013.806267
2 Jan 2000 12:42:34.000,307.859,50.607,13014.845681
2 Jan 2000 12:42:44.000,307.534,50.585,13015.950490
2 Jan 2000 12:42:54.000,307.210,50.561,13017.120667
2 Jan 2000 12:43:04.000,306.886,50.536,13018.356178
2 Jan 2000 12:43:14.000,306.563,50.510,13019.656993
2 Jan 2000 12:43:24.000,306.240,50.483,13021.023078
2 Jan 2000 12:43:34.000,305.918,50.454,13022.454396
2 Jan 2000 12:43:44.000,305.596,50.424,13023.950910
2 Jan 2000 12:43:54.000,305.275,50.393,13025.512583
2 Jan 2000 12:44:04.000,304.954,50.361,13027.139375
2 Jan 2000 12:44:14.000,304.634,50.327,13028.831243
2 Jan 2000 12:44:24.000,304.314,50.292,13030.588144
2 Jan 2000 12:44:34.000,303.995,50.256,13032.410035
2 Jan 2000 12:44:44.000,303.677,50.219,13034.296869
2 Jan 2000 12:44:54.000,303.359,50.180,13036.248599
2 Jan 2000 12:45:04.000,303.042,50.141,13038.265175
2 Jan 2000 12:45:14.000,302.726,50.100,13040.346547
2 Jan 2000 12:45:24.000,302.410,50.058,13042.492664
2 Jan 2000 12:45:34.000,302.095,50.014,13044.703470
2 Jan 2000 12:45:44.000,301.781,49.970,13046.978913
2 Jan 2000 12:45:54.000,301.467,49.924,13049.318934
2 Jan 2000 12:46:04.000,301.154,49.877,13051.723477
2 Jan 2000 12:46:14.000,300.842,49.829,13054.192481
2 Jan 2000 12:46:24.000,300.531,49.780,13056.725886
2 Jan 2000 12:46:34.000,300.221,49.729,13059.323630
2 Jan 2000 12:46:44.000,299.912,49.678,13061.985649
2 Jan 2000 12:46:54.000,299.603,49.625,13064.711878
2 Jan 2000 12:47:04.000,299.295,49.571,13067.502250
2 Jan 2000 12:47:14.000,298.988,49.516,13070.356696
2 Jan 2000 12:47:24.000,298.683,49.460,13073.275148
2 Jan 2000 12:47:34.000,298.378,49.402,13076.257535
2 Jan 2000 12:47:44.000,298.073,49.344,13079.303784
2 Jan 2000 12:47:54.000,297.770,49.285,13082.413821
2 Jan 2000 12:48:04.000,297.468,49.224,13085.587571
2 Jan 2000 12:48:14.000,297.167,49.162,13088.824958
2 Jan 2000 12:48:24.000,296.867,49.099,13092.125903
2 Jan 2000 12:48:34.000,296.568,49.035,13095.490327
2 Jan 2000 12:48:44.000,296.270,48.970,13098.918150
2 Jan 2000 12:48:54.000,295.972,48.904,13102.409289
2 Jan 2000 12:49:04.000,295.676,48.837,13105.963660
2 Jan 2000 12:49:14.000,295.381,48.769,13109.581179
2 Jan 2000 12:49:24.000,295.087,48.699,13113.261759
2 Jan 2000 12:49:34.000,294.794,48.629,13117.005314
2 Jan 2000 12:49:44.000,294.503,48.558,13120.811752
2 Jan 2000 12:49:54.000,294.212,48.485,13124.680985
2 Jan 2000 12:50:04.000,293.922,48.412,13128.612921
2 Jan 2000 12:50:14.000,293.634,48.337,13132.607467
2 Jan 2000 12:50:24.000,293.347,48.262,13136.664527
2 Jan 2000 12:50:34.000,293.060,48.185,13140.784008
2 Jan 2000 12:50:44.000,292.775,48.108,13144.965811
2 Jan 2000 12:50:54.000,292.491,48.029,13149.209838
2 Jan 2000 12:51:04.000,292.209,47.950,13153.515990
2 Jan 2000 12:51:14.000,291.927,47.869,13157.884166
2 Jan 2000 12:51:24.000,291.647,47.788,13162.314263
2 Jan 2000 12:51:34.000,291.367,47.706,13166.806179
2 Jan 2000 12:51:44.000,291.089,47.622,13171.359808
2 Jan 2000 12:51:54.000,290.813,47.538,13175.975044
2 Jan 2000 12:52:04.000,290.537,47.453,13180.651781
2 Jan 2000 12:52:14.000,290.263,47.367,13185.389910
2 Jan 2000 12:52:24.000,289.989,47.280,13190.189321
2 Jan 2000 12:52:34.000,289.717,47.192,13195.049903
2 Jan 2000 12:52:44.000,289.447,47.103,13199.971543
2 Jan 2000 12:52:54.000,289.177,47.013,13204.954130
2 Jan 2000 12:53:04.000,288.909,46.922,13209.997547
2 Jan 2000 12:53:14.000,288.642,46.831,13215.101679
2 Jan 2000 12:53:24.000,288.376,46.738,13220.266409
2 Jan 2000 12:53:34.000,288.111,46.645,13225.491619
2 Jan 2000 12:53:44.000,287.848,46.551,13230.777190
2 Jan 2000 12:53:54.000,287.586,46.456,13236.123001
2 Jan 2000 12:54:04.000,287.325,46.360,13241.528929
2 Jan 2000 12:54:14.000,287.066,46.263,13246.994853
2 Jan 2000 12:54:24.000,286.807,46.166,13252.520649
2 Jan 2000 12:54:34.000,286.550,46.068,13258.106190
2 Jan 2000 12:54:44.000,286.295,45.968,13263.751352
2 Jan 2000 12:54:54.000,286.040,45.868,13269.456006
2 Jan 2000 12:55:04.000,285.787,45.768,13275.220024
2 Jan 2000 12:55:14.000,285.535,45.666,13281.043277
2 Jan 2000 12:55:24.000,285.284,45.564,13286.925633
2 Jan 2000 12:55:34.000,285.035,45.461,13292.866961
2 Jan 2000 12:55:44.000,284.787,45.357,13298.867128
2 Jan 2000 12:55:54.000,284.540,45.252,13304.926001
2 Jan 2000 12:56:04.000,284.295,45.147,13311.043443
2 Jan 2000 12:56:14.000,284.050,45.041,13317.219320
2 Jan 2000 12:56:24.000,283.807,44.934,13323.453494
2 Jan 2000 12:56:34.000,283.565,44.827,13329.745826
2 Jan 2000 12:56:44.000,283.325,44.718,13336.096178
2 Jan 2000 12:56:54.000,283.086,44.609,13342.504410
2 Jan 2000 12:57:04.000,282.848,44.500,13348.970380
2 Jan 2000 12:57:14.000,282.611,44.389,13355.493946
2 Jan 2000 12:57:24.000,282.376,44.278,13362.074966
2 Jan 2000 12:57:34.000,282.142,44.167,13368.713294
2 Jan 2000 12:57:44.000,281.909,44.054,13375.408786
2 Jan 2000 12:57:54.000,281.677,43.941,13382.161296
2 Jan 2000 12:58:04.000,281.447,43.827,13388.970676
2 Jan 2000 12:58:14.000,281.218,43.713,13395.836779
2 Jan 2000 12:58:24.000,280.990,43.598,13402.759456
2 Jan 2000 12:58:34.000,280.763,43.482,13409.738557
2 Jan 2000 12:58:44.000,280.538,43.366,13416.773931
2 Jan 2000 12:58:54.000,280.314,43.249,13423.865427
2 Jan 2000 12:59:04.000,280.091,43.132,13431.012892
2 Jan 2000 12:59:14.000,279.869,43.014,13438.216172
2 Jan 2000 12:59:24.000,279.649,42.895,13445.475114
2 Jan 2000 12:59:34.000,279.430,42.775,13452.789562
2 Jan 2000 12:59:44.000,279.212,42.656,13460.159360
2 Jan 2000 12:59:54.000,278.995,42.535,13467.584351
2 Jan 2000 13:00:04.000,278.779,42.414,13475.064377
2 Jan 2000 13:00:14.000,278.565,42.293,13482.599280
2 Jan 2000 13:00:24.000,278.352,42.170,13490.188901
2 Jan 2000 13:00:34.000,278.140,42.048,13497.833079
2 Jan 2000 13:00:44.000,277.930,41.924,13505.531652
2 Jan 2000 13:00:54.000,277.720,41.801,13513.284461
2 Jan 2000 13:01:04.000,277.512,41.676,13521.091341
2 Jan 2000 13:01:14.000,277.305,41.551,13528.952129
2 Jan 2000 13:01:24.000,277.099,41.426,13536.866661
2 Jan 2000 13:01:34.000,276.894,41.300,13544.834773
2 Jan 2000 13:01:44.000,276.691,41.174,13552.856298
2 Jan 2000 13:01:54.000,276.488,41.047,13560.931071
2 Jan 2000 13:02:04.000,276.287,40.920,13569.058924
2 Jan 2000 13:02:14.000,276.087,40.792,13577.239688
2 Jan 2000 13:02:24.000,275.888,40.664,13585.473197
2 Jan 2000 13:02:34.000,275.691,40.535,13593.759280
2 Jan 2000 13:02:44.000,275.494,40.406,13602.097767
2 Jan 2000 13:02:54.000,275.299,40.276,13610.488488
2 Jan 2000 13:03:04.000,275.104,40.146,13618.931272
2 Jan 2000 13:03:14.000,274.911,40.015,13627.425946
2 Jan 2000 13:03:24.000,274.719,39.884,13635.972338
2 Jan 2000 13:03:34.000,274.528,39.753,13644.570274
2 Jan 2000 13:03:44.000,274.338,39.621,13653.219581
2 Jan 2000 13:03:54.000,274.150,39.489,13661.920084
2 Jan 2000 13:04:04.000,273.962,39.356,13670.671608
2 Jan 2000 13:04:14.000,273.776,39.223,13679.473977
2 Jan 2000 13:04:24.000,273.590,39.089,13688.327014
2 Jan 2000 13:04:34.000,273.406,38.955,13697.230543
2 Jan 2000 13:04:44.000,273.223,38.821,13706.184386
2 Jan 2000 13:04:54.000,273.041,38.686,13715.188365
2 Jan 2000 13:05:04.000,272.860,38.551,13724.242301
2 Jan 2000 13:05:14.000,272.680,38.416,13733.346016
2 Jan 2000 13:05:24.000,272.501,38.280,13742.499328
2 Jan 2000 13:05:34.000,272.323,38.144,13751.702058
2 Jan 2000 13:05:44.000,272.146,38.007,13760.954025
2 Jan 2000 13:05:54.000,271.970,37.870,13770.255047
2 Jan 2000 13:06:04.000,271.795,37.733,13779.604942
2 Jan 2000 13:06:14.000,271.621,37.595,13789.003529
2 Jan 2000 13:06:24.000,271.449,37.458,13798.450624
2 Jan 2000 13:06:34.000,271.277,37.319,13807.946044
2 Jan 2000 13:06:44.000,271.106,37.181,13817.489604
2 Jan 2000 13:06:54.000,270.937,37.042,13827.081121
2 Jan 2000 13:07:04.000,270.768,36.903,13836.720410
2 Jan 2000 13:07:14.000,270.600,36.763,13846.407285
2 Jan 2000 13:07:24.000,270.433,36.623,13856.141561
2 Jan 2000 13:07:34.000,270.268,36.483,13865.923051
2 Jan 2000 13:07:44.000,270.103,36.343,13875.751570
2 Jan 2000 13:07:54.000,269.939,36.202,13885.626929
2 Jan 2000 13:08:04.000,269.776,36.061,13895.548942
2 Jan 2000 13:08:14.000,269.614,35.920,13905.517421
2 Jan 2000 13:08:24.000,269.453,35.778,13915.532177
2 Jan 2000 13:08:34.000,269.293,35.636,13925.593023
2 Jan 2000 13:08:44.000,269.134,35.494,13935.699768
2 Jan 2000 13:08:54.000,268.976,35.352,13945.852225
2 Jan 2000 13:09:04.000,268.819,35.209,13956.050203
2 Jan 2000 13:09:14.000,268.662,35.067,13966.293511
2 Jan 2000 13:09:18.618,268.590,35.001,13971.039321

Interval Statistics
"Min Elevation",2 Jan 2000 13:09:18.618,268.590,35.001,13971.039321
"Max Elevation",2 Jan 2000 12:39:44.326,313.402,50.792,13006.086135
"Mean Elevation",,,45.534,
"Min Range",2 Jan 2000 12:39:50.471,313.201,50.792,13006.073738
"Max Range",2 Jan 2000 13:09:18.618,268.590,35.001,13971.039321
"Mean Range",,,,13305.762288

"Time (UTCG)","Azimuth (deg)","Elevation (deg)","Range (km)"
2 Jan 2000 18:21:47.583,55.723,44.163,13372.953589
2 Jan 2000 18:21:57.000,55.469,44.217,13369.759196
2 Jan 2000 18:22:07.000,55.199,44.273,13366.427416
2 Jan 2000 18:22:17.000,54.928,44.329,13363.157819
2 Jan 2000 18:22:27.000,54.657,44.383,13359.950484
2 Jan 2000 18:22:37.000,54.384,44.437,13356.805489
2 Jan 2000 18:22:47.000,54.111,44.489,13353.722909
2 Jan 2000 18:22:57.000,53.838,44.541,13350.702818
2 Jan 2000 18:23:07.000,53.564,44.591,13347.745290
2 Jan 2000 18:23:17.000,53.289,44.641,13344.850397
2 Jan 2000 18:23:27.000,53.013,44.689,13342.018209
2 Jan 2000 18:23:37.000,52.737,44.736,13339.248794
2 Jan 2000 18:23:47.000,52.460,44.783,13336.542221
2 Jan 2000 18:23:57.000,52.183,44.828,13333.898557
2 Jan 2000 18:24:07.000,51.905,44.873,13331.317865
2 Jan 2000 18:24:17.000,51.626,44.916,13328.800209
2 Jan 2000 18:24:27.000,51.347,44.959,13326.345652
2 Jan 2000 18:24:37.000,51.068,45.000,13323.954254
2 Jan 2000 18:24:47.000,50.787,45.040,13321.626074
2 Jan 2000 18:24:57.000,50.507,45.079,13319.361171
2 Jan 2000 18:25:07.000,50.225,45.118,13317.159601
2 Jan 2000 18:25:17.000,49.943,45.155,13315.021419
2 Jan 2000 18:25:27.000,49.661,45.191,13312.946679
2 Jan 2000 18:25:37.000,49.378,45.226,13310.935433
2 Jan 2000 18:25:47.000,49.095,45.260,13308.987731
2 Jan 2000 18:25:57.000,48.811,45.293,13307.103624
2 Jan 2000 18:26:07.000,48.527,45.325,13305.283159
2 Jan 2000 18:26:17.000,48.243,45.355,13303.526382
2 Jan 2000 18:26:27.000,47.958,45.385,13301.833339
2 Jan 2000 18:26:37.000,47.672,45.414,13300.204074
2 Jan 2000 18:26:47.000,47.387,45.441,13298.638629
2 Jan 2000 18:26:57.000,47.100,45.468,13297.137043
2 Jan 2000 18:27:07.000,46.814,45.493,13295.699358
2 Jan 2000 18:27:17.000,46.527,45.517,13294.325610
2 Jan 2000 18:27:27.000,46.240,45.541,13293.015835
2 Jan 2000 18:27:37.000,45.953,45.563,13291.770070
2 Jan 2000 18:27:47.000,45.665,45.584,13290.588347
2 Jan 2000 18:27:57.000,45.377,45.604,13289.470698
2 Jan 2000 18:28:07.000,45.089,45.622,13288.417155
2 Jan 2000 18:28:17.000,44.800,45.640,13287.427745
2 Jan 2000 18:28:27.000,44.511,45.657,13286.502496
2 Jan 2000 18:28:37.000,44.223,45.672,13285.641435
2 Jan 2000 18:28:47.000,43.933,45.687,13284.844587
2 Jan 2000 18:28:57.000,43.644,45.700,13284.111974
2 Jan 2000 18:29:07.000,43.355,45.712,13283.443618
2 Jan 2000 18:29:17.000,43.065,45.723,13282.839539
2 Jan 2000 18:29:27.000,42.775,45.733,13282.299757
2 Jan 2000 18:29:37.000,42.485,45.742,13281.824288
2 Jan 2000 18:29:47.000,42.195,45.750,13281.413147
2 Jan 2000 18:29:57.000,41.905,45.756,13281.066351
2 Jan 2000 18:30:07.000,41.615,45.762,13280.783910
2 Jan 2000 18:30:17.000,41.325,45.766,13280.565837
2 Jan 2000 18:30:27.000,41.035,45.770,13280.412141
2 Jan 2000 18:30:37.000,40.745,45.772,13280.322831
2 Jan 2000 18:30:47.000,40.455,45.773,13280.297914
2 Jan 2000 18:30:57.000,40.164,45.773,13280.337394
2 Jan 2000 18:31:07.000,39.874,45.772,13280.441276
2 Jan 2000 18:31:17.000,39.584,45.769,13280.609562
2 Jan 2000 18:31:27.000,39.294,45.766,13280.842253
2 Jan 2000 18:31:37.000,39.004,45.761,13281.139349
2 Jan 2000 18:31:47.000,38.714,45.756,13281.500846
2 Jan 2000 18:31:57.000,38.425,45.749,13281.926743
2 Jan 2000 18:32:07.000,38.135,45.741,13282.417033
2 Jan 2000 18:32:17.000,37.845,45.732,13282.971711
2 Jan 2000 18:32:27.000,37.556,45.722,13283.590767
2 Jan 2000 18:32:37.000,37.267,45.711,13284.274193
2 Jan 2000 18:32:47.000,36.978,45.699,13285.021978
2 Jan 2000 18:32:57.000,36.689,45.685,13285.834109
2 Jan 2000 18:33:07.000,36.401,45.671,13286.710572
2 Jan 2000 18:33:17.000,36.113,45.655,13287.651352
2 Jan 2000 18:33:27.000,35.825,45.638,13288.656431
2 Jan 2000 18:33:37.000,35.537,45.620,13289.725792
2 Jan 2000 18:33:47.000,35.250,45.601,13290.859414
2 Jan 2000 18:33:57.000,34.963,45.581,13292.057276
2 Jan 2000 18:34:07.000,34.676,45.560,13293.319356
2 Jan 2000 18:34:17.000,34.389,45.538,13294.645629
2 Jan 2000 18:34:27.000,34.103,45.515,13296.036068
2 Jan 2000 18:34:37.000,33.818,45.490,13297.490648
2 Jan 2000 18:34:47.000,33.532,45.465,13299.009339
2 Jan 2000 18:34:57.000,33.248,45.438,13300.592111
2 Jan 2000 18:35:07.000,32.963,45.410,13302.238932
2 Jan 2000 18:35:17.000,32.679,45.381,13303.949770
2 Jan 2000 18:35:27.000,32.395,45.352,13305.724590
2 Jan 2000 18:35:37.000,32.112,45.321,13307.563355
2 Jan 2000 18:35:47.000,31.830,45.289,13309.466029
2 Jan 2000 18:35:57.000,31.547,45.256,13311.432572
2 Jan 2000 18:36:07.000,31.266,45.221,13313.462944
2 Jan 2000 18:36:17.000,30.985,45.186,13315.557104
2 Jan 2000 18:36:27.000,30.704,45.150,13317.715007
2 Jan 2000 18:36:37.000,30.424,45.113,13319.936610
2 Jan 2000 18:36:47.000,30.144,45.074,13322.221867
2 Jan 2000 18:36:57.000,29.865,45.035,13324.570729
2 Jan 2000 18:37:07.000,29.587,44.994,13326.983148
2 Jan 2000 18:37:17.000,29.309,44.953,13329.459074
2 Jan 2000 18:37:27.000,29.032,44.910,13331.998455
2 Jan 2000 18:37:37.000,28.756,44.867,13334.601237
2 Jan 2000 18:37:47.000,28.480,44.822,13337.267366
2 Jan 2000 18:37:57.000,28.205,44.776,13339.996787
2 Jan 2000 18:38:07.000,27.930,44.730,13342.789441
2 Jan 2000 18:38:17.000,27.656,44.682,13345.645270
2 Jan 2000 18:38:27.000,27.383,44.633,13348.564213
2 Jan 2000 18:38:37.000,27.110,44.583,13351.546210
2 Jan 2000 18:38:47.000,26.839,44.533,13354.591197
2 Jan 2000 18:38:57.000,26.568,44.481,13357.699110
2 Jan 2000 18:39:07.000,26.297,44.428,13360.869883
2 Jan 2000 18:39:17.000,26.028,44.375,13364.103449
2 Jan 2000 18:39:27.000,25.759,44.320,13367.399740
2 Jan 2000 18:39:37.000,25.491,44.264,13370.758686
2 Jan 2000 18:39:47.000,25.223,44.208,13374.180216
2 Jan 2000 18:39:57.000,24.957,44.150,13377.664257
2 Jan 2000 18:40:07.000,24.691,44.091,13381.210736
2 Jan 2000 18:40:17.000,24.426,44.032,13384.819577
2 Jan 2000 18:40:27.000,24.162,43.971,13388.490704
2 Jan 2000 18:40:37.000,23.899,43.910,13392.224039
2 Jan 2000 18:40:47.000,23.636,43.847,13396.019504
2 Jan 2000 18:40:57.000,23.375,43.784,13399.877017
2 Jan 2000 18:41:07.000,23.114,43.720,13403.796497
2 Jan 2000 18:41:17.000,22.854,43.654,13407.777861
2 Jan 2000 18:41:27.000,22.595,43.588,13411.821024
2 Jan 2000 18:41:37.000,22.337,43.521,13415.925902
2 Jan 2000 18:41:47.000,22.080,43.453,13420.092406
2 Jan 2000 18:41:57.000,21.823,43.384,13424.320449
2 Jan 2000 18:42:07.000,21.568,43.315,13428.609942
2 Jan 2000 18:42:17.000,21.313,43.244,13432.960794
2 Jan 2000 18:42:27.000,21.060,43.172,13437.372912
2 Jan 2000 18:42:37.000,20.807,43.100,13441.846204
2 Jan 2000 18:42:47.000,20.555,43.026,13446.380575
2 Jan 2000 18:42:57.000,20.304,42.952,13450.975930
2 Jan 2000 18:43:07.000,20.054,42.877,13455.632171
2 Jan 2000 18:43:17.000,19.805,42.801,13460.349201
2 Jan 2000 18:43:27.000,19.557,42.724,13465.126919
2 Jan 2000 18:43:37.000,19.310,42.647,13469.965227
2 Jan 2000 18:43:47.000,19.064,42.568,13474.864020
2 Jan 2000 18:43:57.000,18.819,42.489,13479.823198
2 Jan 2000 18:44:07.000,18.575,42.409,13484.842656
2 Jan 2000 18:44:17.000,18.332,42.328,13489.922288
2 Jan 2000 18:44:27.000,18.089,42.246,13495.061987
2 Jan 2000 18:44:37.000,17.848,42.163,13500.261647
2 Jan 2000 18:44:47.000,17.608,42.080,13505.521158
2 Jan 2000 18:44:57.000,17.369,41.995,13510.840411
2 Jan 2000 18:45:07.000,17.131,41.910,13516.219294
2 Jan 2000 18:45:17.000,16.893,41.825,13521.657695
2 Jan 2000 18:45:27.000,16.657,41.738,13527.155501
2 Jan 2000 18:45:37.000,16.422,41.651,13532.712597
2 Jan 2000 18:45:47.000,16.188,41.562,13538.328867
2 Jan 2000 18:45:57.000,15.955,41.473,13544.004196
2 Jan 2000 18:46:07.000,15.723,41.384,13549.738464
2 Jan 2000 18:46:17.000,15.491,41.293,13555.531554
2 Jan 2000 18:46:27.000,15.261,41.202,13561.383345
2 Jan 2000 18:46:37.000,15.032,41.110,13567.293716
2 Jan 2000 18:46:47.000,14.804,41.018,13573.262546
2 Jan 2000 18:46:57.000,14.577,40.924,13579.289710
2 Jan 2000 18:47:07.000,14.351,40.830,13585.375085
2 Jan 2000 18:47:17.000,14.127,40.735,13591.518545
2 Jan 2000 18:47:27.000,13.903,40.640,13597.719965
2 Jan 2000 18:47:37.000,13.680,40.543,13603.979216
2 Jan 2000 18:47:47.000,13.458,40.446,13610.296171
2 Jan 2000 18:47:57.000,13.237,40.349,13616.670700
2 Jan 2000 18:48:07.000,13.018,40.250,13623.102673
2 Jan 2000 18:48:17.000,12.799,40.151,13629.591958
2 Jan 2000 18:48:27.000,12.581,40.052,13636.138424
2 Jan 2000 18:48:37.000,12.365,39.951,13642.741936
2 Jan 2000 18:48:47.000,12.149,39.850,13649.402361
2 Jan 2000 18:48:57.000,11.935,39.749,13656.119564
2 Jan 2000 18:49:07.000,11.722,39.646,13662.893408
2 Jan 2000 18:49:17.000,11.509,39.543,13669.723756
2 Jan 2000 18:49:27.000,11.298,39.440,13676.610471
2 Jan 2000 18:49:37.000,11.088,39.336,13683.553412
2 Jan 2000 18:49:47.000,10.879,39.231,13690.552441
2 Jan 2000 18:49:57.000,10.670,39.125,13697.607417
2 Jan 2000 18:50:07.000,10.463,39.019,13704.718198
2 Jan 2000 18:50:17.000,10.257,38.913,13711.884641
2 Jan 2000 18:50:27.000,10.052,38.805,13719.106603
2 Jan 2000 18:50:37.000,9.848,38.697,13726.383940
2 Jan 2000 18:50:47.000,9.645,38.589,13733.716506
2 Jan 2000 18:50:57.000,9.444,38.480,13741.104156
2 Jan 2000 18:51:07.000,9.243,38.370,13748.546742
2 Jan 2000 18:51:17.000,9.043,38.260,13756.044117
2 Jan 2000 18:51:27.000,8.844,38.149,13763.596133
2 Jan 2000 18:51:37.000,8.647,38.038,13771.202640
2 Jan 2000 18:51:47.000,8.450,37.926,13778.863487
2 Jan 2000 18:51:57.000,8.254,37.814,13786.578525
2 Jan 2000 18:52:07.000,8.060,37.701,13794.347600
2 Jan 2000 18:52:17.000,7.866,37.587,13802.170561
2 Jan 2000 18:52:27.000,7.674,37.473,13810.047255
2 Jan 2000 18:52:37.000,7.482,37.359,13817.977527
2 Jan 2000 18:52:47.000,7.292,37.244,13825.961222
2 Jan 2000 18:52:57.000,7.102,37.128,13833.998184
2 Jan 2000 18:53:07.000,6.914,37.012,13842.088259
2 Jan 2000 18:53:17.000,6.726,36.895,13850.231288
2 Jan 2000 18:53:27.000,6.540,36.778,13858.427113
2 Jan 2000 18:53:37.000,6.355,36.661,13866.675576
2 Jan 2000 18:53:47.000,6.170,36.543,13874.976519
2 Jan 2000 18:53:57.000,5.987,36.424,13883.329780
2 Jan 2000 18:54:07.000,5.805,36.305,13891.735200
2 Jan 2000 18:54:17.000,5.623,36.186,13900.192617
2 Jan 2000 18:54:27.000,5.443,36.066,13908.701870
2 Jan 2000 18:54:37.000,5.263,35.945,13917.262795
2 Jan 2000 18:54:47.000,5.085,35.825,13925.875229
2 Jan 2000 18:54:57.000,4.908,35.703,13934.539009
2 Jan 2000 18:55:07.000,4.731,35.581,13943.253970
2 Jan 2000 18:55:17.000,4.556,35.459,13952.019947
2 Jan 2000 18:55:27.000,4.382,35.337,13960.836774
2 Jan 2000 18:55:37.000,4.208,35.214,13969.704285
2 Jan 2000 18:55:47.000,4.036,35.090,13978.622312
2 Jan 2000 18:55:54.232,3.912,35.001,13985.103163

Interval Statistics
"Min Elevation",2 Jan 2000 18:55:54.232,3.912,35.001,13985.103163
"Max Elevation",2 Jan 2000 18:30:51.470,40.325,45.773,13280.307600
"Mean Elevation",,,42.804,
"Min Range",2 Jan 2000 18:30:45.869,40.487,45.773,13280.297502
"Max Range",2 Jan 2000 18:55:54.232,3.912,35.001,13985.103163
"Mean Range",,,,13466.065050

"Time (UTCG)","Azimuth (deg)","Elevation (deg)","Range (km)"
3 Jan 2000 01:27:51.903,325.245,42.390,13484.531553
3 Jan 2000 01:28:01.000,325.484,42.350,13487.039506
3 Jan 2000 01:28:11.000,325.746,42.306,13489.825788
3 Jan 2000 01:28:21.000,326.007,42.261,13492.642793
3 Jan 2000 01:28:31.000,326.268,42.216,13495.490452
3 Jan 2000 01:28:41.000,326.529,42.171,13498.368701
3 Jan 2000 01:28:51.000,326.789,42.125,13501.277471
3 Jan 2000 01:29:01.000,327.049,42.079,13504.216695
3 Jan 2000 01:29:11.000,327.308,42.032,13507.186307
3 Jan 2000 01:29:21.000,327.567,41.985,13510.186237
3 Jan 2000 01:29:31.000,327.826,41.937,13513.216418
3 Jan 2000 01:29:41.000,328.084,41.889,13516.276782
3 Jan 2000 01:29:51.000,328.342,41.841,13519.367260
3 Jan 2000 01:30:01.000,328.599,41.792,13522.487783
3 Jan 2000 01:30:11.000,328.856,41.742,13525.638283
3 Jan 2000 01:30:21.000,329.112,41.693,13528.818690
3 Jan 2000 01:30:31.000,329.368,41.643,13532.028935
3 Jan 2000 01:30:41.000,329.624,41.592,13535.268948
3 Jan 2000 01:30:51.000,329.879,41.541,13538.538660
3 Jan 2000 01:31:01.000,330.133,41.490,13541.837999
3 Jan 2000 01:31:11.000,330.387,41.438,13545.166897
3 Jan 2000 01:31:21.000,330.641,41.385,13548.525282
3 Jan 2000 01:31:31.000,330.894,41.333,13551.913083
3 Jan 2000 01:31:41.000,331.147,41.280,13555.330230
3 Jan 2000 01:31:51.000,331.399,41.226,13558.776651
3 Jan 2000 01:32:01.000,331.651,41.172,13562.252276
3 Jan 2000 01:32:11.000,331.903,41.118,13565.757032
3 Jan 2000 01:32:21.000,332.154,41.064,13569.290848
3 Jan 2000 01:32:31.000,332.404,41.009,13572.853651
3 Jan 2000 01:32:41.000,332.654,40.953,13576.445370
3 Jan 2000 01:32:51.000,332.904,40.897,13580.065933
3 Jan 2000 01:33:01.000,333.153,40.841,13583.715266
3 Jan 2000 01:33:11.000,333.401,40.785,13587.393297
3 Jan 2000 01:33:21.000,333.650,40.728,13591.099953
3 Jan 2000 01:33:31.000,333.897,40.670,13594.835160
3 Jan 2000 01:33:41.000,334.145,40.613,13598.598847
3 Jan 2000 01:33:51.000,334.391,40.555,13602.390938
3 Jan 2000 01:34:01.000,334.638,40.496,13606.211361
3 Jan 2000 01:34:11.000,334.883,40.437,13610.060042
3 Jan 2000 01:34:21.000,335.129,40.378,13613.936906
3 Jan 2000 01:34:31.000,335.374,40.319,13617.841880
3 Jan 2000 01:34:41.000,335.618,40.259,13621.774889
3 Jan 2000 01:34:51.000,335.862,40.198,13625.735858
3 Jan 2000 01:35:01.000,336.106,40.138,13629.724714
3 Jan 2000 01:35:11.000,336.349,40.077,13633.741381
3 Jan 2000 01:35:21.000,336.591,40.016,13637.785784
3 Jan 2000 01:35:31.000,336.833,39.954,13641.857848
3 Jan 2000 01:35:41.000,337.075,39.892,13645.957497
3 Jan 2000 01:35:51.000,337.316,39.830,13650.084658
3 Jan 2000 01:36:01.000,337.556,39.767,13654.239252
3 Jan 2000 01:36:11.000,337.796,39.704,13658.421206
3 Jan 2000 01:36:21.000,338.036,39.641,13662.630444
3 Jan 2000 01:36:31.000,338.275,39.577,13666.866888
3 Jan 2000 01:36:41.000,338.514,39.513,13671.130463
3 Jan 2000 01:36:51.000,338.752,39.449,13675.421093
3 Jan 2000 01:37:01.000,338.990,39.384,13679.738701
3 Jan 2000 01:37:11.000,339.227,39.319,13684.083211
3 Jan 2000 01:37:21.000,339.464,39.254,13688.454546
3 Jan 2000 01:37:31.000,339.700,39.188,13692.852630
3 Jan 2000 01:37:41.000,339.936,39.122,13697.277384
3 Jan 2000 01:37:51.000,340.171,39.056,13701.728733
3 Jan 2000 01:38:01.000,340.406,38.989,13706.206599
3 Jan 2000 01:38:11.000,340.640,38.922,13710.710905
3 Jan 2000 01:38:21.000,340.874,38.855,13715.241574
3 Jan 2000 01:38:31.000,341.108,38.788,13719.798527
3 Jan 2000 01:38:41.000,341.341,38.720,13724.381687
3 Jan 2000 01:38:51.000,341.573,38.652,13728.990977
3 Jan 2000 01:39:01.000,341.805,38.584,13733.626319
3 Jan 2000 01:39:11.000,342.036,38.515,13738.287634
3 Jan 2000 01:39:21.000,342.267,38.446,13742.974845
3 Jan 2000 01:39:31.000,342.498,38.377,13747.687873
3 Jan 2000 01:39:41.000,342.728,38.307,13752.426641
3 Jan 2000 01:39:51.000,342.958,38.237,13757.191070
3 Jan 2000 01:40:01.000,343.187,38.167,13761.981081
3 Jan 2000 01:40:11.000,343.415,38.097,13766.796596
3 Jan 2000 01:40:21.000,343.643,38.026,13771.637537
3 Jan 2000 01:40:31.000,343.871,37.955,13776.503824
3 Jan 2000 01:40:41.000,344.098,37.884,13781.395379
3 Jan 2000 01:40:51.000,344.325,37.813,13786.312123
3 Jan 2000 01:41:01.000,344.551,37.741,13791.253977
3 Jan 2000 01:41:11.000,344.777,37.669,13796.220862
3 Jan 2000 01:41:21.000,345.002,37.597,13801.212699
3 Jan 2000 01:41:31.000,345.227,37.524,13806.229408
3 Jan 2000 01:41:41.000,345.451,37.451,13811.270912
3 Jan 2000 01:41:51.000,345.675,37.378,13816.337129
3 Jan 2000 01:42:01.000,345.899,37.305,13821.427982
3 Jan 2000 01:42:11.000,346.121,37.231,13826.543389
3 Jan 2000 01:42:21.000,346.344,37.158,13831.683273
3 Jan 2000 01:42:31.000,346.566,37.083,13836.847553
3 Jan 2000 01:42:41.000,346.787,37.009,13842.036150
3 Jan 2000 01:42:51.000,347.008,36.935,13847.248983
3 Jan 2000 01:43:01.000,347.229,36.860,13852.485974
3 Jan 2000 01:43:11.000,347.449,36.785,13857.747043
3 Jan 2000 01:43:21.000,347.669,36.710,13863.032109
3 Jan 2000 01:43:31.000,347.888,36.634,13868.341093
3 Jan 2000 01:43:41.000,348.107,36.558,13873.673914
3 Jan 2000 01:43:51.000,348.325,36.482,13879.030494
3 Jan 2000 01:44:01.000,348.543,36.406,13884.410752
3 Jan 2000 01:44:11.000,348.760,36.330,13889.814607
3 Jan 2000 01:44:21.000,348.977,36.253,13895.241980
3 Jan 2000 01:44:31.000,349.193,36.176,13900.692791
3 Jan 2000 01:44:41.000,349.409,36.099,13906.166959
3 Jan 2000 01:44:51.000,349.625,36.022,13911.664404
3 Jan 2000 01:45:01.000,349.840,35.944,13917.185047
3 Jan 2000 01:45:11.000,350.055,35.867,13922.728806
3 Jan 2000 01:45:21.000,350.269,35.789,13928.295602
3 Jan 2000 01:45:31.000,350.482,35.710,13933.885354
3 Jan 2000 01:45:41.000,350.696,35.632,13939.497982
3 Jan 2000 01:45:51.000,350.908,35.553,13945.133405
3 Jan 2000 01:46:01.000,351.121,35.475,13950.791544
3 Jan 2000 01:46:11.000,351.333,35.396,13956.472318
3 Jan 2000 01:46:21.000,351.544,35.317,13962.175645
3 Jan 2000 01:46:31.000,351.755,35.237,13967.901447
3 Jan 2000 01:46:41.000,351.966,35.158,13973.649643
3 Jan 2000 01:46:51.000,352.176,35.078,13979.420152
3 Jan 2000 01:47:00.687,352.379,35.000,13985.031038

Interval Statistics
"Min Elevation",3 Jan 2000 01:47:00.687,352.379,35.000,13985.031038
"Max Elevation",3 Jan 2000 01:27:51.903,325.245,42.390,13484.531553
"Mean Elevation",,,39.043,
"Min Range",3 Jan 2000 01:27:51.903,325.245,42.390,13484.531553
"Max Range",3 Jan 2000 01:47:00.687,352.379,35.000,13985.031038
"Mean Range",,,,13705.613336

"Time (UTCG)","Azimuth (deg)","Elevation (deg)","Range (km)"
3 Jan 2000 09:08:07.461,7.979,56.053,12758.411925
3 Jan 2000 09:08:17.000,8.049,56.246,12749.927889
3 Jan 2000 09:08:27.000,8.123,56.448,12741.078062
3 Jan 2000 09:08:37.000,8.197,56.650,12732.274034
3 Jan 2000 09:08:47.000,8.271,56.853,12723.515982
3 Jan 2000 09:08:57.000,8.347,57.056,12714.804084
3 Jan 2000 09:09:07.000,8.422,57.259,12706.138516
3 Jan 2000 09:09:17.000,8.498,57.462,12697.519456
3 Jan 2000 09:09:27.000,8.574,57.666,12688.947079
3 Jan 2000 09:09:37.000,8.651,57.870,12680.421562
3 Jan 2000 09:09:47.000,8.728,58.074,12671.943079
3 Jan 2000 09:09:57.000,8.806,58.278,12663.511806
3 Jan 2000 09:10:07.000,8.884,58.482,12655.127917
3 Jan 2000 09:10:17.000,8.963,58.687,12646.791587
3 Jan 2000 09:10:27.000,9.042,58.891,12638.502989
3 Jan 2000 09:10:37.000,9.121,59.096,12630.262297
3 Jan 2000 09:10:47.000,9.202,59.301,12622.069683
3 Jan 2000 09:10:57.000,9.282,59.506,12613.925320
3 Jan 2000 09:11:07.000,9.363,59.712,12605.829380
3 Jan 2000 09:11:17.000,9.445,59.917,12597.782034
3 Jan 2000 09:11:27.000,9.528,60.123,12589.783454
3 Jan 2000 09:11:37.000,9.610,60.329,12581.833809
3 Jan 2000 09:11:47.000,9.694,60.535,12573.933271
3 Jan 2000 09:11:57.000,9.778,60.742,12566.082008
3 Jan 2000 09:12:07.000,9.863,60.948,12558.280189
3 Jan 2000 09:12:17.000,9.948,61.155,12550.527983
3 Jan 2000 09:12:27.000,10.034,61.362,12542.825557
3 Jan 2000 09:12:37.000,10.121,61.569,12535.173080
3 Jan 2000 09:12:47.000,10.208,61.776,12527.570718
3 Jan 2000 09:12:57.000,10.296,61.984,12520.018637
3 Jan 2000 09:13:07.000,10.385,62.191,12512.517002
3 Jan 2000 09:13:17.000,10.474,62.399,12505.065980
3 Jan 2000 09:13:27.000,10.565,62.607,12497.665734
3 Jan 2000 09:13:37.000,10.656,62.815,12490.316429
3 Jan 2000 09:13:47.000,10.748,63.024,12483.018227
3 Jan 2000 09:13:57.000,10.840,63.232,12475.771291
3 Jan 2000 09:14:07.000,10.934,63.441,12468.575784
3 Jan 2000 09:14:17.000,11.028,63.649,12461.431867
3 Jan 2000 09:14:27.000,11.123,63.858,12454.339700
3 Jan 2000 09:14:37.000,11.219,64.067,12447.299444
3 Jan 2000 09:14:47.000,11.316,64.277,12440.311258
3 Jan 2000 09:14:57.000,11.414,64.486,12433.375300
3 Jan 2000 09:15:07.000,11.513,64.696,12426.491730
3 Jan 2000 09:15:17.000,11.613,64.905,12419.660703
3 Jan 2000 09:15:27.000,11.714,65.115,12412.882378
3 Jan 2000 09:15:37.000,11.816,65.325,12406.156910
3 Jan 2000 09:15:47.000,11.920,65.536,12399.484453
3 Jan 2000 09:15:57.000,12.024,65.746,12392.865163
3 Jan 2000 09:16:07.000,12.129,65.956,12386.299194
3 Jan 2000 09:16:17.000,12.236,66.167,12379.786698
3 Jan 2000 09:16:27.000,12.344,66.378,12373.327827
3 Jan 2000 09:16:37.000,12.453,66.589,12366.922734
3 Jan 2000 09:16:47.000,12.563,66.800,12360.571568
3 Jan 2000 09:16:57.000,12.675,67.011,12354.274480
3 Jan 2000 09:17:07.000,12.788,67.222,12348.031618
3 Jan 2000 09:17:17.000,12.903,67.434,12341.843132
3 Jan 2000 09:17:27.000,13.019,67.645,12335.709168
3 Jan 2000 09:17:37.000,13.136,67.857,12329.629873
3 Jan 2000 09:17:47.000,13.255,68.069,12323.605394
3 Jan 2000 09:17:57.000,13.376,68.281,12317.635874
3 Jan 2000 09:18:07.000,13.498,68.493,12311.721458
3 Jan 2000 09:18:17.000,13.622,68.705,12305.862289
3 Jan 2000 09:18:27.000,13.748,68.917,12300.058510
3 Jan 2000 09:18:37.000,13.875,69.129,12294.310263
3 Jan 2000 09:18:47.000,14.004,69.342,12288.617687
3 Jan 2000 09:18:57.000,14.136,69.555,12282.980922
3 Jan 2000 09:19:07.000,14.269,69.767,12277.400108
3 Jan 2000 09:19:17.000,14.404,69.980,12271.875381
3 Jan 2000 09:19:27.000,14.541,70.193,12266.406880
3 Jan 2000 09:19:37.000,14.681,70.406,12260.994740
3 Jan 2000 09:19:47.000,14.823,70.619,12255.639095
3 Jan 2000 09:19:57.000,14.967,70.832,12250.340081
3 Jan 2000 09:20:07.000,15.114,71.046,12245.097830
3 Jan 2000 09:20:17.000,15.263,71.259,12239.912475
3 Jan 2000 09:20:27.000,15.415,71.472,12234.784146
3 Jan 2000 09:20:37.000,15.569,71.686,12229.712974
3 Jan 2000 09:20:47.000,15.726,71.899,12224.699088
3 Jan 2000 09:20:57.000,15.886,72.113,12219.742616
3 Jan 2000 09:21:07.000,16.049,72.327,12214.843685
3 Jan 2000 09:21:17.000,16.216,72.540,12210.002422
3 Jan 2000 09:21:27.000,16.385,72.754,12205.218951
3 Jan 2000 09:21:37.000,16.558,72.968,12200.493396
3 Jan 2000 09:21:47.000,16.734,73.182,12195.825881
3 Jan 2000 09:21:57.000,16.914,73.396,12191.216527
3 Jan 2000 09:22:07.000,17.098,73.610,12186.665456
3 Jan 2000 09:22:17.000,17.286,73.824,12182.172787
3 Jan 2000 09:22:27.000,17.477,74.038,12177.738638
3 Jan 2000 09:22:37.000,17.673,74.252,12173.363127
3 Jan 2000 09:22:47.000,17.874,74.466,12169.046372
3 Jan 2000 09:22:57.000,18.079,74.680,12164.788486
3 Jan 2000 09:23:07.000,18.289,74.894,12160.589585
3 Jan 2000 09:23:17.000,18.503,75.108,12156.449781
3 Jan 2000 09:23:27.000,18.724,75.322,12152.369186
3 Jan 2000 09:23:37.000,18.949,75.535,12148.347912
3 Jan 2000 09:23:47.000,19.181,75.749,12144.386068
3 Jan 2000 09:23:57.000,19.418,75.963,12140.483762
3 Jan 2000 09:24:07.000,19.662,76.177,12136.641102
3 Jan 2000 09:24:17.000,19.912,76.391,12132.858194
3 Jan 2000 09:24:27.000,20.169,76.604,12129.135143
3 Jan 2000 09:24:37.000,20.433,76.818,12125.472052
3 Jan 2000 09:24:47.000,20.705,77.031,12121.869025
3 Jan 2000 09:24:57.000,20.985,77.244,12118.326163
3 Jan 2000 09:25:07.000,21.273,77.458,12114.843565
3 Jan 2000 09:25:17.000,21.570,77.671,12111.421331
3 Jan 2000 09:25:27.000,21.876,77.884,12108.059559
3 Jan 2000 09:25:37.000,22.192,78.096,12104.758344
3 Jan 2000 09:25:47.000,22.519,78.309,12101.517783
3 Jan 2000 09:25:57.000,22.856,78.521,12098.337969
3 Jan 2000 09:26:07.000,23.204,78.733,12095.218995
3 Jan 2000 09:26:17.000,23.565,78.945,12092.160952
3 Jan 2000 09:26:27.000,23.939,79.156,12089.163930
3 Jan 2000 09:26:37.000,24.326,79.368,12086.228019
3 Jan 2000 09:26:47.000,24.727,79.579,12083.353306
3 Jan 2000 09:26:57.000,25.143,79.789,12080.539877
3 Jan 2000 09:27:07.000,25.576,79.999,12077.787817
3 Jan 2000 09:27:17.000,26.026,80.209,12075.097210
3 Jan 2000 09:27:27.000,26.494,80.419,12072.468138
3 Jan 2000 09:27:37.000,26.982,80.627,12069.900683
3 Jan 2000 09:27:47.000,27.490,80.836,12067.394925
3 Jan 2000 09:27:57.000,28.020,81.044,12064.950940
3 Jan 2000 09:28:07.000,28.574,81.251,12062.568808
3 Jan 2000 09:28:17.000,29.154,81.457,12060.248602
3 Jan 2000 09:28:27.000,29.760,81.663,12057.990399
3 Jan 2000 09:28:37.000,30.395,81.868,12055.794270
3 Jan 2000 09:28:47.000,31.062,82.072,12053.660288
3 Jan 2000 09:28:57.000,31.762,82.275,12051.588523
3 Jan 2000 09:29:07.000,32.498,82.477,12049.579043
3 Jan 2000 09:29:17.000,33.273,82.678,12047.631917
3 Jan 2000 09:29:27.000,34.089,82.878,12045.747210
3 Jan 2000 09:29:37.000,34.951,83.076,12043.924987
3 Jan 2000 09:29:47.000,35.862,83.273,12042.165311
3 Jan 2000 09:29:57.000,36.825,83.469,12040.468246
3 Jan 2000 09:30:07.000,37.846,83.662,12038.833850
3 Jan 2000 09:30:17.000,38.929,83.854,12037.262184
3 Jan 2000 09:30:27.000,40.079,84.044,12035.753305
3 Jan 2000 09:30:37.000,41.302,84.231,12034.307270
3 Jan 2000 09:30:47.000,42.605,84.415,12032.924133
3 Jan 2000 09:30:57.000,43.994,84.597,12031.603948
3 Jan 2000 09:31:07.000,45.477,84.776,12030.346767
