cemeouhf_ael/Place-CEMID-Sensor-Sensor1-To-Satellite-POLMEO24_AER.csv

"Time (UTCG)","Azimuth (deg)","Elevation (deg)","Range (km)"
1 Jan 2000 22:17:04.815,194.707,57.176,12693.857186
1 Jan 2000 22:17:14.000,194.864,57.354,12686.419554
1 Jan 2000 22:17:24.000,195.037,57.546,12678.371811
1 Jan 2000 22:17:34.000,195.211,57.739,12670.375771
1 Jan 2000 22:17:44.000,195.387,57.932,12662.431566
1 Jan 2000 22:17:54.000,195.565,58.124,12654.539329
1 Jan 2000 22:18:04.000,195.745,58.317,12646.699189
1 Jan 2000 22:18:14.000,195.927,58.510,12638.911276
1 Jan 2000 22:18:24.000,196.111,58.702,12631.175721
1 Jan 2000 22:18:34.000,196.297,58.894,12623.492650
1 Jan 2000 22:18:44.000,196.485,59.087,12615.862192
1 Jan 2000 22:18:54.000,196.675,59.279,12608.284473
1 Jan 2000 22:19:04.000,196.867,59.471,12600.759620
1 Jan 2000 22:19:14.000,197.061,59.663,12593.287757
1 Jan 2000 22:19:24.000,197.258,59.855,12585.869008
1 Jan 2000 22:19:34.000,197.456,60.046,12578.503498
1 Jan 2000 22:19:44.000,197.657,60.238,12571.191349
1 Jan 2000 22:19:54.000,197.860,60.429,12563.932683
1 Jan 2000 22:20:04.000,198.066,60.621,12556.727620
1 Jan 2000 22:20:14.000,198.274,60.812,12549.576281
1 Jan 2000 22:20:24.000,198.484,61.003,12542.478785
1 Jan 2000 22:20:34.000,198.697,61.194,12535.435251
1 Jan 2000 22:20:44.000,198.913,61.384,12528.445795
1 Jan 2000 22:20:54.000,199.131,61.575,12521.510534
1 Jan 2000 22:21:04.000,199.351,61.765,12514.629585
1 Jan 2000 22:21:14.000,199.574,61.956,12507.803061
1 Jan 2000 22:21:24.000,199.800,62.146,12501.031077
1 Jan 2000 22:21:34.000,200.029,62.335,12494.313746
1 Jan 2000 22:21:44.000,200.261,62.525,12487.651179
1 Jan 2000 22:21:54.000,200.495,62.714,12481.043488
1 Jan 2000 22:22:04.000,200.733,62.904,12474.490783
1 Jan 2000 22:22:14.000,200.973,63.092,12467.993172
1 Jan 2000 22:22:24.000,201.216,63.281,12461.550765
1 Jan 2000 22:22:34.000,201.463,63.470,12455.163669
1 Jan 2000 22:22:44.000,201.713,63.658,12448.831989
1 Jan 2000 22:22:54.000,201.966,63.846,12442.555831
1 Jan 2000 22:23:04.000,202.222,64.033,12436.335299
1 Jan 2000 22:23:14.000,202.482,64.221,12430.170497
1 Jan 2000 22:23:24.000,202.745,64.408,12424.061528
1 Jan 2000 22:23:34.000,203.011,64.594,12418.008491
1 Jan 2000 22:23:44.000,203.282,64.781,12412.011489
1 Jan 2000 22:23:54.000,203.555,64.967,12406.070619
1 Jan 2000 22:24:04.000,203.833,65.153,12400.185980
1 Jan 2000 22:24:14.000,204.114,65.338,12394.357670
1 Jan 2000 22:24:24.000,204.400,65.523,12388.585785
1 Jan 2000 22:24:34.000,204.689,65.708,12382.870419
1 Jan 2000 22:24:44.000,204.982,65.892,12377.211668
1 Jan 2000 22:24:54.000,205.279,66.076,12371.609623
1 Jan 2000 22:25:04.000,205.581,66.259,12366.064377
1 Jan 2000 22:25:14.000,205.887,66.442,12360.576021
1 Jan 2000 22:25:24.000,206.197,66.625,12355.144645
1 Jan 2000 22:25:34.000,206.512,66.807,12349.770336
1 Jan 2000 22:25:44.000,206.831,66.988,12344.453184
1 Jan 2000 22:25:54.000,207.155,67.169,12339.193275
1 Jan 2000 22:26:04.000,207.483,67.350,12333.990693
1 Jan 2000 22:26:14.000,207.817,67.530,12328.845523
1 Jan 2000 22:26:24.000,208.155,67.710,12323.757849
1 Jan 2000 22:26:34.000,208.499,67.889,12318.727753
1 Jan 2000 22:26:44.000,208.848,68.067,12313.755315
1 Jan 2000 22:26:54.000,209.202,68.245,12308.840615
1 Jan 2000 22:27:04.000,209.561,68.422,12303.983733
1 Jan 2000 22:27:14.000,209.926,68.599,12299.184745
1 Jan 2000 22:27:24.000,210.296,68.775,12294.443728
1 Jan 2000 22:27:34.000,210.672,68.950,12289.760757
1 Jan 2000 22:27:44.000,211.055,69.125,12285.135906
1 Jan 2000 22:27:54.000,211.443,69.299,12280.569248
1 Jan 2000 22:28:04.000,211.837,69.472,12276.060855
1 Jan 2000 22:28:14.000,212.237,69.645,12271.610798
1 Jan 2000 22:28:24.000,212.644,69.816,12267.219145
1 Jan 2000 22:28:34.000,213.057,69.987,12262.885965
1 Jan 2000 22:28:44.000,213.477,70.157,12258.611325
1 Jan 2000 22:28:54.000,213.903,70.327,12254.395290
1 Jan 2000 22:29:04.000,214.337,70.495,12250.237926
1 Jan 2000 22:29:14.000,214.778,70.663,12246.139295
1 Jan 2000 22:29:24.000,215.225,70.829,12242.099460
1 Jan 2000 22:29:34.000,215.680,70.995,12238.118482
1 Jan 2000 22:29:44.000,216.143,71.159,12234.196420
1 Jan 2000 22:29:54.000,216.613,71.323,12230.333333
1 Jan 2000 22:30:04.000,217.091,71.486,12226.529278
1 Jan 2000 22:30:14.000,217.577,71.647,12222.784311
1 Jan 2000 22:30:24.000,218.071,71.808,12219.098487
1 Jan 2000 22:30:34.000,218.573,71.967,12215.471859
1 Jan 2000 22:30:44.000,219.084,72.125,12211.904480
1 Jan 2000 22:30:54.000,219.603,72.282,12208.396400
1 Jan 2000 22:31:04.000,220.131,72.438,12204.947670
1 Jan 2000 22:31:14.000,220.668,72.593,12201.558338
1 Jan 2000 22:31:24.000,221.214,72.746,12198.228451
1 Jan 2000 22:31:34.000,221.769,72.898,12194.958055
1 Jan 2000 22:31:44.000,222.333,73.048,12191.747194
1 Jan 2000 22:31:54.000,222.907,73.197,12188.595913
1 Jan 2000 22:32:04.000,223.491,73.345,12185.504253
1 Jan 2000 22:32:14.000,224.085,73.491,12182.472256
1 Jan 2000 22:32:24.000,224.688,73.635,12179.499960
1 Jan 2000 22:32:34.000,225.302,73.778,12176.587404
1 Jan 2000 22:32:44.000,225.926,73.920,12173.734625
1 Jan 2000 22:32:54.000,226.560,74.059,12170.941659
1 Jan 2000 22:33:04.000,227.205,74.197,12168.208540
1 Jan 2000 22:33:14.000,227.861,74.333,12165.535301
1 Jan 2000 22:33:24.000,228.528,74.468,12162.921974
1 Jan 2000 22:33:34.000,229.206,74.600,12160.368590
1 Jan 2000 22:33:44.000,229.894,74.730,12157.875177
1 Jan 2000 22:33:54.000,230.594,74.859,12155.441763
1 Jan 2000 22:34:04.000,231.306,74.985,12153.068375
1 Jan 2000 22:34:14.000,232.029,75.110,12150.755039
1 Jan 2000 22:34:24.000,232.763,75.232,12148.501777
1 Jan 2000 22:34:34.000,233.509,75.352,12146.308614
1 Jan 2000 22:34:44.000,234.267,75.470,12144.175569
1 Jan 2000 22:34:54.000,235.036,75.586,12142.102663
1 Jan 2000 22:35:04.000,235.817,75.699,12140.089915
1 Jan 2000 22:35:14.000,236.610,75.809,12138.137341
1 Jan 2000 22:35:24.000,237.415,75.918,12136.244958
1 Jan 2000 22:35:34.000,238.232,76.023,12134.412780
1 Jan 2000 22:35:44.000,239.060,76.127,12132.640822
1 Jan 2000 22:35:54.000,239.900,76.227,12130.929093
1 Jan 2000 22:36:04.000,240.752,76.325,12129.277606
1 Jan 2000 22:36:14.000,241.615,76.420,12127.686370
1 Jan 2000 22:36:24.000,242.490,76.512,12126.155392
1 Jan 2000 22:36:34.000,243.376,76.601,12124.684679
1 Jan 2000 22:36:44.000,244.274,76.687,12123.274236
1 Jan 2000 22:36:54.000,245.182,76.770,12121.924068
1 Jan 2000 22:37:04.000,246.102,76.851,12120.634176
1 Jan 2000 22:37:14.000,247.032,76.928,12119.404563
1 Jan 2000 22:37:24.000,247.972,77.001,12118.235228
1 Jan 2000 22:37:34.000,248.922,77.072,12117.126169
1 Jan 2000 22:37:44.000,249.882,77.139,12116.077385
1 Jan 2000 22:37:54.000,250.852,77.203,12115.088870
1 Jan 2000 22:38:04.000,251.831,77.264,12114.160620
1 Jan 2000 22:38:14.000,252.818,77.321,12113.292627
1 Jan 2000 22:38:24.000,253.814,77.375,12112.484884
1 Jan 2000 22:38:34.000,254.817,77.425,12111.737381
1 Jan 2000 22:38:44.000,255.828,77.471,12111.050107
1 Jan 2000 22:38:54.000,256.846,77.514,12110.423051
1 Jan 2000 22:39:04.000,257.870,77.553,12109.856198
1 Jan 2000 22:39:14.000,258.901,77.589,12109.349534
1 Jan 2000 22:39:24.000,259.936,77.621,12108.903042
1 Jan 2000 22:39:34.000,260.976,77.649,12108.516706
1 Jan 2000 22:39:44.000,262.021,77.673,12108.190507
1 Jan 2000 22:39:54.000,263.069,77.693,12107.924424
1 Jan 2000 22:40:04.000,264.120,77.710,12107.718435
1 Jan 2000 22:40:14.000,265.173,77.723,12107.572519
1 Jan 2000 22:40:24.000,266.228,77.732,12107.486650
1 Jan 2000 22:40:34.000,267.284,77.737,12107.460804
1 Jan 2000 22:40:44.000,268.341,77.739,12107.494954
1 Jan 2000 22:40:54.000,269.397,77.736,12107.589072
1 Jan 2000 22:41:04.000,270.453,77.730,12107.743128
1 Jan 2000 22:41:14.000,271.507,77.719,12107.957091
1 Jan 2000 22:41:24.000,272.559,77.705,12108.230929
1 Jan 2000 22:41:34.000,273.608,77.688,12108.564610
1 Jan 2000 22:41:44.000,274.653,77.666,12108.958098
1 Jan 2000 22:41:54.000,275.695,77.641,12109.411358
1 Jan 2000 22:42:04.000,276.732,77.611,12109.924352
1 Jan 2000 22:42:14.000,277.764,77.579,12110.497041
1 Jan 2000 22:42:24.000,278.791,77.542,12111.129386
1 Jan 2000 22:42:34.000,279.811,77.502,12111.821345
1 Jan 2000 22:42:44.000,280.824,77.458,12112.572877
1 Jan 2000 22:42:54.000,281.831,77.411,12113.383936
1 Jan 2000 22:43:04.000,282.829,77.360,12114.254479
1 Jan 2000 22:43:14.000,283.820,77.306,12115.184458
1 Jan 2000 22:43:24.000,284.801,77.248,12116.173827
1 Jan 2000 22:43:34.000,285.774,77.187,12117.222536
1 Jan 2000 22:43:44.000,286.738,77.122,12118.330535
1 Jan 2000 22:43:54.000,287.692,77.054,12119.497773
1 Jan 2000 22:44:04.000,288.636,76.983,12120.724196
1 Jan 2000 22:44:14.000,289.570,76.909,12122.009751
1 Jan 2000 22:44:24.000,290.494,76.832,12123.354383
1 Jan 2000 22:44:34.000,291.406,76.752,12124.758035
1 Jan 2000 22:44:44.000,292.308,76.668,12126.220650
1 Jan 2000 22:44:54.000,293.199,76.582,12127.742168
1 Jan 2000 22:45:04.000,294.078,76.493,12129.322528
1 Jan 2000 22:45:14.000,294.947,76.401,12130.961671
1 Jan 2000 22:45:24.000,295.803,76.307,12132.659532
1 Jan 2000 22:45:34.000,296.648,76.209,12134.416048
1 Jan 2000 22:45:44.000,297.482,76.109,12136.231154
1 Jan 2000 22:45:54.000,298.304,76.007,12138.104784
1 Jan 2000 22:46:04.000,299.114,75.902,12140.036869
1 Jan 2000 22:46:14.000,299.912,75.794,12142.027340
1 Jan 2000 22:46:24.000,300.699,75.684,12144.076129
1 Jan 2000 22:46:34.000,301.474,75.572,12146.183163
1 Jan 2000 22:46:44.000,302.237,75.458,12148.348371
1 Jan 2000 22:46:54.000,302.989,75.341,12150.571678
1 Jan 2000 22:47:04.000,303.729,75.222,12152.853009
1 Jan 2000 22:47:14.000,304.458,75.101,12155.192290
1 Jan 2000 22:47:24.000,305.175,74.978,12157.589441
1 Jan 2000 22:47:34.000,305.881,74.853,12160.044386
1 Jan 2000 22:47:44.000,306.576,74.726,12162.557045
1 Jan 2000 22:47:54.000,307.260,74.597,12165.127336
1 Jan 2000 22:48:04.000,307.933,74.467,12167.755179
1 Jan 2000 22:48:14.000,308.595,74.334,12170.440490
1 Jan 2000 22:48:24.000,309.247,74.200,12173.183185
1 Jan 2000 22:48:34.000,309.888,74.064,12175.983179
1 Jan 2000 22:48:44.000,310.518,73.927,12178.840386
1 Jan 2000 22:48:54.000,311.139,73.788,12181.754717
1 Jan 2000 22:49:04.000,311.749,73.647,12184.726085
1 Jan 2000 22:49:14.000,312.349,73.505,12187.754399
1 Jan 2000 22:49:24.000,312.940,73.361,12190.839569
1 Jan 2000 22:49:34.000,313.521,73.216,12193.981503
1 Jan 2000 22:49:44.000,314.092,73.070,12197.180108
1 Jan 2000 22:49:54.000,314.654,72.922,12200.435290
1 Jan 2000 22:50:04.000,315.207,72.773,12203.746953
1 Jan 2000 22:50:14.000,315.751,72.623,12207.115001
1 Jan 2000 22:50:24.000,316.287,72.472,12210.539337
1 Jan 2000 22:50:34.000,316.813,72.319,12214.019863
1 Jan 2000 22:50:44.000,317.331,72.165,12217.556479
1 Jan 2000 22:50:54.000,317.841,72.010,12221.149085
1 Jan 2000 22:51:04.000,318.342,71.854,12224.797578
1 Jan 2000 22:51:14.000,318.836,71.697,12228.501858
1 Jan 2000 22:51:24.000,319.321,71.539,12232.261819
1 Jan 2000 22:51:34.000,319.799,71.380,12236.077357
1 Jan 2000 22:51:44.000,320.270,71.220,12239.948367
1 Jan 2000 22:51:54.000,320.733,71.060,12243.874743
1 Jan 2000 22:52:04.000,321.188,70.898,12247.856375
1 Jan 2000 22:52:14.000,321.637,70.735,12251.893157
1 Jan 2000 22:52:24.000,322.078,70.572,12255.984978
1 Jan 2000 22:52:34.000,322.513,70.407,12260.131728
1 Jan 2000 22:52:44.000,322.941,70.242,12264.333295
1 Jan 2000 22:52:54.000,323.363,70.076,12268.589566
1 Jan 2000 22:53:04.000,323.778,69.910,12272.900429
1 Jan 2000 22:53:14.000,324.187,69.743,12277.265769
1 Jan 2000 22:53:24.000,324.589,69.575,12281.685470
1 Jan 2000 22:53:34.000,324.986,69.406,12286.159417
1 Jan 2000 22:53:44.000,325.376,69.237,12290.687492
1 Jan 2000 22:53:54.000,325.761,69.067,12295.269577
1 Jan 2000 22:54:04.000,326.141,68.896,12299.905552
1 Jan 2000 22:54:14.000,326.514,68.725,12304.595299
1 Jan 2000 22:54:24.000,326.883,68.553,12309.338696
1 Jan 2000 22:54:34.000,327.246,68.381,12314.135622
1 Jan 2000 22:54:44.000,327.603,68.208,12318.985954
1 Jan 2000 22:54:54.000,327.956,68.035,12323.889568
1 Jan 2000 22:55:04.000,328.304,67.861,12328.846341
1 Jan 2000 22:55:14.000,328.647,67.687,12333.856147
1 Jan 2000 22:55:24.000,328.985,67.512,12338.918860
1 Jan 2000 22:55:34.000,329.318,67.337,12344.034354
1 Jan 2000 22:55:44.000,329.647,67.161,12349.202500
1 Jan 2000 22:55:54.000,329.971,66.985,12354.423171
1 Jan 2000 22:56:04.000,330.291,66.809,12359.696236
1 Jan 2000 22:56:14.000,330.607,66.632,12365.021566
1 Jan 2000 22:56:24.000,330.918,66.454,12370.399031
1 Jan 2000 22:56:34.000,331.226,66.277,12375.828497
1 Jan 2000 22:56:44.000,331.529,66.099,12381.309834
1 Jan 2000 22:56:54.000,331.828,65.921,12386.842907
1 Jan 2000 22:57:04.000,332.124,65.742,12392.427582
1 Jan 2000 22:57:14.000,332.415,65.563,12398.063726
1 Jan 2000 22:57:24.000,332.703,65.384,12403.751202
1 Jan 2000 22:57:34.000,332.987,65.204,12409.489874
1 Jan 2000 22:57:44.000,333.268,65.025,12415.279604
1 Jan 2000 22:57:54.000,333.545,64.844,12421.120257
1 Jan 2000 22:58:04.000,333.819,64.664,12427.011692
1 Jan 2000 22:58:14.000,334.090,64.484,12432.953771
1 Jan 2000 22:58:24.000,334.357,64.303,12438.946354
1 Jan 2000 22:58:34.000,334.621,64.122,12444.989301
1 Jan 2000 22:58:44.000,334.882,63.941,12451.082469
1 Jan 2000 22:58:54.000,335.139,63.759,12457.225719
1 Jan 2000 22:59:04.000,335.394,63.577,12463.418906
1 Jan 2000 22:59:14.000,335.646,63.396,12469.661887
1 Jan 2000 22:59:24.000,335.895,63.214,12475.954520
1 Jan 2000 22:59:34.000,336.141,63.031,12482.296658
1 Jan 2000 22:59:44.000,336.384,62.849,12488.688158
1 Jan 2000 22:59:54.000,336.624,62.666,12495.128873
1 Jan 2000 23:00:04.000,336.862,62.484,12501.618657
1 Jan 2000 23:00:14.000,337.097,62.301,12508.157363
1 Jan 2000 23:00:24.000,337.330,62.118,12514.744844
1 Jan 2000 23:00:34.000,337.560,61.935,12521.380951
1 Jan 2000 23:00:44.000,337.787,61.752,12528.065535
1 Jan 2000 23:00:54.000,338.012,61.568,12534.798447
1 Jan 2000 23:01:04.000,338.235,61.385,12541.579537
1 Jan 2000 23:01:14.000,338.455,61.202,12548.408655
1 Jan 2000 23:01:24.000,338.673,61.018,12555.285650
1 Jan 2000 23:01:34.000,338.889,60.834,12562.210370
1 Jan 2000 23:01:44.000,339.103,60.650,12569.182663
1 Jan 2000 23:01:54.000,339.314,60.467,12576.202376
1 Jan 2000 23:02:04.000,339.523,60.283,12583.269357
1 Jan 2000 23:02:14.000,339.730,60.099,12590.383451
1 Jan 2000 23:02:24.000,339.936,59.915,12597.544504
1 Jan 2000 23:02:34.000,340.139,59.731,12604.752362
1 Jan 2000 23:02:44.000,340.340,59.546,12612.006869
1 Jan 2000 23:02:54.000,340.539,59.362,12619.307871
1 Jan 2000 23:03:04.000,340.736,59.178,12626.655210
1 Jan 2000 23:03:14.000,340.932,58.994,12634.048730
1 Jan 2000 23:03:24.000,341.125,58.809,12641.488274
1 Jan 2000 23:03:34.000,341.317,58.625,12648.973685
1 Jan 2000 23:03:44.000,341.507,58.441,12656.504805
1 Jan 2000 23:03:54.000,341.695,58.257,12664.081476
1 Jan 2000 23:04:04.000,341.882,58.072,12671.703538
1 Jan 2000 23:04:14.000,342.067,57.888,12679.370832
1 Jan 2000 23:04:24.000,342.250,57.704,12687.083199
1 Jan 2000 23:04:34.000,342.432,57.519,12694.840479
1 Jan 2000 23:04:44.000,342.612,57.335,12702.642512
1 Jan 2000 23:04:54.000,342.790,57.151,12710.489136
1 Jan 2000 23:05:04.000,342.967,56.966,12718.380191
1 Jan 2000 23:05:14.000,343.143,56.782,12726.315515
1 Jan 2000 23:05:24.000,343.317,56.598,12734.294946
1 Jan 2000 23:05:34.000,343.489,56.414,12742.318321
1 Jan 2000 23:05:44.000,343.660,56.229,12750.385479
1 Jan 2000 23:05:54.000,343.830,56.045,12758.496257
1 Jan 2000 23:06:04.000,343.998,55.861,12766.650490
1 Jan 2000 23:06:14.000,344.165,55.677,12774.848016
1 Jan 2000 23:06:24.000,344.331,55.493,12783.088671
1 Jan 2000 23:06:34.000,344.495,55.309,12791.372290
1 Jan 2000 23:06:44.000,344.658,55.125,12799.698709
1 Jan 2000 23:06:54.000,344.820,54.941,12808.067763
1 Jan 2000 23:07:04.000,344.980,54.757,12816.479287
1 Jan 2000 23:07:14.000,345.139,54.574,12824.933115
1 Jan 2000 23:07:24.000,345.297,54.390,12833.429083
1 Jan 2000 23:07:34.000,345.454,54.206,12841.967024
1 Jan 2000 23:07:44.000,345.610,54.023,12850.546771
1 Jan 2000 23:07:54.000,345.764,53.839,12859.168159
1 Jan 2000 23:08:04.000,345.918,53.656,12867.831021
1 Jan 2000 23:08:14.000,346.070,53.472,12876.535190
1 Jan 2000 23:08:24.000,346.221,53.289,12885.280498
1 Jan 2000 23:08:34.000,346.372,53.106,12894.066779
1 Jan 2000 23:08:44.000,346.521,52.923,12902.893865
1 Jan 2000 23:08:54.000,346.669,52.740,12911.761588
1 Jan 2000 23:09:04.000,346.816,52.557,12920.669781
1 Jan 2000 23:09:14.000,346.962,52.374,12929.618274
1 Jan 2000 23:09:24.000,347.107,52.191,12938.606900
1 Jan 2000 23:09:34.000,347.251,52.009,12947.635490
1 Jan 2000 23:09:44.000,347.394,51.826,12956.703875
1 Jan 2000 23:09:54.000,347.536,51.644,12965.811887
1 Jan 2000 23:10:04.000,347.677,51.462,12974.959356
1 Jan 2000 23:10:14.000,347.818,51.279,12984.146113
1 Jan 2000 23:10:24.000,347.957,51.097,12993.371990
1 Jan 2000 23:10:34.000,348.096,50.915,13002.636815
1 Jan 2000 23:10:44.000,348.233,50.733,13011.940421
1 Jan 2000 23:10:54.000,348.370,50.552,13021.282637
1 Jan 2000 23:11:04.000,348.506,50.370,13030.663293
1 Jan 2000 23:11:14.000,348.641,50.188,13040.082219
1 Jan 2000 23:11:24.000,348.775,50.007,13049.539245
1 Jan 2000 23:11:34.000,348.909,49.826,13059.034202
1 Jan 2000 23:11:44.000,349.042,49.644,13068.566918
1 Jan 2000 23:11:54.000,349.174,49.463,13078.137223
1 Jan 2000 23:12:04.000,349.305,49.282,13087.744947
1 Jan 2000 23:12:14.000,349.435,49.102,13097.389920
1 Jan 2000 23:12:24.000,349.565,48.921,13107.071970
1 Jan 2000 23:12:34.000,349.694,48.740,13116.790928
1 Jan 2000 23:12:44.000,349.822,48.560,13126.546621
1 Jan 2000 23:12:54.000,349.950,48.380,13136.338880
1 Jan 2000 23:13:04.000,350.076,48.199,13146.167534
1 Jan 2000 23:13:14.000,350.202,48.019,13156.032412
1 Jan 2000 23:13:24.000,350.328,47.840,13165.933342
1 Jan 2000 23:13:34.000,350.453,47.660,13175.870155
1 Jan 2000 23:13:44.000,350.577,47.480,13185.842678
1 Jan 2000 23:13:54.000,350.700,47.301,13195.850742
1 Jan 2000 23:14:04.000,350.823,47.121,13205.894174
1 Jan 2000 23:14:14.000,350.945,46.942,13215.972805
1 Jan 2000 23:14:24.000,351.067,46.763,13226.086463
1 Jan 2000 23:14:34.000,351.187,46.584,13236.234976
1 Jan 2000 23:14:44.000,351.308,46.406,13246.418175
1 Jan 2000 23:14:54.000,351.427,46.227,13256.635888
1 Jan 2000 23:15:04.000,351.547,46.049,13266.887944
1 Jan 2000 23:15:14.000,351.665,45.870,13277.174172
1 Jan 2000 23:15:24.000,351.783,45.692,13287.494401
1 Jan 2000 23:15:34.000,351.901,45.514,13297.848461
1 Jan 2000 23:15:44.000,352.017,45.336,13308.236180
1 Jan 2000 23:15:54.000,352.134,45.159,13318.657388
1 Jan 2000 23:16:04.000,352.250,44.981,13329.111914
1 Jan 2000 23:16:14.000,352.365,44.804,13339.599588
1 Jan 2000 23:16:24.000,352.479,44.627,13350.120238
1 Jan 2000 23:16:34.000,352.594,44.450,13360.673695
1 Jan 2000 23:16:44.000,352.707,44.273,13371.259787
1 Jan 2000 23:16:54.000,352.821,44.096,13381.878345
1 Jan 2000 23:17:04.000,352.933,43.920,13392.529198
1 Jan 2000 23:17:14.000,353.045,43.743,13403.212176
1 Jan 2000 23:17:24.000,353.157,43.567,13413.927108
1 Jan 2000 23:17:34.000,353.268,43.391,13424.673825
1 Jan 2000 23:17:44.000,353.379,43.215,13435.452157
1 Jan 2000 23:17:54.000,353.490,43.039,13446.261934
1 Jan 2000 23:18:04.000,353.599,42.864,13457.102986
1 Jan 2000 23:18:14.000,353.709,42.688,13467.975143
1 Jan 2000 23:18:24.000,353.818,42.513,13478.878237
1 Jan 2000 23:18:34.000,353.926,42.338,13489.812097
1 Jan 2000 23:18:44.000,354.035,42.163,13500.776554
1 Jan 2000 23:18:54.000,354.142,41.988,13511.771440
1 Jan 2000 23:19:04.000,354.250,41.814,13522.796585
1 Jan 2000 23:19:14.000,354.356,41.639,13533.851820
1 Jan 2000 23:19:24.000,354.463,41.465,13544.936978
1 Jan 2000 23:19:34.000,354.569,41.291,13556.051888
1 Jan 2000 23:19:44.000,354.675,41.117,13567.196383
1 Jan 2000 23:19:54.000,354.780,40.944,13578.370295
1 Jan 2000 23:20:04.000,354.885,40.770,13589.573455
1 Jan 2000 23:20:14.000,354.989,40.597,13600.805696
1 Jan 2000 23:20:24.000,355.093,40.424,13612.066849
1 Jan 2000 23:20:34.000,355.197,40.251,13623.356747
1 Jan 2000 23:20:44.000,355.301,40.078,13634.675224
1 Jan 2000 23:20:54.000,355.404,39.905,13646.022110
1 Jan 2000 23:21:04.000,355.506,39.733,13657.397241
1 Jan 2000 23:21:14.000,355.609,39.561,13668.800447
1 Jan 2000 23:21:24.000,355.711,39.389,13680.231564
1 Jan 2000 23:21:34.000,355.812,39.217,13691.690424
1 Jan 2000 23:21:44.000,355.914,39.045,13703.176861
1 Jan 2000 23:21:54.000,356.015,38.873,13714.690709
1 Jan 2000 23:22:04.000,356.115,38.702,13726.231803
1 Jan 2000 23:22:14.000,356.216,38.531,13737.799975
1 Jan 2000 23:22:24.000,356.316,38.360,13749.395062
1 Jan 2000 23:22:34.000,356.415,38.189,13761.016898
1 Jan 2000 23:22:44.000,356.515,38.018,13772.665317
1 Jan 2000 23:22:54.000,356.614,37.848,13784.340155
1 Jan 2000 23:23:04.000,356.713,37.678,13796.041248
1 Jan 2000 23:23:14.000,356.811,37.508,13807.768430
1 Jan 2000 23:23:24.000,356.909,37.338,13819.521539
1 Jan 2000 23:23:34.000,357.007,37.168,13831.300409
1 Jan 2000 23:23:44.000,357.105,36.999,13843.104877
1 Jan 2000 23:23:54.000,357.202,36.829,13854.934781
1 Jan 2000 23:24:04.000,357.299,36.660,13866.789956
1 Jan 2000 23:24:14.000,357.396,36.491,13878.670239
1 Jan 2000 23:24:24.000,357.493,36.322,13890.575469
1 Jan 2000 23:24:34.000,357.589,36.154,13902.505482
1 Jan 2000 23:24:44.000,357.685,35.985,13914.460117
1 Jan 2000 23:24:54.000,357.780,35.817,13926.439211
1 Jan 2000 23:25:04.000,357.876,35.649,13938.442603
1 Jan 2000 23:25:14.000,357.971,35.481,13950.470131
1 Jan 2000 23:25:24.000,358.066,35.314,13962.521635
1 Jan 2000 23:25:34.000,358.161,35.146,13974.596953
1 Jan 2000 23:25:42.690,358.243,35.001,13985.109836

Interval Statistics
"Min Elevation",1 Jan 2000 23:25:42.690,358.243,35.001,13985.109836
"Max Elevation",1 Jan 2000 22:40:42.439,268.176,77.739,12107.485671
"Mean Elevation",,,62.225,
"Min Range",1 Jan 2000 22:40:33.308,267.211,77.737,12107.460660
"Max Range",1 Jan 2000 23:25:42.690,358.243,35.001,13985.109836
"Mean Range",,,,12612.652977

"Time (UTCG)","Azimuth (deg)","Elevation (deg)","Range (km)"
2 Jan 2000 06:55:02.029,46.313,49.702,13062.602976
2 Jan 2000 06:55:12.000,46.621,49.753,13059.931929
2 Jan 2000 06:55:22.000,46.930,49.802,13057.291500
2 Jan 2000 06:55:32.000,47.240,49.851,13054.689465
2 Jan 2000 06:55:42.000,47.551,49.899,13052.125900
2 Jan 2000 06:55:52.000,47.863,49.947,13049.600876
2 Jan 2000 06:56:02.000,48.175,49.994,13047.114468
2 Jan 2000 06:56:12.000,48.488,50.040,13044.666748
2 Jan 2000 06:56:22.000,48.801,50.085,13042.257788
2 Jan 2000 06:56:32.000,49.116,50.130,13039.887660
2 Jan 2000 06:56:42.000,49.430,50.174,13037.556435
2 Jan 2000 06:56:52.000,49.746,50.218,13035.264183
2 Jan 2000 06:57:02.000,50.062,50.260,13033.010975
2 Jan 2000 06:57:12.000,50.378,50.302,13030.796880
2 Jan 2000 06:57:22.000,50.696,50.344,13028.621968
2 Jan 2000 06:57:32.000,51.013,50.384,13026.486308
2 Jan 2000 06:57:42.000,51.332,50.424,13024.389967
2 Jan 2000 06:57:52.000,51.651,50.463,13022.333013
2 Jan 2000 06:58:02.000,51.971,50.501,13020.315514
2 Jan 2000 06:58:12.000,52.291,50.539,13018.337535
2 Jan 2000 06:58:22.000,52.611,50.576,13016.399144
2 Jan 2000 06:58:32.000,52.933,50.612,13014.500405
2 Jan 2000 06:58:42.000,53.254,50.647,13012.641385
2 Jan 2000 06:58:52.000,53.577,50.682,13010.822146
2 Jan 2000 06:59:02.000,53.900,50.716,13009.042754
2 Jan 2000 06:59:12.000,54.223,50.749,13007.303272
2 Jan 2000 06:59:22.000,54.547,50.781,13005.603763
2 Jan 2000 06:59:32.000,54.871,50.813,13003.944290
2 Jan 2000 06:59:42.000,55.196,50.844,13002.324913
2 Jan 2000 06:59:52.000,55.521,50.874,13000.745695
2 Jan 2000 07:00:02.000,55.847,50.903,12999.206696
2 Jan 2000 07:00:12.000,56.173,50.932,12997.707977
2 Jan 2000 07:00:22.000,56.500,50.960,12996.249597
2 Jan 2000 07:00:32.000,56.827,50.987,12994.831616
2 Jan 2000 07:00:42.000,57.155,51.013,12993.454091
2 Jan 2000 07:00:52.000,57.483,51.038,12992.117081
2 Jan 2000 07:01:02.000,57.811,51.063,12990.820644
2 Jan 2000 07:01:12.000,58.140,51.087,12989.564836
2 Jan 2000 07:01:22.000,58.469,51.110,12988.349713
2 Jan 2000 07:01:32.000,58.798,51.132,12987.175332
2 Jan 2000 07:01:42.000,59.128,51.154,12986.041747
2 Jan 2000 07:01:52.000,59.458,51.174,12984.949013
2 Jan 2000 07:02:02.000,59.789,51.194,12983.897184
2 Jan 2000 07:02:12.000,60.120,51.213,12982.886313
2 Jan 2000 07:02:22.000,60.451,51.231,12981.916454
2 Jan 2000 07:02:32.000,60.783,51.249,12980.987658
2 Jan 2000 07:02:42.000,61.114,51.266,12980.099977
2 Jan 2000 07:02:52.000,61.446,51.281,12979.253463
2 Jan 2000 07:03:02.000,61.779,51.296,12978.448164
2 Jan 2000 07:03:12.000,62.111,51.311,12977.684133
2 Jan 2000 07:03:22.000,62.444,51.324,12976.961416
2 Jan 2000 07:03:32.000,62.777,51.337,12976.280065
2 Jan 2000 07:03:42.000,63.110,51.348,12975.640125
2 Jan 2000 07:03:52.000,63.444,51.359,12975.041645
2 Jan 2000 07:04:02.000,63.777,51.369,12974.484672
2 Jan 2000 07:04:12.000,64.111,51.379,12973.969251
2 Jan 2000 07:04:22.000,64.445,51.387,12973.495429
2 Jan 2000 07:04:32.000,64.779,51.395,12973.063250
2 Jan 2000 07:04:42.000,65.114,51.401,12972.672759
2 Jan 2000 07:04:52.000,65.448,51.407,12972.323999
2 Jan 2000 07:05:02.000,65.783,51.412,12972.017014
2 Jan 2000 07:05:12.000,66.117,51.417,12971.751845
2 Jan 2000 07:05:22.000,66.452,51.420,12971.528536
2 Jan 2000 07:05:32.000,66.787,51.423,12971.347126
2 Jan 2000 07:05:42.000,67.122,51.424,12971.207657
2 Jan 2000 07:05:52.000,67.457,51.425,12971.110168
2 Jan 2000 07:06:02.000,67.792,51.425,12971.054699
2 Jan 2000 07:06:12.000,68.127,51.425,12971.041289
2 Jan 2000 07:06:22.000,68.462,51.423,12971.069975
2 Jan 2000 07:06:32.000,68.797,51.421,12971.140794
2 Jan 2000 07:06:42.000,69.132,51.417,12971.253785
2 Jan 2000 07:06:52.000,69.467,51.413,12971.408982
2 Jan 2000 07:07:02.000,69.802,51.408,12971.606421
2 Jan 2000 07:07:12.000,70.137,51.402,12971.846137
2 Jan 2000 07:07:22.000,70.472,51.396,12972.128164
2 Jan 2000 07:07:32.000,70.807,51.388,12972.452535
2 Jan 2000 07:07:42.000,71.142,51.380,12972.819284
2 Jan 2000 07:07:52.000,71.476,51.371,12973.228443
2 Jan 2000 07:08:02.000,71.811,51.361,12973.680042
2 Jan 2000 07:08:12.000,72.145,51.350,12974.174113
2 Jan 2000 07:08:22.000,72.479,51.338,12974.710686
2 Jan 2000 07:08:32.000,72.813,51.325,12975.289791
2 Jan 2000 07:08:42.000,73.147,51.312,12975.911456
2 Jan 2000 07:08:52.000,73.481,51.298,12976.575709
2 Jan 2000 07:09:02.000,73.815,51.283,12977.282579
2 Jan 2000 07:09:12.000,74.148,51.267,12978.032091
2 Jan 2000 07:09:22.000,74.481,51.250,12978.824273
2 Jan 2000 07:09:32.000,74.814,51.232,12979.659149
2 Jan 2000 07:09:42.000,75.147,51.214,12980.536745
2 Jan 2000 07:09:52.000,75.479,51.194,12981.457085
2 Jan 2000 07:10:02.000,75.811,51.174,12982.420191
2 Jan 2000 07:10:12.000,76.143,51.153,12983.426088
2 Jan 2000 07:10:22.000,76.475,51.131,12984.474796
2 Jan 2000 07:10:32.000,76.806,51.109,12985.566338
2 Jan 2000 07:10:42.000,77.137,51.085,12986.700734
2 Jan 2000 07:10:52.000,77.468,51.061,12987.878005
2 Jan 2000 07:11:02.000,77.798,51.036,12989.098169
2 Jan 2000 07:11:12.000,78.128,51.010,12990.361246
2 Jan 2000 07:11:22.000,78.458,50.983,12991.667253
2 Jan 2000 07:11:32.000,78.787,50.955,12993.016208
2 Jan 2000 07:11:42.000,79.116,50.927,12994.408128
2 Jan 2000 07:11:52.000,79.444,50.897,12995.843028
2 Jan 2000 07:12:02.000,79.772,50.867,12997.320924
2 Jan 2000 07:12:12.000,80.100,50.836,12998.841830
2 Jan 2000 07:12:22.000,80.427,50.805,13000.405761
2 Jan 2000 07:12:32.000,80.754,50.772,13002.012730
2 Jan 2000 07:12:42.000,81.080,50.739,13003.662748
2 Jan 2000 07:12:52.000,81.406,50.704,13005.355828
2 Jan 2000 07:13:02.000,81.731,50.669,13007.091982
2 Jan 2000 07:13:12.000,82.056,50.633,13008.871219
2 Jan 2000 07:13:22.000,82.380,50.597,13010.693549
2 Jan 2000 07:13:32.000,82.704,50.559,13012.558982
2 Jan 2000 07:13:42.000,83.027,50.521,13014.467525
2 Jan 2000 07:13:52.000,83.350,50.482,13016.419187
2 Jan 2000 07:14:02.000,83.672,50.442,13018.413974
2 Jan 2000 07:14:12.000,83.994,50.401,13020.451894
2 Jan 2000 07:14:22.000,84.315,50.360,13022.532950
2 Jan 2000 07:14:32.000,84.635,50.318,13024.657149
2 Jan 2000 07:14:42.000,84.955,50.274,13026.824494
2 Jan 2000 07:14:52.000,85.275,50.231,13029.034990
2 Jan 2000 07:15:02.000,85.594,50.186,13031.288638
2 Jan 2000 07:15:12.000,85.912,50.141,13033.585441
2 Jan 2000 07:15:22.000,86.229,50.094,13035.925401
2 Jan 2000 07:15:32.000,86.546,50.047,13038.308518
2 Jan 2000 07:15:42.000,86.863,50.000,13040.734792
2 Jan 2000 07:15:52.000,87.178,49.951,13043.204223
2 Jan 2000 07:16:02.000,87.493,49.902,13045.716808
2 Jan 2000 07:16:12.000,87.807,49.852,13048.272547
2 Jan 2000 07:16:22.000,88.121,49.801,13050.871437
2 Jan 2000 07:16:32.000,88.434,49.749,13053.513473
2 Jan 2000 07:16:42.000,88.746,49.697,13056.198653
2 Jan 2000 07:16:52.000,89.058,49.644,13058.926970
2 Jan 2000 07:17:02.000,89.369,49.590,13061.698420
2 Jan 2000 07:17:12.000,89.679,49.536,13064.512996
2 Jan 2000 07:17:22.000,89.988,49.480,13067.370692
2 Jan 2000 07:17:32.000,90.297,49.424,13070.271499
2 Jan 2000 07:17:42.000,90.605,49.368,13073.215411
2 Jan 2000 07:17:52.000,90.912,49.310,13076.202416
2 Jan 2000 07:18:02.000,91.219,49.252,13079.232507
2 Jan 2000 07:18:12.000,91.525,49.193,13082.305672
2 Jan 2000 07:18:22.000,91.830,49.133,13085.421901
2 Jan 2000 07:18:32.000,92.134,49.073,13088.581181
2 Jan 2000 07:18:42.000,92.437,49.011,13091.783501
2 Jan 2000 07:18:52.000,92.740,48.950,13095.028847
2 Jan 2000 07:19:02.000,93.042,48.887,13098.317205
2 Jan 2000 07:19:12.000,93.343,48.824,13101.648562
2 Jan 2000 07:19:22.000,93.643,48.760,13105.022901
2 Jan 2000 07:19:32.000,93.943,48.695,13108.440207
2 Jan 2000 07:19:42.000,94.242,48.630,13111.900463
2 Jan 2000 07:19:52.000,94.539,48.564,13115.403653
2 Jan 2000 07:20:02.000,94.837,48.497,13118.949757
2 Jan 2000 07:20:12.000,95.133,48.430,13122.538759
2 Jan 2000 07:20:22.000,95.428,48.362,13126.170637
2 Jan 2000 07:20:32.000,95.723,48.293,13129.845373
2 Jan 2000 07:20:42.000,96.016,48.223,13133.562946
2 Jan 2000 07:20:52.000,96.309,48.153,13137.323334
2 Jan 2000 07:21:02.000,96.601,48.082,13141.126516
2 Jan 2000 07:21:12.000,96.893,48.011,13144.972468
2 Jan 2000 07:21:22.000,97.183,47.939,13148.861168
2 Jan 2000 07:21:32.000,97.472,47.866,13152.792591
2 Jan 2000 07:21:42.000,97.761,47.793,13156.766713
2 Jan 2000 07:21:52.000,98.049,47.719,13160.783509
2 Jan 2000 07:22:02.000,98.336,47.644,13164.842952
2 Jan 2000 07:22:12.000,98.622,47.569,13168.945016
2 Jan 2000 07:22:22.000,98.907,47.493,13173.089673
2 Jan 2000 07:22:32.000,99.191,47.416,13177.276895
2 Jan 2000 07:22:42.000,99.475,47.339,13181.506654
2 Jan 2000 07:22:52.000,99.757,47.261,13185.778921
2 Jan 2000 07:23:02.000,100.039,47.183,13190.093665
2 Jan 2000 07:23:12.000,100.319,47.104,13194.450856
2 Jan 2000 07:23:22.000,100.599,47.024,13198.850462
2 Jan 2000 07:23:32.000,100.878,46.944,13203.292451
2 Jan 2000 07:23:42.000,101.156,46.863,13207.776791
2 Jan 2000 07:23:52.000,101.433,46.782,13212.303449
2 Jan 2000 07:24:02.000,101.709,46.700,13216.872391
2 Jan 2000 07:24:12.000,101.985,46.617,13221.483581
2 Jan 2000 07:24:22.000,102.259,46.534,13226.136985
2 Jan 2000 07:24:32.000,102.533,46.450,13230.832568
2 Jan 2000 07:24:42.000,102.805,46.366,13235.570291
2 Jan 2000 07:24:52.000,103.077,46.281,13240.350119
2 Jan 2000 07:25:02.000,103.348,46.195,13245.172014
2 Jan 2000 07:25:12.000,103.618,46.109,13250.035937
2 Jan 2000 07:25:22.000,103.887,46.023,13254.941848
2 Jan 2000 07:25:32.000,104.155,45.936,13259.889710
2 Jan 2000 07:25:42.000,104.422,45.848,13264.879480
2 Jan 2000 07:25:52.000,104.688,45.760,13269.911118
2 Jan 2000 07:26:02.000,104.953,45.671,13274.984583
2 Jan 2000 07:26:12.000,105.218,45.581,13280.099832
2 Jan 2000 07:26:22.000,105.481,45.492,13285.256822
2 Jan 2000 07:26:32.000,105.744,45.401,13290.455510
2 Jan 2000 07:26:42.000,106.005,45.310,13295.695853
2 Jan 2000 07:26:52.000,106.266,45.219,13300.977804
2 Jan 2000 07:27:02.000,106.526,45.127,13306.301320
2 Jan 2000 07:27:12.000,106.785,45.034,13311.666354
2 Jan 2000 07:27:22.000,107.042,44.941,13317.072859
2 Jan 2000 07:27:32.000,107.300,44.848,13322.520788
2 Jan 2000 07:27:42.000,107.556,44.754,13328.010094
2 Jan 2000 07:27:52.000,107.811,44.659,13333.540729
2 Jan 2000 07:28:02.000,108.065,44.564,13339.112642
2 Jan 2000 07:28:12.000,108.318,44.469,13344.725786
2 Jan 2000 07:28:22.000,108.571,44.373,13350.380109
2 Jan 2000 07:28:32.000,108.822,44.276,13356.075561
2 Jan 2000 07:28:42.000,109.073,44.180,13361.812091
2 Jan 2000 07:28:52.000,109.323,44.082,13367.589646
2 Jan 2000 07:29:02.000,109.572,43.984,13373.408175
2 Jan 2000 07:29:12.000,109.819,43.886,13379.267623
2 Jan 2000 07:29:22.000,110.066,43.787,13385.167938
2 Jan 2000 07:29:32.000,110.312,43.688,13391.109065
2 Jan 2000 07:29:42.000,110.558,43.588,13397.090950
2 Jan 2000 07:29:52.000,110.802,43.488,13403.113537
2 Jan 2000 07:30:02.000,111.045,43.387,13409.176769
2 Jan 2000 07:30:12.000,111.288,43.286,13415.280591
2 Jan 2000 07:30:22.000,111.529,43.185,13421.424945
2 Jan 2000 07:30:32.000,111.770,43.083,13427.609774
2 Jan 2000 07:30:42.000,112.009,42.981,13433.835020
2 Jan 2000 07:30:52.000,112.248,42.878,13440.100623
2 Jan 2000 07:31:02.000,112.486,42.775,13446.406524
2 Jan 2000 07:31:12.000,112.723,42.671,13452.752664
2 Jan 2000 07:31:22.000,112.959,42.567,13459.138981
2 Jan 2000 07:31:32.000,113.195,42.463,13465.565416
2 Jan 2000 07:31:42.000,113.429,42.358,13472.031906
2 Jan 2000 07:31:52.000,113.663,42.253,13478.538389
2 Jan 2000 07:32:02.000,113.895,42.147,13485.084803
2 Jan 2000 07:32:12.000,114.127,42.041,13491.671085
2 Jan 2000 07:32:22.000,114.358,41.935,13498.297171
2 Jan 2000 07:32:32.000,114.588,41.828,13504.962996
2 Jan 2000 07:32:42.000,114.817,41.721,13511.668496
2 Jan 2000 07:32:52.000,115.045,41.613,13518.413605
2 Jan 2000 07:33:02.000,115.272,41.505,13525.198259
2 Jan 2000 07:33:12.000,115.499,41.397,13532.022390
2 Jan 2000 07:33:22.000,115.725,41.288,13538.885931
2 Jan 2000 07:33:32.000,115.949,41.179,13545.788816
2 Jan 2000 07:33:42.000,116.173,41.070,13552.730976
2 Jan 2000 07:33:52.000,116.396,40.960,13559.712344
2 Jan 2000 07:34:02.000,116.618,40.850,13566.732849
2 Jan 2000 07:34:12.000,116.840,40.739,13573.792424
2 Jan 2000 07:34:22.000,117.060,40.628,13580.890997
2 Jan 2000 07:34:32.000,117.280,40.517,13588.028499
2 Jan 2000 07:34:42.000,117.499,40.406,13595.204858
2 Jan 2000 07:34:52.000,117.717,40.294,13602.420004
2 Jan 2000 07:35:02.000,117.934,40.181,13609.673865
2 Jan 2000 07:35:12.000,118.150,40.069,13616.966368
2 Jan 2000 07:35:22.000,118.365,39.956,13624.297440
2 Jan 2000 07:35:32.000,118.580,39.843,13631.667008
2 Jan 2000 07:35:42.000,118.794,39.729,13639.074999
2 Jan 2000 07:35:52.000,119.007,39.616,13646.521338
2 Jan 2000 07:36:02.000,119.219,39.501,13654.005950
2 Jan 2000 07:36:12.000,119.430,39.387,13661.528761
2 Jan 2000 07:36:22.000,119.641,39.272,13669.089694
2 Jan 2000 07:36:32.000,119.850,39.157,13676.688674
2 Jan 2000 07:36:42.000,120.059,39.042,13684.325624
2 Jan 2000 07:36:52.000,120.267,38.926,13692.000467
2 Jan 2000 07:37:02.000,120.474,38.810,13699.713126
2 Jan 2000 07:37:12.000,120.681,38.694,13707.463522
2 Jan 2000 07:37:22.000,120.887,38.577,13715.251578
2 Jan 2000 07:37:32.000,121.091,38.460,13723.077214
2 Jan 2000 07:37:42.000,121.295,38.343,13730.940352
2 Jan 2000 07:37:52.000,121.499,38.226,13738.840912
2 Jan 2000 07:38:02.000,121.701,38.108,13746.778813
2 Jan 2000 07:38:12.000,121.903,37.990,13754.753975
2 Jan 2000 07:38:22.000,122.104,37.872,13762.766318
2 Jan 2000 07:38:32.000,122.304,37.754,13770.815760
2 Jan 2000 07:38:42.000,122.503,37.635,13778.902219
2 Jan 2000 07:38:52.000,122.702,37.516,13787.025613
2 Jan 2000 07:39:02.000,122.900,37.397,13795.185859
2 Jan 2000 07:39:12.000,123.097,37.277,13803.382875
2 Jan 2000 07:39:22.000,123.293,37.157,13811.616577
2 Jan 2000 07:39:32.000,123.489,37.037,13819.886880
2 Jan 2000 07:39:42.000,123.684,36.917,13828.193702
2 Jan 2000 07:39:52.000,123.878,36.796,13836.536958
2 Jan 2000 07:40:02.000,124.071,36.676,13844.916561
2 Jan 2000 07:40:12.000,124.264,36.555,13853.332428
2 Jan 2000 07:40:22.000,124.455,36.433,13861.784471
2 Jan 2000 07:40:32.000,124.646,36.312,13870.272606
2 Jan 2000 07:40:42.000,124.837,36.190,13878.796745
2 Jan 2000 07:40:52.000,125.026,36.068,13887.356802
2 Jan 2000 07:41:02.000,125.215,35.946,13895.952689
2 Jan 2000 07:41:12.000,125.404,35.824,13904.584319
2 Jan 2000 07:41:22.000,125.591,35.701,13913.251604
2 Jan 2000 07:41:32.000,125.778,35.578,13921.954454
2 Jan 2000 07:41:42.000,125.964,35.455,13930.692782
2 Jan 2000 07:41:52.000,126.149,35.332,13939.466499
2 Jan 2000 07:42:02.000,126.334,35.209,13948.275514
2 Jan 2000 07:42:12.000,126.518,35.085,13957.119739
2 Jan 2000 07:42:18.803,126.642,35.001,13963.156509

Interval Statistics
"Min Elevation",2 Jan 2000 07:42:18.803,126.642,35.001,13963.156509
"Max Elevation",2 Jan 2000 07:05:57.912,67.655,51.426,12971.072296
"Mean Elevation",,,46.704,
"Min Range",2 Jan 2000 07:06:10.187,68.066,51.425,12971.040597
"Max Range",2 Jan 2000 07:42:18.803,126.642,35.001,13963.156509
"Mean Range",,,,13235.082039

"Time (UTCG)","Azimuth (deg)","Elevation (deg)","Range (km)"
2 Jan 2000 13:46:34.807,316.395,40.234,13621.037267
2 Jan 2000 13:46:44.000,316.162,40.198,13623.369106
2 Jan 2000 13:46:54.000,315.910,40.158,13625.964614
2 Jan 2000 13:47:04.000,315.658,40.117,13628.621642
2 Jan 2000 13:47:14.000,315.406,40.075,13631.340128
2 Jan 2000 13:47:24.000,315.155,40.032,13634.120004
2 Jan 2000 13:47:34.000,314.904,39.988,13636.961204
2 Jan 2000 13:47:44.000,314.653,39.943,13639.863659
2 Jan 2000 13:47:54.000,314.404,39.897,13642.827300
2 Jan 2000 13:48:04.000,314.154,39.851,13645.852055
2 Jan 2000 13:48:14.000,313.906,39.803,13648.937853
2 Jan 2000 13:48:24.000,313.657,39.755,13652.084619
2 Jan 2000 13:48:34.000,313.409,39.706,13655.292280
2 Jan 2000 13:48:44.000,313.162,39.656,13658.560758
2 Jan 2000 13:48:54.000,312.916,39.605,13661.889976
2 Jan 2000 13:49:04.000,312.669,39.553,13665.279856
2 Jan 2000 13:49:14.000,312.424,39.500,13668.730317
2 Jan 2000 13:49:24.000,312.179,39.447,13672.241279
2 Jan 2000 13:49:34.000,311.934,39.392,13675.812658
2 Jan 2000 13:49:44.000,311.691,39.337,13679.444372
2 Jan 2000 13:49:54.000,311.447,39.281,13683.136335
2 Jan 2000 13:50:04.000,311.205,39.224,13686.888461
2 Jan 2000 13:50:14.000,310.963,39.167,13690.700662
2 Jan 2000 13:50:24.000,310.721,39.108,13694.572850
2 Jan 2000 13:50:34.000,310.481,39.049,13698.504935
2 Jan 2000 13:50:44.000,310.240,38.988,13702.496825
2 Jan 2000 13:50:54.000,310.001,38.927,13706.548430
2 Jan 2000 13:51:04.000,309.762,38.865,13710.659653
2 Jan 2000 13:51:14.000,309.524,38.803,13714.830402
2 Jan 2000 13:51:24.000,309.286,38.739,13719.060581
2 Jan 2000 13:51:34.000,309.049,38.675,13723.350091
2 Jan 2000 13:51:44.000,308.813,38.610,13727.698835
2 Jan 2000 13:51:54.000,308.577,38.544,13732.106714
2 Jan 2000 13:52:04.000,308.342,38.477,13736.573626
2 Jan 2000 13:52:14.000,308.108,38.410,13741.099471
2 Jan 2000 13:52:24.000,307.874,38.342,13745.684144
2 Jan 2000 13:52:34.000,307.641,38.273,13750.327543
2 Jan 2000 13:52:44.000,307.409,38.203,13755.029561
2 Jan 2000 13:52:54.000,307.178,38.132,13759.790093
2 Jan 2000 13:53:04.000,306.947,38.061,13764.609030
2 Jan 2000 13:53:14.000,306.717,37.989,13769.486265
2 Jan 2000 13:53:24.000,306.487,37.916,13774.421688
2 Jan 2000 13:53:34.000,306.259,37.842,13779.415187
2 Jan 2000 13:53:44.000,306.031,37.768,13784.466652
2 Jan 2000 13:53:54.000,305.803,37.693,13789.575968
2 Jan 2000 13:54:04.000,305.577,37.617,13794.743022
2 Jan 2000 13:54:14.000,305.351,37.541,13799.967699
2 Jan 2000 13:54:24.000,305.126,37.464,13805.249883
2 Jan 2000 13:54:34.000,304.902,37.386,13810.589456
2 Jan 2000 13:54:44.000,304.678,37.307,13815.986299
2 Jan 2000 13:54:54.000,304.455,37.228,13821.440294
2 Jan 2000 13:55:04.000,304.233,37.148,13826.951320
2 Jan 2000 13:55:14.000,304.012,37.067,13832.519256
2 Jan 2000 13:55:24.000,303.791,36.986,13838.143979
2 Jan 2000 13:55:34.000,303.572,36.903,13843.825366
2 Jan 2000 13:55:44.000,303.353,36.821,13849.563291
2 Jan 2000 13:55:54.000,303.134,36.737,13855.357631
2 Jan 2000 13:56:04.000,302.917,36.653,13861.208257
2 Jan 2000 13:56:14.000,302.700,36.568,13867.115043
2 Jan 2000 13:56:24.000,302.484,36.483,13873.077861
2 Jan 2000 13:56:34.000,302.269,36.397,13879.096580
2 Jan 2000 13:56:44.000,302.055,36.310,13885.171070
2 Jan 2000 13:56:54.000,301.841,36.222,13891.301200
2 Jan 2000 13:57:04.000,301.628,36.134,13897.486838
2 Jan 2000 13:57:14.000,301.416,36.046,13903.727850
2 Jan 2000 13:57:24.000,301.205,35.956,13910.024103
2 Jan 2000 13:57:34.000,300.994,35.866,13916.375461
2 Jan 2000 13:57:44.000,300.785,35.776,13922.781788
2 Jan 2000 13:57:54.000,300.576,35.685,13929.242947
2 Jan 2000 13:58:04.000,300.367,35.593,13935.758800
2 Jan 2000 13:58:14.000,300.160,35.500,13942.329209
2 Jan 2000 13:58:24.000,299.954,35.407,13948.954035
2 Jan 2000 13:58:34.000,299.748,35.314,13955.633135
2 Jan 2000 13:58:44.000,299.543,35.219,13962.366370
2 Jan 2000 13:58:54.000,299.339,35.125,13969.153597
2 Jan 2000 13:59:04.000,299.135,35.029,13975.994673
2 Jan 2000 13:59:07.029,299.074,35.000,13978.077227

Interval Statistics
"Min Elevation",2 Jan 2000 13:59:07.029,299.074,35.000,13978.077227
"Max Elevation",2 Jan 2000 13:46:34.807,316.395,40.234,13621.037267
"Mean Elevation",,,37.946,
"Min Range",2 Jan 2000 13:46:34.807,316.395,40.234,13621.037267
"Max Range",2 Jan 2000 13:59:07.029,299.074,35.000,13978.077227
"Mean Range",,,,13774.136084

"Time (UTCG)","Azimuth (deg)","Elevation (deg)","Range (km)"
2 Jan 2000 19:29:03.667,59.926,56.984,12713.939410
2 Jan 2000 19:29:13.000,59.565,57.007,12712.962320
2 Jan 2000 19:29:23.000,59.177,57.032,12711.979916
2 Jan 2000 19:29:33.000,58.788,57.054,12711.064217
2 Jan 2000 19:29:43.000,58.399,57.075,12710.215246
2 Jan 2000 19:29:53.000,58.010,57.095,12709.433024
2 Jan 2000 19:30:03.000,57.620,57.112,12708.717570
2 Jan 2000 19:30:13.000,57.229,57.129,12708.068903
2 Jan 2000 19:30:23.000,56.839,57.143,12707.487038
2 Jan 2000 19:30:33.000,56.447,57.157,12706.971991
2 Jan 2000 19:30:43.000,56.056,57.168,12706.523774
2 Jan 2000 19:30:53.000,55.664,57.178,12706.142400
2 Jan 2000 19:31:03.000,55.273,57.187,12705.827878
2 Jan 2000 19:31:13.000,54.881,57.194,12705.580216
2 Jan 2000 19:31:23.000,54.488,57.199,12705.399421
2 Jan 2000 19:31:33.000,54.096,57.203,12705.285498
2 Jan 2000 19:31:43.000,53.704,57.205,12705.238451
2 Jan 2000 19:31:53.000,53.312,57.206,12705.258281
2 Jan 2000 19:32:03.000,52.920,57.205,12705.344988
2 Jan 2000 19:32:13.000,52.528,57.202,12705.498572
2 Jan 2000 19:32:23.000,52.136,57.198,12705.719030
2 Jan 2000 19:32:33.000,51.744,57.192,12706.006355
2 Jan 2000 19:32:43.000,51.352,57.185,12706.360544
2 Jan 2000 19:32:53.000,50.961,57.176,12706.781587
2 Jan 2000 19:33:03.000,50.570,57.165,12707.269475
2 Jan 2000 19:33:13.000,50.179,57.153,12707.824197
2 Jan 2000 19:33:23.000,49.789,57.140,12708.445741
2 Jan 2000 19:33:33.000,49.399,57.125,12709.134093
2 Jan 2000 19:33:43.000,49.009,57.108,12709.889235
2 Jan 2000 19:33:53.000,48.620,57.090,12710.711152
2 Jan 2000 19:34:03.000,48.232,57.070,12711.599824
2 Jan 2000 19:34:13.000,47.844,57.048,12712.555229
2 Jan 2000 19:34:23.000,47.456,57.025,12713.577347
2 Jan 2000 19:34:33.000,47.070,57.001,12714.666153
2 Jan 2000 19:34:43.000,46.684,56.975,12715.821622
2 Jan 2000 19:34:53.000,46.299,56.947,12717.043727
2 Jan 2000 19:35:03.000,45.914,56.918,12718.332438
2 Jan 2000 19:35:13.000,45.531,56.887,12719.687727
2 Jan 2000 19:35:23.000,45.148,56.855,12721.109560
2 Jan 2000 19:35:33.000,44.766,56.821,12722.597905
2 Jan 2000 19:35:43.000,44.385,56.786,12724.152727
2 Jan 2000 19:35:53.000,44.005,56.749,12725.773989
2 Jan 2000 19:36:03.000,43.625,56.711,12727.461653
2 Jan 2000 19:36:13.000,43.247,56.671,12729.215679
2 Jan 2000 19:36:23.000,42.870,56.630,12731.036027
2 Jan 2000 19:36:33.000,42.494,56.588,12732.922653
2 Jan 2000 19:36:43.000,42.119,56.543,12734.875513
2 Jan 2000 19:36:53.000,41.745,56.498,12736.894561
2 Jan 2000 19:37:03.000,41.373,56.451,12738.979749
2 Jan 2000 19:37:13.000,41.002,56.402,12741.131029
2 Jan 2000 19:37:23.000,40.631,56.352,12743.348350
2 Jan 2000 19:37:33.000,40.262,56.301,12745.631660
2 Jan 2000 19:37:43.000,39.895,56.248,12747.980906
2 Jan 2000 19:37:53.000,39.529,56.193,12750.396031
2 Jan 2000 19:38:03.000,39.164,56.138,12752.876980
2 Jan 2000 19:38:13.000,38.800,56.080,12755.423694
2 Jan 2000 19:38:23.000,38.438,56.022,12758.036113
2 Jan 2000 19:38:33.000,38.077,55.962,12760.714177
2 Jan 2000 19:38:43.000,37.718,55.901,12763.457822
2 Jan 2000 19:38:53.000,37.360,55.838,12766.266984
2 Jan 2000 19:39:03.000,37.004,55.774,12769.141598
2 Jan 2000 19:39:13.000,36.649,55.709,12772.081596
2 Jan 2000 19:39:23.000,36.296,55.642,12775.086909
2 Jan 2000 19:39:33.000,35.944,55.574,12778.157468
2 Jan 2000 19:39:43.000,35.594,55.505,12781.293200
2 Jan 2000 19:39:53.000,35.246,55.434,12784.494033
2 Jan 2000 19:40:03.000,34.899,55.362,12787.759892
2 Jan 2000 19:40:13.000,34.554,55.289,12791.090700
2 Jan 2000 19:40:23.000,34.210,55.214,12794.486381
2 Jan 2000 19:40:33.000,33.868,55.138,12797.946855
2 Jan 2000 19:40:43.000,33.528,55.061,12801.472042
2 Jan 2000 19:40:53.000,33.190,54.983,12805.061860
2 Jan 2000 19:41:03.000,32.853,54.903,12808.716225
2 Jan 2000 19:41:13.000,32.518,54.822,12812.435054
2 Jan 2000 19:41:23.000,32.185,54.740,12816.218260
2 Jan 2000 19:41:33.000,31.854,54.657,12820.065755
2 Jan 2000 19:41:43.000,31.524,54.573,12823.977451
2 Jan 2000 19:41:53.000,31.196,54.487,12827.953258
2 Jan 2000 19:42:03.000,30.870,54.400,12831.993083
2 Jan 2000 19:42:13.000,30.546,54.312,12836.096834
2 Jan 2000 19:42:23.000,30.224,54.223,12840.264416
2 Jan 2000 19:42:33.000,29.903,54.133,12844.495733
2 Jan 2000 19:42:43.000,29.584,54.041,12848.790689
2 Jan 2000 19:42:53.000,29.268,53.949,12853.149184
2 Jan 2000 19:43:03.000,28.953,53.855,12857.571120
2 Jan 2000 19:43:13.000,28.639,53.761,12862.056394
2 Jan 2000 19:43:23.000,28.328,53.665,12866.604905
2 Jan 2000 19:43:33.000,28.019,53.568,12871.216548
2 Jan 2000 19:43:43.000,27.711,53.470,12875.891219
2 Jan 2000 19:43:53.000,27.406,53.371,12880.628811
2 Jan 2000 19:44:03.000,27.102,53.271,12885.429216
2 Jan 2000 19:44:13.000,26.801,53.170,12890.292325
2 Jan 2000 19:44:23.000,26.501,53.067,12895.218028
2 Jan 2000 19:44:33.000,26.203,52.964,12900.206214
2 Jan 2000 19:44:43.000,25.907,52.860,12905.256770
2 Jan 2000 19:44:53.000,25.613,52.755,12910.369581
2 Jan 2000 19:45:03.000,25.321,52.649,12915.544533
2 Jan 2000 19:45:13.000,25.030,52.542,12920.781509
2 Jan 2000 19:45:23.000,24.742,52.434,12926.080390
2 Jan 2000 19:45:33.000,24.456,52.325,12931.441059
2 Jan 2000 19:45:43.000,24.171,52.215,12936.863395
2 Jan 2000 19:45:53.000,23.888,52.104,12942.347276
2 Jan 2000 19:46:03.000,23.608,51.992,12947.892580
2 Jan 2000 19:46:13.000,23.329,51.880,12953.499183
2 Jan 2000 19:46:23.000,23.052,51.766,12959.166961
2 Jan 2000 19:46:33.000,22.777,51.652,12964.895786
2 Jan 2000 19:46:43.000,22.504,51.537,12970.685533
2 Jan 2000 19:46:53.000,22.233,51.420,12976.536072
2 Jan 2000 19:47:03.000,21.964,51.303,12982.447274
2 Jan 2000 19:47:13.000,21.697,51.186,12988.419008
2 Jan 2000 19:47:23.000,21.431,51.067,12994.451143
2 Jan 2000 19:47:33.000,21.168,50.948,13000.543545
2 Jan 2000 19:47:43.000,20.906,50.827,13006.696081
2 Jan 2000 19:47:53.000,20.646,50.706,13012.908615
2 Jan 2000 19:48:03.000,20.388,50.584,13019.181011
2 Jan 2000 19:48:13.000,20.132,50.462,13025.513133
2 Jan 2000 19:48:23.000,19.878,50.338,13031.904841
2 Jan 2000 19:48:33.000,19.626,50.214,13038.355996
2 Jan 2000 19:48:43.000,19.376,50.089,13044.866459
2 Jan 2000 19:48:53.000,19.127,49.964,13051.436086
2 Jan 2000 19:49:03.000,18.880,49.837,13058.064737
2 Jan 2000 19:49:13.000,18.635,49.710,13064.752267
2 Jan 2000 19:49:23.000,18.392,49.583,13071.498532
2 Jan 2000 19:49:33.000,18.151,49.454,13078.303387
2 Jan 2000 19:49:43.000,17.911,49.325,13085.166684
2 Jan 2000 19:49:53.000,17.674,49.195,13092.088277
2 Jan 2000 19:50:03.000,17.438,49.065,13099.068017
2 Jan 2000 19:50:13.000,17.204,48.934,13106.105755
2 Jan 2000 19:50:23.000,16.972,48.802,13113.201340
2 Jan 2000 19:50:33.000,16.741,48.669,13120.354621
2 Jan 2000 19:50:43.000,16.512,48.536,13127.565446
2 Jan 2000 19:50:53.000,16.285,48.403,13134.833662
2 Jan 2000 19:51:03.000,16.060,48.268,13142.159114
2 Jan 2000 19:51:13.000,15.836,48.133,13149.541648
2 Jan 2000 19:51:23.000,15.615,47.998,13156.981108
2 Jan 2000 19:51:33.000,15.395,47.862,13164.477337
2 Jan 2000 19:51:43.000,15.176,47.725,13172.030178
2 Jan 2000 19:51:53.000,14.960,47.588,13179.639472
2 Jan 2000 19:52:03.000,14.745,47.450,13187.305060
2 Jan 2000 19:52:13.000,14.531,47.312,13195.026782
2 Jan 2000 19:52:23.000,14.320,47.173,13202.804477
2 Jan 2000 19:52:33.000,14.110,47.034,13210.637982
2 Jan 2000 19:52:43.000,13.901,46.894,13218.527137
2 Jan 2000 19:52:53.000,13.695,46.753,13226.471776
2 Jan 2000 19:53:03.000,13.490,46.612,13234.471736
2 Jan 2000 19:53:13.000,13.286,46.471,13242.526852
2 Jan 2000 19:53:23.000,13.084,46.329,13250.636959
2 Jan 2000 19:53:33.000,12.884,46.187,13258.801889
2 Jan 2000 19:53:43.000,12.686,46.044,13267.021476
2 Jan 2000 19:53:53.000,12.488,45.900,13275.295551
2 Jan 2000 19:54:03.000,12.293,45.757,13283.623947
2 Jan 2000 19:54:13.000,12.099,45.612,13292.006492
2 Jan 2000 19:54:23.000,11.907,45.468,13300.443018
2 Jan 2000 19:54:33.000,11.716,45.322,13308.933354
2 Jan 2000 19:54:43.000,11.527,45.177,13317.477327
2 Jan 2000 19:54:53.000,11.339,45.031,13326.074766
2 Jan 2000 19:55:03.000,11.153,44.884,13334.725498
2 Jan 2000 19:55:13.000,10.968,44.737,13343.429350
2 Jan 2000 19:55:23.000,10.785,44.590,13352.186146
2 Jan 2000 19:55:33.000,10.603,44.443,13360.995712
2 Jan 2000 19:55:43.000,10.422,44.295,13369.857874
2 Jan 2000 19:55:53.000,10.244,44.146,13378.772454
2 Jan 2000 19:56:03.000,10.066,43.997,13387.739275
2 Jan 2000 19:56:13.000,9.890,43.848,13396.758162
2 Jan 2000 19:56:23.000,9.716,43.699,13405.828935
2 Jan 2000 19:56:33.000,9.543,43.549,13414.951417
2 Jan 2000 19:56:43.000,9.371,43.399,13424.125427
2 Jan 2000 19:56:53.000,9.200,43.248,13433.350788
2 Jan 2000 19:57:03.000,9.031,43.097,13442.627317
2 Jan 2000 19:57:13.000,8.864,42.946,13451.954835
2 Jan 2000 19:57:23.000,8.698,42.794,13461.333161
2 Jan 2000 19:57:33.000,8.533,42.642,13470.762112
2 Jan 2000 19:57:43.000,8.369,42.490,13480.241506
2 Jan 2000 19:57:53.000,8.207,42.338,13489.771160
2 Jan 2000 19:58:03.000,8.046,42.185,13499.350892
2 Jan 2000 19:58:13.000,7.887,42.032,13508.980517
2 Jan 2000 19:58:23.000,7.729,41.878,13518.659851
2 Jan 2000 19:58:33.000,7.572,41.725,13528.388709
2 Jan 2000 19:58:43.000,7.416,41.571,13538.166906
2 Jan 2000 19:58:53.000,7.262,41.417,13547.994256
2 Jan 2000 19:59:03.000,7.108,41.262,13557.870574
2 Jan 2000 19:59:13.000,6.957,41.107,13567.795672
2 Jan 2000 19:59:23.000,6.806,40.952,13577.769364
2 Jan 2000 19:59:33.000,6.657,40.797,13587.791462
2 Jan 2000 19:59:43.000,6.509,40.642,13597.861778
2 Jan 2000 19:59:53.000,6.362,40.486,13607.980125
2 Jan 2000 20:00:03.000,6.216,40.330,13618.146313
2 Jan 2000 20:00:13.000,6.071,40.174,13628.360154
2 Jan 2000 20:00:23.000,5.928,40.017,13638.621458
2 Jan 2000 20:00:33.000,5.786,39.861,13648.930036
2 Jan 2000 20:00:43.000,5.645,39.704,13659.285697
2 Jan 2000 20:00:53.000,5.505,39.547,13669.688252
2 Jan 2000 20:01:03.000,5.366,39.390,13680.137509
2 Jan 2000 20:01:13.000,5.229,39.232,13690.633277
2 Jan 2000 20:01:23.000,5.093,39.075,13701.175365
2 Jan 2000 20:01:33.000,4.957,38.917,13711.763582
2 Jan 2000 20:01:43.000,4.823,38.759,13722.397734
2 Jan 2000 20:01:53.000,4.690,38.601,13733.077631
2 Jan 2000 20:02:03.000,4.558,38.442,13743.803079
2 Jan 2000 20:02:13.000,4.427,38.284,13754.573885
2 Jan 2000 20:02:23.000,4.298,38.125,13765.389857
2 Jan 2000 20:02:33.000,4.169,37.966,13776.250801
2 Jan 2000 20:02:43.000,4.041,37.807,13787.156523
2 Jan 2000 20:02:53.000,3.915,37.648,13798.106830
2 Jan 2000 20:03:03.000,3.789,37.488,13809.101527
2 Jan 2000 20:03:13.000,3.665,37.329,13820.140420
2 Jan 2000 20:03:23.000,3.541,37.169,13831.223314
2 Jan 2000 20:03:33.000,3.419,37.009,13842.350015
2 Jan 2000 20:03:43.000,3.297,36.849,13853.520328
2 Jan 2000 20:03:53.000,3.177,36.689,13864.734057
2 Jan 2000 20:04:03.000,3.058,36.529,13875.991007
2 Jan 2000 20:04:13.000,2.939,36.369,13887.290983
2 Jan 2000 20:04:23.000,2.822,36.208,13898.633789
2 Jan 2000 20:04:33.000,2.705,36.048,13910.019228
2 Jan 2000 20:04:43.000,2.590,35.887,13921.447106
2 Jan 2000 20:04:53.000,2.475,35.726,13932.917225
2 Jan 2000 20:05:03.000,2.362,35.566,13944.429390
2 Jan 2000 20:05:13.000,2.249,35.405,13955.983403
2 Jan 2000 20:05:23.000,2.137,35.243,13967.579069
2 Jan 2000 20:05:33.000,2.027,35.082,13979.216190
2 Jan 2000 20:05:38.053,1.971,35.001,13985.112046

Interval Statistics
"Min Elevation",2 Jan 2000 20:05:38.053,1.971,35.001,13985.112046
"Max Elevation",2 Jan 2000 19:31:51.668,53.364,57.206,12705.251778
"Mean Elevation",,,49.362,
"Min Range",2 Jan 2000 19:31:45.035,53.624,57.205,12705.237066
"Max Range",2 Jan 2000 20:05:38.053,1.971,35.001,13985.112046
"Mean Range",,,,13115.715846

"Time (UTCG)","Azimuth (deg)","Elevation (deg)","Range (km)"
3 Jan 2000 10:17:22.094,353.406,56.707,12729.840261
3 Jan 2000 10:17:32.000,353.283,56.901,12721.481396
3 Jan 2000 10:17:42.000,353.157,57.097,12713.095604
3 Jan 2000 10:17:52.000,353.029,57.292,12704.762931
3 Jan 2000 10:18:02.000,352.898,57.488,12696.483554
3 Jan 2000 10:18:12.000,352.766,57.683,12688.257652
3 Jan 2000 10:18:22.000,352.631,57.878,12680.085401
3 Jan 2000 10:18:32.000,352.495,58.074,12671.966978
3 Jan 2000 10:18:42.000,352.356,58.269,12663.902558
3 Jan 2000 10:18:52.000,352.215,58.464,12655.892317
3 Jan 2000 10:19:02.000,352.071,58.659,12647.936430
3 Jan 2000 10:19:12.000,351.926,58.854,12640.035069
3 Jan 2000 10:19:22.000,351.778,59.049,12632.188407
3 Jan 2000 10:19:32.000,351.627,59.243,12624.396618
3 Jan 2000 10:19:42.000,351.474,59.438,12616.659873
3 Jan 2000 10:19:52.000,351.319,59.632,12608.978341
3 Jan 2000 10:20:02.000,351.161,59.826,12601.352194
3 Jan 2000 10:20:12.000,351.000,60.021,12593.781601
3 Jan 2000 10:20:22.000,350.837,60.214,12586.266730
3 Jan 2000 10:20:32.000,350.671,60.408,12578.807748
3 Jan 2000 10:20:42.000,350.502,60.602,12571.404824
3 Jan 2000 10:20:52.000,350.331,60.795,12564.058122
3 Jan 2000 10:21:02.000,350.157,60.989,12556.767808
3 Jan 2000 10:21:12.000,349.980,61.182,12549.534047
3 Jan 2000 10:21:22.000,349.800,61.375,12542.357002
3 Jan 2000 10:21:32.000,349.616,61.567,12535.236836
3 Jan 2000 10:21:42.000,349.430,61.760,12528.173711
3 Jan 2000 10:21:52.000,349.241,61.952,12521.167788
3 Jan 2000 10:22:02.000,349.048,62.144,12514.219227
3 Jan 2000 10:22:12.000,348.853,62.335,12507.328187
3 Jan 2000 10:22:22.000,348.654,62.527,12500.494827
3 Jan 2000 10:22:32.000,348.451,62.718,12493.719305
3 Jan 2000 10:22:42.000,348.245,62.909,12487.001776
3 Jan 2000 10:22:52.000,348.036,63.100,12480.342396
3 Jan 2000 10:23:02.000,347.823,63.290,12473.741321
3 Jan 2000 10:23:12.000,347.607,63.480,12467.198703
3 Jan 2000 10:23:22.000,347.386,63.669,12460.714696
3 Jan 2000 10:23:32.000,347.162,63.859,12454.289451
3 Jan 2000 10:23:42.000,346.934,64.048,12447.923119
3 Jan 2000 10:23:52.000,346.703,64.236,12441.615849
3 Jan 2000 10:24:02.000,346.467,64.424,12435.367792
3 Jan 2000 10:24:12.000,346.227,64.612,12429.179094
3 Jan 2000 10:24:22.000,345.983,64.799,12423.049901
3 Jan 2000 10:24:32.000,345.734,64.986,12416.980361
3 Jan 2000 10:24:42.000,345.482,65.173,12410.970617
3 Jan 2000 10:24:52.000,345.224,65.359,12405.020814
3 Jan 2000 10:25:02.000,344.963,65.544,12399.131092
3 Jan 2000 10:25:12.000,344.696,65.729,12393.301595
3 Jan 2000 10:25:22.000,344.425,65.914,12387.532463
3 Jan 2000 10:25:32.000,344.149,66.098,12381.823834
3 Jan 2000 10:25:42.000,343.869,66.281,12376.175847
3 Jan 2000 10:25:52.000,343.583,66.464,12370.588639
3 Jan 2000 10:26:02.000,343.292,66.647,12365.062346
3 Jan 2000 10:26:12.000,342.996,66.828,12359.597102
3 Jan 2000 10:26:22.000,342.695,67.010,12354.193042
3 Jan 2000 10:26:32.000,342.388,67.190,12348.850297
3 Jan 2000 10:26:42.000,342.076,67.370,12343.569000
3 Jan 2000 10:26:52.000,341.758,67.549,12338.349280
3 Jan 2000 10:27:02.000,341.434,67.728,12333.191265
3 Jan 2000 10:27:12.000,341.105,67.905,12328.095085
3 Jan 2000 10:27:22.000,340.769,68.082,12323.060865
3 Jan 2000 10:27:32.000,340.428,68.259,12318.088731
3 Jan 2000 10:27:42.000,340.080,68.434,12313.178807
3 Jan 2000 10:27:52.000,339.725,68.609,12308.331216
3 Jan 2000 10:28:02.000,339.365,68.782,12303.546079
3 Jan 2000 10:28:12.000,338.998,68.955,12298.823516
3 Jan 2000 10:28:22.000,338.624,69.127,12294.163648
3 Jan 2000 10:28:32.000,338.243,69.299,12289.566591
3 Jan 2000 10:28:42.000,337.855,69.469,12285.032463
3 Jan 2000 10:28:52.000,337.460,69.638,12280.561378
3 Jan 2000 10:29:02.000,337.058,69.806,12276.153451
3 Jan 2000 10:29:12.000,336.648,69.973,12271.808794
3 Jan 2000 10:29:22.000,336.231,70.139,12267.527518
3 Jan 2000 10:29:32.000,335.806,70.304,12263.309735
3 Jan 2000 10:29:42.000,335.373,70.468,12259.155551
3 Jan 2000 10:29:52.000,334.933,70.631,12255.065076
3 Jan 2000 10:30:02.000,334.484,70.792,12251.038414
3 Jan 2000 10:30:12.000,334.027,70.952,12247.075670
3 Jan 2000 10:30:22.000,333.562,71.111,12243.176948
3 Jan 2000 10:30:32.000,333.088,71.269,12239.342350
3 Jan 2000 10:30:42.000,332.605,71.425,12235.571976
3 Jan 2000 10:30:52.000,332.114,71.580,12231.865925
3 Jan 2000 10:31:02.000,331.614,71.733,12228.224295
3 Jan 2000 10:31:12.000,331.104,71.885,12224.647183
3 Jan 2000 10:31:22.000,330.585,72.036,12221.134683
3 Jan 2000 10:31:32.000,330.057,72.184,12217.686888
3 Jan 2000 10:31:42.000,329.520,72.332,12214.303892
3 Jan 2000 10:31:52.000,328.973,72.477,12210.985784
3 Jan 2000 10:32:02.000,328.416,72.621,12207.732654
3 Jan 2000 10:32:12.000,327.849,72.763,12204.544590
3 Jan 2000 10:32:22.000,327.272,72.904,12201.421677
3 Jan 2000 10:32:32.000,326.685,73.042,12198.364001
3 Jan 2000 10:32:42.000,326.087,73.179,12195.371645
3 Jan 2000 10:32:52.000,325.480,73.313,12192.444691
3 Jan 2000 10:33:02.000,324.862,73.446,12189.583219
3 Jan 2000 10:33:12.000,324.233,73.577,12186.787309
3 Jan 2000 10:33:22.000,323.594,73.705,12184.057037
3 Jan 2000 10:33:32.000,322.944,73.832,12181.392479
3 Jan 2000 10:33:42.000,322.283,73.956,12178.793711
3 Jan 2000 10:33:52.000,321.611,74.078,12176.260804
3 Jan 2000 10:34:02.000,320.929,74.197,12173.793831
3 Jan 2000 10:34:12.000,320.235,74.314,12171.392860
3 Jan 2000 10:34:22.000,319.531,74.429,12169.057961
3 Jan 2000 10:34:32.000,318.816,74.541,12166.789199
3 Jan 2000 10:34:42.000,318.090,74.651,12164.586641
3 Jan 2000 10:34:52.000,317.353,74.758,12162.450350
3 Jan 2000 10:35:02.000,316.605,74.862,12160.380387
3 Jan 2000 10:35:12.000,315.846,74.964,12158.376815
3 Jan 2000 10:35:22.000,315.076,75.063,12156.439690
3 Jan 2000 10:35:32.000,314.296,75.159,12154.569072
3 Jan 2000 10:35:42.000,313.506,75.252,12152.765015
3 Jan 2000 10:35:52.000,312.705,75.342,12151.027574
3 Jan 2000 10:36:02.000,311.893,75.429,12149.356802
3 Jan 2000 10:36:12.000,311.072,75.513,12147.752749
3 Jan 2000 10:36:22.000,310.241,75.594,12146.215465
3 Jan 2000 10:36:32.000,309.400,75.671,12144.744999
3 Jan 2000 10:36:42.000,308.550,75.746,12143.341396
3 Jan 2000 10:36:52.000,307.690,75.817,12142.004700
3 Jan 2000 10:37:02.000,306.822,75.884,12140.734956
3 Jan 2000 10:37:12.000,305.945,75.949,12139.532204
3 Jan 2000 10:37:22.000,305.060,76.009,12138.396484
3 Jan 2000 10:37:32.000,304.167,76.067,12137.327834
3 Jan 2000 10:37:42.000,303.267,76.120,12136.326292
3 Jan 2000 10:37:52.000,302.359,76.170,12135.391891
3 Jan 2000 10:38:02.000,301.445,76.217,12134.524666
3 Jan 2000 10:38:12.000,300.524,76.260,12133.724648
3 Jan 2000 10:38:22.000,299.598,76.299,12132.991867
3 Jan 2000 10:38:32.000,298.666,76.334,12132.326351
3 Jan 2000 10:38:42.000,297.730,76.365,12131.728127
3 Jan 2000 10:38:52.000,296.789,76.393,12131.197220
3 Jan 2000 10:39:02.000,295.844,76.417,12130.733654
3 Jan 2000 10:39:12.000,294.896,76.437,12130.337451
3 Jan 2000 10:39:22.000,293.946,76.453,12130.008631
3 Jan 2000 10:39:32.000,292.993,76.465,12129.747212
