cemeouhf_ael/Place-CEMID-Sensor-Sensor1-To-Satellite-POLMEO26_AER.csv

"Time (UTCG)","Azimuth (deg)","Elevation (deg)","Range (km)"
1 Jan 2000 20:26:29.640,72.731,68.840,12298.686011
1 Jan 2000 20:26:39.000,72.166,68.873,12297.837469
1 Jan 2000 20:26:49.000,71.561,68.906,12296.996480
1 Jan 2000 20:26:59.000,70.954,68.936,12296.223265
1 Jan 2000 20:27:09.000,70.346,68.964,12295.517838
1 Jan 2000 20:27:19.000,69.736,68.990,12294.880210
1 Jan 2000 20:27:29.000,69.124,69.013,12294.310392
1 Jan 2000 20:27:39.000,68.511,69.034,12293.808391
1 Jan 2000 20:27:49.000,67.897,69.052,12293.374213
1 Jan 2000 20:27:59.000,67.282,69.067,12293.007865
1 Jan 2000 20:28:09.000,66.666,69.080,12292.709349
1 Jan 2000 20:28:19.000,66.050,69.091,12292.478666
1 Jan 2000 20:28:29.000,65.433,69.099,12292.315817
1 Jan 2000 20:28:39.000,64.816,69.104,12292.220799
1 Jan 2000 20:28:49.000,64.198,69.107,12292.193609
1 Jan 2000 20:28:59.000,63.581,69.107,12292.234243
1 Jan 2000 20:29:09.000,62.963,69.105,12292.342693
1 Jan 2000 20:29:19.000,62.346,69.100,12292.518950
1 Jan 2000 20:29:29.000,61.729,69.093,12292.763006
1 Jan 2000 20:29:39.000,61.113,69.083,12293.074847
1 Jan 2000 20:29:49.000,60.498,69.071,12293.454460
1 Jan 2000 20:29:59.000,59.883,69.056,12293.901831
1 Jan 2000 20:30:09.000,59.270,69.038,12294.416943
1 Jan 2000 20:30:19.000,58.658,69.019,12294.999776
1 Jan 2000 20:30:29.000,58.047,68.996,12295.650311
1 Jan 2000 20:30:39.000,57.438,68.971,12296.368526
1 Jan 2000 20:30:49.000,56.830,68.944,12297.154398
1 Jan 2000 20:30:59.000,56.224,68.914,12298.007902
1 Jan 2000 20:31:09.000,55.621,68.882,12298.929011
1 Jan 2000 20:31:19.000,55.019,68.847,12299.917696
1 Jan 2000 20:31:29.000,54.419,68.810,12300.973927
1 Jan 2000 20:31:39.000,53.822,68.770,12302.097674
1 Jan 2000 20:31:49.000,53.227,68.728,12303.288901
1 Jan 2000 20:31:59.000,52.635,68.684,12304.547576
1 Jan 2000 20:32:09.000,52.046,68.637,12305.873660
1 Jan 2000 20:32:19.000,51.459,68.588,12307.267116
1 Jan 2000 20:32:29.000,50.876,68.536,12308.727904
1 Jan 2000 20:32:39.000,50.295,68.482,12310.255982
1 Jan 2000 20:32:49.000,49.718,68.426,12311.851308
1 Jan 2000 20:32:59.000,49.144,68.368,12313.513836
1 Jan 2000 20:33:09.000,48.574,68.307,12315.243521
1 Jan 2000 20:33:19.000,48.007,68.244,12317.040314
1 Jan 2000 20:33:29.000,47.443,68.179,12318.904165
1 Jan 2000 20:33:39.000,46.884,68.112,12320.835024
1 Jan 2000 20:33:49.000,46.328,68.042,12322.832838
1 Jan 2000 20:33:59.000,45.775,67.971,12324.897553
1 Jan 2000 20:34:09.000,45.227,67.897,12327.029112
1 Jan 2000 20:34:19.000,44.683,67.821,12329.227458
1 Jan 2000 20:34:29.000,44.143,67.743,12331.492533
1 Jan 2000 20:34:39.000,43.607,67.663,12333.824274
1 Jan 2000 20:34:49.000,43.075,67.581,12336.222621
1 Jan 2000 20:34:59.000,42.548,67.497,12338.687509
1 Jan 2000 20:35:09.000,42.024,67.411,12341.218873
1 Jan 2000 20:35:19.000,41.505,67.323,12343.816645
1 Jan 2000 20:35:29.000,40.991,67.233,12346.480759
1 Jan 2000 20:35:39.000,40.481,67.141,12349.211143
1 Jan 2000 20:35:49.000,39.975,67.048,12352.007726
1 Jan 2000 20:35:59.000,39.474,66.952,12354.870435
1 Jan 2000 20:36:09.000,38.978,66.855,12357.799195
1 Jan 2000 20:36:19.000,38.486,66.756,12360.793930
1 Jan 2000 20:36:29.000,37.998,66.655,12363.854564
1 Jan 2000 20:36:39.000,37.515,66.552,12366.981015
1 Jan 2000 20:36:49.000,37.037,66.448,12370.173205
1 Jan 2000 20:36:59.000,36.563,66.341,12373.431050
1 Jan 2000 20:37:09.000,36.095,66.234,12376.754467
1 Jan 2000 20:37:19.000,35.630,66.124,12380.143372
1 Jan 2000 20:37:29.000,35.171,66.013,12383.597676
1 Jan 2000 20:37:39.000,34.716,65.901,12387.117294
1 Jan 2000 20:37:49.000,34.265,65.786,12390.702134
1 Jan 2000 20:37:59.000,33.820,65.671,12394.352107
1 Jan 2000 20:38:09.000,33.379,65.553,12398.067119
1 Jan 2000 20:38:19.000,32.942,65.435,12401.847077
1 Jan 2000 20:38:29.000,32.511,65.314,12405.691886
1 Jan 2000 20:38:39.000,32.084,65.193,12409.601449
1 Jan 2000 20:38:49.000,31.661,65.070,12413.575667
1 Jan 2000 20:38:59.000,31.243,64.945,12417.614443
1 Jan 2000 20:39:09.000,30.830,64.819,12421.717674
1 Jan 2000 20:39:19.000,30.421,64.692,12425.885258
1 Jan 2000 20:39:29.000,30.017,64.563,12430.117092
1 Jan 2000 20:39:39.000,29.617,64.434,12434.413071
1 Jan 2000 20:39:49.000,29.222,64.303,12438.773088
1 Jan 2000 20:39:59.000,28.831,64.170,12443.197036
1 Jan 2000 20:40:09.000,28.445,64.037,12447.684805
1 Jan 2000 20:40:19.000,28.063,63.902,12452.236286
1 Jan 2000 20:40:29.000,27.685,63.766,12456.851366
1 Jan 2000 20:40:39.000,27.312,63.629,12461.529932
1 Jan 2000 20:40:49.000,26.943,63.491,12466.271871
1 Jan 2000 20:40:59.000,26.578,63.351,12471.077066
1 Jan 2000 20:41:09.000,26.218,63.211,12475.945400
1 Jan 2000 20:41:19.000,25.862,63.069,12480.876755
1 Jan 2000 20:41:29.000,25.510,62.927,12485.871011
1 Jan 2000 20:41:39.000,25.162,62.783,12490.928049
1 Jan 2000 20:41:49.000,24.818,62.639,12496.047745
1 Jan 2000 20:41:59.000,24.479,62.493,12501.229976
1 Jan 2000 20:42:09.000,24.143,62.346,12506.474618
1 Jan 2000 20:42:19.000,23.811,62.199,12511.781545
1 Jan 2000 20:42:29.000,23.484,62.050,12517.150630
1 Jan 2000 20:42:39.000,23.160,61.901,12522.581745
1 Jan 2000 20:42:49.000,22.840,61.751,12528.074760
1 Jan 2000 20:42:59.000,22.524,61.600,12533.629545
1 Jan 2000 20:43:09.000,22.212,61.448,12539.245968
1 Jan 2000 20:43:19.000,21.903,61.295,12544.923896
1 Jan 2000 20:43:29.000,21.599,61.141,12550.663195
1 Jan 2000 20:43:39.000,21.298,60.987,12556.463729
1 Jan 2000 20:43:49.000,21.000,60.831,12562.325362
1 Jan 2000 20:43:59.000,20.706,60.675,12568.247957
1 Jan 2000 20:44:09.000,20.416,60.518,12574.231375
1 Jan 2000 20:44:19.000,20.129,60.361,12580.275475
1 Jan 2000 20:44:29.000,19.846,60.203,12586.380118
1 Jan 2000 20:44:39.000,19.566,60.044,12592.545161
1 Jan 2000 20:44:49.000,19.290,59.884,12598.770461
1 Jan 2000 20:44:59.000,19.017,59.724,12605.055874
1 Jan 2000 20:45:09.000,18.747,59.563,12611.401255
1 Jan 2000 20:45:19.000,18.481,59.401,12617.806457
1 Jan 2000 20:45:29.000,18.218,59.239,12624.271333
1 Jan 2000 20:45:39.000,17.958,59.076,12630.795734
1 Jan 2000 20:45:49.000,17.701,58.912,12637.379512
1 Jan 2000 20:45:59.000,17.448,58.748,12644.022516
1 Jan 2000 20:46:09.000,17.197,58.584,12650.724595
1 Jan 2000 20:46:19.000,16.950,58.418,12657.485595
1 Jan 2000 20:46:29.000,16.705,58.253,12664.305365
1 Jan 2000 20:46:39.000,16.464,58.086,12671.183748
1 Jan 2000 20:46:49.000,16.225,57.920,12678.120591
1 Jan 2000 20:46:59.000,15.990,57.752,12685.115737
1 Jan 2000 20:47:09.000,15.757,57.584,12692.169028
1 Jan 2000 20:47:19.000,15.527,57.416,12699.280307
1 Jan 2000 20:47:29.000,15.300,57.247,12706.449415
1 Jan 2000 20:47:39.000,15.076,57.078,12713.676191
1 Jan 2000 20:47:49.000,14.855,56.908,12720.960475
1 Jan 2000 20:47:59.000,14.636,56.738,12728.302105
1 Jan 2000 20:48:09.000,14.420,56.567,12735.700918
1 Jan 2000 20:48:19.000,14.206,56.396,12743.156751
1 Jan 2000 20:48:29.000,13.995,56.225,12750.669440
1 Jan 2000 20:48:39.000,13.787,56.053,12758.238819
1 Jan 2000 20:48:49.000,13.581,55.881,12765.864723
1 Jan 2000 20:48:59.000,13.378,55.708,12773.546984
1 Jan 2000 20:49:09.000,13.177,55.535,12781.285435
1 Jan 2000 20:49:19.000,12.979,55.362,12789.079908
1 Jan 2000 20:49:29.000,12.783,55.188,12796.930233
1 Jan 2000 20:49:39.000,12.589,55.014,12804.836241
1 Jan 2000 20:49:49.000,12.398,54.840,12812.797759
1 Jan 2000 20:49:59.000,12.209,54.665,12820.814618
1 Jan 2000 20:50:09.000,12.022,54.490,12828.886644
1 Jan 2000 20:50:19.000,11.838,54.315,12837.013665
1 Jan 2000 20:50:29.000,11.656,54.139,12845.195507
1 Jan 2000 20:50:39.000,11.476,53.963,12853.431994
1 Jan 2000 20:50:49.000,11.298,53.787,12861.722953
1 Jan 2000 20:50:59.000,11.123,53.611,12870.068208
1 Jan 2000 20:51:09.000,10.949,53.434,12878.467581
1 Jan 2000 20:51:19.000,10.778,53.257,12886.920895
1 Jan 2000 20:51:29.000,10.608,53.080,12895.427972
1 Jan 2000 20:51:39.000,10.441,52.902,12903.988635
1 Jan 2000 20:51:49.000,10.276,52.725,12912.602703
1 Jan 2000 20:51:59.000,10.112,52.547,12921.269997
1 Jan 2000 20:52:09.000,9.951,52.369,12929.990336
1 Jan 2000 20:52:19.000,9.792,52.190,12938.763539
1 Jan 2000 20:52:29.000,9.634,52.012,12947.589425
1 Jan 2000 20:52:39.000,9.479,51.833,12956.467811
1 Jan 2000 20:52:49.000,9.325,51.654,12965.398514
1 Jan 2000 20:52:59.000,9.173,51.475,12974.381351
1 Jan 2000 20:53:09.000,9.023,51.296,12983.416138
1 Jan 2000 20:53:19.000,8.875,51.116,12992.502690
1 Jan 2000 20:53:29.000,8.728,50.937,13001.640822
1 Jan 2000 20:53:39.000,8.583,50.757,13010.830349
1 Jan 2000 20:53:49.000,8.440,50.577,13020.071084
1 Jan 2000 20:53:59.000,8.299,50.397,13029.362840
1 Jan 2000 20:54:09.000,8.159,50.217,13038.705431
1 Jan 2000 20:54:19.000,8.021,50.036,13048.098669
1 Jan 2000 20:54:29.000,7.885,49.856,13057.542365
1 Jan 2000 20:54:39.000,7.750,49.675,13067.036331
1 Jan 2000 20:54:49.000,7.617,49.494,13076.580377
1 Jan 2000 20:54:59.000,7.485,49.314,13086.174315
1 Jan 2000 20:55:09.000,7.355,49.133,13095.817954
1 Jan 2000 20:55:19.000,7.227,48.952,13105.511104
1 Jan 2000 20:55:29.000,7.100,48.770,13115.253574
1 Jan 2000 20:55:39.000,6.975,48.589,13125.045172
1 Jan 2000 20:55:49.000,6.851,48.408,13134.885708
1 Jan 2000 20:55:59.000,6.728,48.227,13144.774988
1 Jan 2000 20:56:09.000,6.607,48.045,13154.712821
1 Jan 2000 20:56:19.000,6.488,47.863,13164.699013
1 Jan 2000 20:56:29.000,6.369,47.682,13174.733371
1 Jan 2000 20:56:39.000,6.253,47.500,13184.815702
1 Jan 2000 20:56:49.000,6.137,47.318,13194.945812
1 Jan 2000 20:56:59.000,6.023,47.137,13205.123507
1 Jan 2000 20:57:09.000,5.911,46.955,13215.348591
1 Jan 2000 20:57:19.000,5.799,46.773,13225.620870
1 Jan 2000 20:57:29.000,5.689,46.591,13235.940150
1 Jan 2000 20:57:39.000,5.580,46.409,13246.306233
1 Jan 2000 20:57:49.000,5.473,46.227,13256.718925
1 Jan 2000 20:57:59.000,5.367,46.045,13267.178029
1 Jan 2000 20:58:09.000,5.262,45.863,13277.683349
1 Jan 2000 20:58:19.000,5.158,45.681,13288.234689
1 Jan 2000 20:58:29.000,5.056,45.499,13298.831850
1 Jan 2000 20:58:39.000,4.954,45.316,13309.474637
1 Jan 2000 20:58:49.000,4.854,45.134,13320.162852
1 Jan 2000 20:58:59.000,4.755,44.952,13330.896297
1 Jan 2000 20:59:09.000,4.658,44.770,13341.674773
1 Jan 2000 20:59:19.000,4.561,44.588,13352.498085
1 Jan 2000 20:59:29.000,4.466,44.406,13363.366031
1 Jan 2000 20:59:39.000,4.371,44.223,13374.278416
1 Jan 2000 20:59:49.000,4.278,44.041,13385.235038
1 Jan 2000 20:59:59.000,4.186,43.859,13396.235701
1 Jan 2000 21:00:09.000,4.095,43.677,13407.280204
1 Jan 2000 21:00:19.000,4.005,43.495,13418.368349
1 Jan 2000 21:00:29.000,3.916,43.313,13429.499936
1 Jan 2000 21:00:39.000,3.828,43.131,13440.674766
1 Jan 2000 21:00:49.000,3.742,42.949,13451.892638
1 Jan 2000 21:00:59.000,3.656,42.767,13463.153354
1 Jan 2000 21:01:09.000,3.571,42.585,13474.456713
1 Jan 2000 21:01:19.000,3.487,42.403,13485.802515
1 Jan 2000 21:01:29.000,3.405,42.221,13497.190560
1 Jan 2000 21:01:39.000,3.323,42.039,13508.620648
1 Jan 2000 21:01:49.000,3.242,41.857,13520.092578
1 Jan 2000 21:01:59.000,3.162,41.675,13531.606150
1 Jan 2000 21:02:09.000,3.083,41.494,13543.161164
1 Jan 2000 21:02:19.000,3.005,41.312,13554.757419
1 Jan 2000 21:02:29.000,2.928,41.130,13566.394713
1 Jan 2000 21:02:39.000,2.852,40.949,13578.072847
1 Jan 2000 21:02:49.000,2.777,40.767,13589.791620
1 Jan 2000 21:02:59.000,2.703,40.586,13601.550831
1 Jan 2000 21:03:09.000,2.629,40.405,13613.350278
1 Jan 2000 21:03:19.000,2.557,40.223,13625.189762
1 Jan 2000 21:03:29.000,2.485,40.042,13637.069081
1 Jan 2000 21:03:39.000,2.414,39.861,13648.988034
1 Jan 2000 21:03:49.000,2.345,39.680,13660.946420
1 Jan 2000 21:03:59.000,2.275,39.499,13672.944039
1 Jan 2000 21:04:09.000,2.207,39.318,13684.980689
1 Jan 2000 21:04:19.000,2.140,39.137,13697.056170
1 Jan 2000 21:04:29.000,2.073,38.956,13709.170280
1 Jan 2000 21:04:39.000,2.007,38.775,13721.322819
1 Jan 2000 21:04:49.000,1.942,38.595,13733.513586
1 Jan 2000 21:04:59.000,1.878,38.414,13745.742380
1 Jan 2000 21:05:09.000,1.815,38.234,13758.009001
1 Jan 2000 21:05:19.000,1.752,38.053,13770.313246
1 Jan 2000 21:05:29.000,1.690,37.873,13782.654917
1 Jan 2000 21:05:39.000,1.629,37.693,13795.033812
1 Jan 2000 21:05:49.000,1.568,37.513,13807.449731
1 Jan 2000 21:05:59.000,1.509,37.333,13819.902473
1 Jan 2000 21:06:09.000,1.450,37.153,13832.391837
1 Jan 2000 21:06:19.000,1.392,36.973,13844.917625
1 Jan 2000 21:06:29.000,1.334,36.793,13857.479635
1 Jan 2000 21:06:39.000,1.277,36.613,13870.077667
1 Jan 2000 21:06:49.000,1.221,36.434,13882.711521
1 Jan 2000 21:06:59.000,1.166,36.255,13895.380998
1 Jan 2000 21:07:09.000,1.111,36.075,13908.085898
1 Jan 2000 21:07:19.000,1.057,35.896,13920.826020
1 Jan 2000 21:07:29.000,1.004,35.717,13933.601166
1 Jan 2000 21:07:39.000,0.951,35.538,13946.411136
1 Jan 2000 21:07:49.000,0.899,35.359,13959.255730
1 Jan 2000 21:07:59.000,0.848,35.180,13972.134750
1 Jan 2000 21:08:09.000,0.797,35.002,13985.047997
1 Jan 2000 21:08:09.053,0.797,35.001,13985.116104

Interval Statistics
"Min Elevation",1 Jan 2000 21:08:09.053,0.797,35.001,13985.116104
"Max Elevation",1 Jan 2000 20:28:55.270,63.811,69.107,12292.211155
"Mean Elevation",,,55.696,
"Min Range",1 Jan 2000 20:28:48.009,64.259,69.107,12292.193276
"Max Range",1 Jan 2000 21:08:09.053,0.797,35.001,13985.116104
"Mean Range",,,,12853.720134

"Time (UTCG)","Azimuth (deg)","Elevation (deg)","Range (km)"
2 Jan 2000 11:15:25.483,347.860,49.912,13054.490369
2 Jan 2000 11:15:35.000,347.682,50.066,13046.434472
2 Jan 2000 11:15:45.000,347.493,50.227,13038.022579
2 Jan 2000 11:15:55.000,347.302,50.388,13029.665012
2 Jan 2000 11:16:05.000,347.110,50.549,13021.361945
2 Jan 2000 11:16:15.000,346.915,50.710,13013.113552
2 Jan 2000 11:16:25.000,346.719,50.869,13004.920006
2 Jan 2000 11:16:35.000,346.520,51.029,12996.781477
2 Jan 2000 11:16:45.000,346.320,51.188,12988.698138
2 Jan 2000 11:16:55.000,346.117,51.347,12980.670159
2 Jan 2000 11:17:05.000,345.913,51.505,12972.697709
2 Jan 2000 11:17:15.000,345.706,51.663,12964.780958
2 Jan 2000 11:17:25.000,345.498,51.821,12956.920073
2 Jan 2000 11:17:35.000,345.287,51.977,12949.115221
2 Jan 2000 11:17:45.000,345.074,52.134,12941.366570
2 Jan 2000 11:17:55.000,344.859,52.290,12933.674284
2 Jan 2000 11:18:05.000,344.642,52.445,12926.038530
2 Jan 2000 11:18:15.000,344.423,52.600,12918.459470
2 Jan 2000 11:18:25.000,344.201,52.755,12910.937268
2 Jan 2000 11:18:35.000,343.978,52.909,12903.472086
2 Jan 2000 11:18:45.000,343.752,53.062,12896.064086
2 Jan 2000 11:18:55.000,343.524,53.215,12888.713429
2 Jan 2000 11:19:05.000,343.293,53.367,12881.420273
2 Jan 2000 11:19:15.000,343.060,53.519,12874.184779
2 Jan 2000 11:19:25.000,342.825,53.670,12867.007104
2 Jan 2000 11:19:35.000,342.588,53.821,12859.887404
2 Jan 2000 11:19:45.000,342.348,53.971,12852.825837
2 Jan 2000 11:19:55.000,342.106,54.120,12845.822557
2 Jan 2000 11:20:05.000,341.862,54.269,12838.877718
2 Jan 2000 11:20:15.000,341.615,54.417,12831.991474
2 Jan 2000 11:20:25.000,341.366,54.565,12825.163977
2 Jan 2000 11:20:35.000,341.114,54.712,12818.395378
2 Jan 2000 11:20:45.000,340.860,54.858,12811.685828
2 Jan 2000 11:20:55.000,340.603,55.004,12805.035476
2 Jan 2000 11:21:05.000,340.344,55.148,12798.444470
2 Jan 2000 11:21:15.000,340.083,55.293,12791.912958
2 Jan 2000 11:21:25.000,339.818,55.436,12785.441085
2 Jan 2000 11:21:35.000,339.552,55.579,12779.028998
2 Jan 2000 11:21:45.000,339.282,55.721,12772.676841
2 Jan 2000 11:21:55.000,339.010,55.862,12766.384756
2 Jan 2000 11:22:05.000,338.736,56.002,12760.152885
2 Jan 2000 11:22:15.000,338.458,56.142,12753.981371
2 Jan 2000 11:22:25.000,338.179,56.281,12747.870351
2 Jan 2000 11:22:35.000,337.896,56.419,12741.819967
2 Jan 2000 11:22:45.000,337.611,56.556,12735.830354
2 Jan 2000 11:22:55.000,337.323,56.692,12729.901651
2 Jan 2000 11:23:05.000,337.032,56.828,12724.033991
2 Jan 2000 11:23:15.000,336.739,56.963,12718.227511
2 Jan 2000 11:23:25.000,336.443,57.097,12712.482342
2 Jan 2000 11:23:35.000,336.144,57.229,12706.798617
2 Jan 2000 11:23:45.000,335.842,57.362,12701.176466
2 Jan 2000 11:23:55.000,335.538,57.493,12695.616021
2 Jan 2000 11:24:05.000,335.231,57.623,12690.117408
2 Jan 2000 11:24:15.000,334.921,57.752,12684.680756
2 Jan 2000 11:24:25.000,334.608,57.880,12679.306190
2 Jan 2000 11:24:35.000,334.292,58.008,12673.993836
2 Jan 2000 11:24:45.000,333.973,58.134,12668.743817
2 Jan 2000 11:24:55.000,333.652,58.259,12663.556256
2 Jan 2000 11:25:05.000,333.328,58.383,12658.431274
2 Jan 2000 11:25:15.000,333.000,58.507,12653.368990
2 Jan 2000 11:25:25.000,332.670,58.629,12648.369525
2 Jan 2000 11:25:35.000,332.337,58.750,12643.432994
2 Jan 2000 11:25:45.000,332.001,58.870,12638.559515
2 Jan 2000 11:25:55.000,331.662,58.989,12633.749202
2 Jan 2000 11:26:05.000,331.321,59.107,12629.002170
2 Jan 2000 11:26:15.000,330.976,59.223,12624.318529
2 Jan 2000 11:26:25.000,330.628,59.339,12619.698392
2 Jan 2000 11:26:35.000,330.277,59.453,12615.141867
2 Jan 2000 11:26:45.000,329.924,59.566,12610.649065
2 Jan 2000 11:26:55.000,329.567,59.678,12606.220090
2 Jan 2000 11:27:05.000,329.208,59.789,12601.855050
2 Jan 2000 11:27:15.000,328.845,59.899,12597.554048
2 Jan 2000 11:27:25.000,328.480,60.007,12593.317188
2 Jan 2000 11:27:35.000,328.112,60.114,12589.144570
2 Jan 2000 11:27:45.000,327.740,60.220,12585.036297
2 Jan 2000 11:27:55.000,327.366,60.324,12580.992465
2 Jan 2000 11:28:05.000,326.989,60.427,12577.013173
2 Jan 2000 11:28:15.000,326.609,60.529,12573.098517
2 Jan 2000 11:28:25.000,326.226,60.629,12569.248592
2 Jan 2000 11:28:35.000,325.840,60.728,12565.463490
2 Jan 2000 11:28:45.000,325.451,60.826,12561.743304
2 Jan 2000 11:28:55.000,325.059,60.922,12558.088124
2 Jan 2000 11:29:05.000,324.665,61.017,12554.498039
2 Jan 2000 11:29:15.000,324.267,61.110,12550.973136
2 Jan 2000 11:29:25.000,323.867,61.202,12547.513502
2 Jan 2000 11:29:35.000,323.464,61.293,12544.119222
2 Jan 2000 11:29:45.000,323.058,61.382,12540.790378
2 Jan 2000 11:29:55.000,322.649,61.469,12537.527052
2 Jan 2000 11:30:05.000,322.238,61.555,12534.329324
2 Jan 2000 11:30:15.000,321.824,61.640,12531.197274
2 Jan 2000 11:30:25.000,321.407,61.723,12528.130978
2 Jan 2000 11:30:35.000,320.987,61.804,12525.130512
2 Jan 2000 11:30:45.000,320.565,61.884,12522.195951
2 Jan 2000 11:30:55.000,320.140,61.962,12519.327367
2 Jan 2000 11:31:05.000,319.713,62.038,12516.524831
2 Jan 2000 11:31:15.000,319.283,62.113,12513.788413
2 Jan 2000 11:31:25.000,318.850,62.187,12511.118182
2 Jan 2000 11:31:35.000,318.415,62.258,12508.514204
2 Jan 2000 11:31:45.000,317.977,62.328,12505.976543
2 Jan 2000 11:31:55.000,317.537,62.396,12503.505265
2 Jan 2000 11:32:05.000,317.095,62.463,12501.100430
2 Jan 2000 11:32:15.000,316.650,62.528,12498.762099
2 Jan 2000 11:32:25.000,316.203,62.591,12496.490332
2 Jan 2000 11:32:35.000,315.754,62.652,12494.285185
2 Jan 2000 11:32:45.000,315.303,62.712,12492.146714
2 Jan 2000 11:32:55.000,314.849,62.769,12490.074974
2 Jan 2000 11:33:05.000,314.393,62.826,12488.070017
2 Jan 2000 11:33:15.000,313.936,62.880,12486.131895
2 Jan 2000 11:33:25.000,313.476,62.932,12484.260656
2 Jan 2000 11:33:35.000,313.014,62.983,12482.456348
2 Jan 2000 11:33:45.000,312.551,63.031,12480.719019
2 Jan 2000 11:33:55.000,312.085,63.078,12479.048712
2 Jan 2000 11:34:05.000,311.618,63.123,12477.445471
2 Jan 2000 11:34:15.000,311.149,63.167,12475.909337
2 Jan 2000 11:34:25.000,310.679,63.208,12474.440350
2 Jan 2000 11:34:35.000,310.207,63.247,12473.038549
2 Jan 2000 11:34:45.000,309.733,63.285,12471.703970
2 Jan 2000 11:34:55.000,309.258,63.320,12470.436648
2 Jan 2000 11:35:05.000,308.782,63.354,12469.236616
2 Jan 2000 11:35:15.000,308.304,63.386,12468.103907
2 Jan 2000 11:35:25.000,307.825,63.415,12467.038550
2 Jan 2000 11:35:35.000,307.345,63.443,12466.040574
2 Jan 2000 11:35:45.000,306.864,63.469,12465.110006
2 Jan 2000 11:35:55.000,306.382,63.493,12464.246871
2 Jan 2000 11:36:05.000,305.899,63.515,12463.451193
2 Jan 2000 11:36:15.000,305.415,63.535,12462.722994
2 Jan 2000 11:36:25.000,304.930,63.553,12462.062294
2 Jan 2000 11:36:35.000,304.444,63.569,12461.469112
2 Jan 2000 11:36:45.000,303.958,63.584,12460.943465
2 Jan 2000 11:36:55.000,303.471,63.596,12460.485369
2 Jan 2000 11:37:05.000,302.984,63.606,12460.094837
2 Jan 2000 11:37:15.000,302.496,63.614,12459.771881
2 Jan 2000 11:37:25.000,302.008,63.620,12459.516511
2 Jan 2000 11:37:35.000,301.520,63.624,12459.328738
2 Jan 2000 11:37:45.000,301.032,63.626,12459.208567
2 Jan 2000 11:37:55.000,300.543,63.626,12459.156005
2 Jan 2000 11:38:05.000,300.055,63.625,12459.171054
2 Jan 2000 11:38:15.000,299.566,63.621,12459.253719
2 Jan 2000 11:38:25.000,299.078,63.615,12459.403998
2 Jan 2000 11:38:35.000,298.590,63.607,12459.621891
2 Jan 2000 11:38:45.000,298.102,63.597,12459.907395
2 Jan 2000 11:38:55.000,297.615,63.586,12460.260507
2 Jan 2000 11:39:05.000,297.128,63.572,12460.681218
2 Jan 2000 11:39:15.000,296.641,63.556,12461.169523
2 Jan 2000 11:39:25.000,296.155,63.538,12461.725412
2 Jan 2000 11:39:35.000,295.670,63.518,12462.348873
2 Jan 2000 11:39:45.000,295.186,63.497,12463.039895
2 Jan 2000 11:39:55.000,294.702,63.473,12463.798462
2 Jan 2000 11:40:05.000,294.220,63.447,12464.624559
2 Jan 2000 11:40:15.000,293.738,63.420,12465.518168
2 Jan 2000 11:40:25.000,293.258,63.390,12466.479270
2 Jan 2000 11:40:35.000,292.778,63.359,12467.507845
2 Jan 2000 11:40:45.000,292.300,63.325,12468.603868
2 Jan 2000 11:40:55.000,291.823,63.290,12469.767318
2 Jan 2000 11:41:05.000,291.347,63.253,12470.998166
2 Jan 2000 11:41:15.000,290.873,63.214,12472.296387
2 Jan 2000 11:41:25.000,290.400,63.173,12473.661951
2 Jan 2000 11:41:35.000,289.929,63.130,12475.094828
2 Jan 2000 11:41:45.000,289.459,63.085,12476.594984
2 Jan 2000 11:41:55.000,288.991,63.038,12478.162386
2 Jan 2000 11:42:05.000,288.525,62.990,12479.796999
2 Jan 2000 11:42:15.000,288.061,62.939,12481.498785
2 Jan 2000 11:42:25.000,287.598,62.887,12483.267706
2 Jan 2000 11:42:35.000,287.137,62.833,12485.103720
2 Jan 2000 11:42:45.000,286.679,62.777,12487.006786
2 Jan 2000 11:42:55.000,286.222,62.720,12488.976861
2 Jan 2000 11:43:05.000,285.767,62.660,12491.013898
2 Jan 2000 11:43:15.000,285.314,62.599,12493.117852
2 Jan 2000 11:43:25.000,284.864,62.536,12495.288673
2 Jan 2000 11:43:35.000,284.416,62.472,12497.526312
2 Jan 2000 11:43:45.000,283.969,62.405,12499.830716
2 Jan 2000 11:43:55.000,283.526,62.337,12502.201834
2 Jan 2000 11:44:05.000,283.084,62.267,12504.639609
2 Jan 2000 11:44:15.000,282.645,62.196,12507.143985
2 Jan 2000 11:44:25.000,282.208,62.123,12509.714905
2 Jan 2000 11:44:35.000,281.774,62.048,12512.352309
2 Jan 2000 11:44:45.000,281.342,61.971,12515.056135
2 Jan 2000 11:44:55.000,280.913,61.893,12517.826322
2 Jan 2000 11:45:05.000,280.486,61.814,12520.662805
2 Jan 2000 11:45:15.000,280.062,61.732,12523.565517
2 Jan 2000 11:45:25.000,279.641,61.650,12526.534393
2 Jan 2000 11:45:35.000,279.222,61.565,12529.569363
2 Jan 2000 11:45:45.000,278.806,61.479,12532.670356
2 Jan 2000 11:45:55.000,278.392,61.392,12535.837301
2 Jan 2000 11:46:05.000,277.981,61.303,12539.070125
2 Jan 2000 11:46:15.000,277.573,61.212,12542.368751
2 Jan 2000 11:46:25.000,277.167,61.120,12545.733105
2 Jan 2000 11:46:35.000,276.765,61.027,12549.163108
2 Jan 2000 11:46:45.000,276.365,60.932,12552.658680
2 Jan 2000 11:46:55.000,275.968,60.836,12556.219741
2 Jan 2000 11:47:05.000,275.573,60.738,12559.846208
2 Jan 2000 11:47:15.000,275.182,60.639,12563.537998
2 Jan 2000 11:47:25.000,274.793,60.538,12567.295025
2 Jan 2000 11:47:35.000,274.407,60.437,12571.117201
2 Jan 2000 11:47:45.000,274.024,60.333,12575.004440
2 Jan 2000 11:47:55.000,273.644,60.229,12578.956650
2 Jan 2000 11:48:05.000,273.267,60.123,12582.973742
2 Jan 2000 11:48:15.000,272.892,60.016,12587.055622
2 Jan 2000 11:48:25.000,272.521,59.908,12591.202196
2 Jan 2000 11:48:35.000,272.152,59.798,12595.413369
2 Jan 2000 11:48:45.000,271.786,59.687,12599.689044
2 Jan 2000 11:48:55.000,271.423,59.575,12604.029123
2 Jan 2000 11:49:05.000,271.063,59.462,12608.433505
2 Jan 2000 11:49:15.000,270.706,59.347,12612.902091
2 Jan 2000 11:49:25.000,270.351,59.231,12617.434777
2 Jan 2000 11:49:35.000,270.000,59.114,12622.031459
2 Jan 2000 11:49:45.000,269.651,58.996,12626.692033
2 Jan 2000 11:49:55.000,269.305,58.877,12631.416392
2 Jan 2000 11:50:05.000,268.962,58.757,12636.204428
2 Jan 2000 11:50:15.000,268.622,58.636,12641.056032
2 Jan 2000 11:50:25.000,268.285,58.513,12645.971092
2 Jan 2000 11:50:35.000,267.950,58.390,12650.949498
2 Jan 2000 11:50:45.000,267.619,58.265,12655.991136
2 Jan 2000 11:50:55.000,267.290,58.140,12661.095891
2 Jan 2000 11:51:05.000,266.964,58.013,12666.263647
2 Jan 2000 11:51:15.000,266.640,57.885,12671.494288
2 Jan 2000 11:51:25.000,266.320,57.757,12676.787695
2 Jan 2000 11:51:35.000,266.002,57.627,12682.143748
2 Jan 2000 11:51:45.000,265.687,57.497,12687.562326
2 Jan 2000 11:51:55.000,265.375,57.365,12693.043307
2 Jan 2000 11:52:05.000,265.065,57.233,12698.586568
2 Jan 2000 11:52:15.000,264.758,57.099,12704.191983
2 Jan 2000 11:52:25.000,264.454,56.965,12709.859427
2 Jan 2000 11:52:35.000,264.153,56.830,12715.588773
2 Jan 2000 11:52:45.000,263.854,56.694,12721.379893
2 Jan 2000 11:52:55.000,263.558,56.557,12727.232655
2 Jan 2000 11:53:05.000,263.264,56.420,12733.146931
2 Jan 2000 11:53:15.000,262.973,56.281,12739.122588
2 Jan 2000 11:53:25.000,262.685,56.142,12745.159492
2 Jan 2000 11:53:35.000,262.399,56.002,12751.257510
2 Jan 2000 11:53:45.000,262.116,55.861,12757.416505
2 Jan 2000 11:53:55.000,261.835,55.719,12763.636342
2 Jan 2000 11:54:05.000,261.557,55.577,12769.916883
2 Jan 2000 11:54:15.000,261.281,55.433,12776.257988
2 Jan 2000 11:54:25.000,261.008,55.290,12782.659518
2 Jan 2000 11:54:35.000,260.737,55.145,12789.121331
2 Jan 2000 11:54:45.000,260.469,55.000,12795.643286
2 Jan 2000 11:54:55.000,260.203,54.853,12802.225238
2 Jan 2000 11:55:05.000,259.940,54.707,12808.867044
2 Jan 2000 11:55:15.000,259.679,54.559,12815.568559
2 Jan 2000 11:55:25.000,259.420,54.411,12822.329635
2 Jan 2000 11:55:35.000,259.164,54.262,12829.150124
2 Jan 2000 11:55:45.000,258.910,54.113,12836.029880
2 Jan 2000 11:55:55.000,258.658,53.963,12842.968751
2 Jan 2000 11:56:05.000,258.408,53.813,12849.966587
2 Jan 2000 11:56:15.000,258.161,53.661,12857.023237
2 Jan 2000 11:56:25.000,257.916,53.509,12864.138548
2 Jan 2000 11:56:35.000,257.674,53.357,12871.312365
2 Jan 2000 11:56:45.000,257.433,53.204,12878.544536
2 Jan 2000 11:56:55.000,257.195,53.051,12885.834903
2 Jan 2000 11:57:05.000,256.959,52.896,12893.183310
2 Jan 2000 11:57:15.000,256.725,52.742,12900.589600
2 Jan 2000 11:57:25.000,256.493,52.587,12908.053615
2 Jan 2000 11:57:35.000,256.264,52.431,12915.575194
2 Jan 2000 11:57:45.000,256.036,52.275,12923.154178
2 Jan 2000 11:57:55.000,255.810,52.118,12930.790405
2 Jan 2000 11:58:05.000,255.587,51.961,12938.483714
2 Jan 2000 11:58:15.000,255.366,51.803,12946.233941
2 Jan 2000 11:58:25.000,255.146,51.645,12954.040922
2 Jan 2000 11:58:35.000,254.929,51.487,12961.904493
2 Jan 2000 11:58:45.000,254.713,51.328,12969.824488
2 Jan 2000 11:58:55.000,254.500,51.168,12977.800741
2 Jan 2000 11:59:05.000,254.288,51.008,12985.833084
2 Jan 2000 11:59:15.000,254.079,50.848,12993.921349
2 Jan 2000 11:59:25.000,253.871,50.687,13002.065367
2 Jan 2000 11:59:35.000,253.665,50.526,13010.264969
2 Jan 2000 11:59:45.000,253.461,50.365,13018.519983
2 Jan 2000 11:59:55.000,253.259,50.203,13026.830239
2 Jan 2000 12:00:05.000,253.058,50.040,13035.195565
2 Jan 2000 12:00:15.000,252.860,49.878,13043.615787
2 Jan 2000 12:00:25.000,252.663,49.715,13052.090732
2 Jan 2000 12:00:35.000,252.468,49.551,13060.620226
2 Jan 2000 12:00:45.000,252.275,49.387,13069.204093
2 Jan 2000 12:00:55.000,252.083,49.223,13077.842158
2 Jan 2000 12:01:05.000,251.894,49.059,13086.534244
2 Jan 2000 12:01:15.000,251.706,48.894,13095.280174
2 Jan 2000 12:01:25.000,251.519,48.729,13104.079770
2 Jan 2000 12:01:35.000,251.334,48.564,13112.932853
2 Jan 2000 12:01:45.000,251.151,48.398,13121.839244
2 Jan 2000 12:01:55.000,250.970,48.232,13130.798763
2 Jan 2000 12:02:05.000,250.790,48.066,13139.811229
2 Jan 2000 12:02:15.000,250.612,47.899,13148.876461
2 Jan 2000 12:02:25.000,250.435,47.732,13157.994277
2 Jan 2000 12:02:35.000,250.260,47.565,13167.164495
2 Jan 2000 12:02:45.000,250.086,47.398,13176.386932
2 Jan 2000 12:02:55.000,249.914,47.230,13185.661403
2 Jan 2000 12:03:05.000,249.743,47.062,13194.987724
2 Jan 2000 12:03:15.000,249.574,46.894,13204.365711
2 Jan 2000 12:03:25.000,249.407,46.726,13213.795178
2 Jan 2000 12:03:35.000,249.241,46.557,13223.275939
2 Jan 2000 12:03:45.000,249.076,46.389,13232.807807
2 Jan 2000 12:03:55.000,248.913,46.220,13242.390594
2 Jan 2000 12:04:05.000,248.751,46.050,13252.024115
2 Jan 2000 12:04:15.000,248.590,45.881,13261.708179
2 Jan 2000 12:04:25.000,248.431,45.711,13271.442599
2 Jan 2000 12:04:35.000,248.274,45.541,13281.227184
2 Jan 2000 12:04:45.000,248.117,45.371,13291.061746
2 Jan 2000 12:04:55.000,247.962,45.201,13300.946094
2 Jan 2000 12:05:05.000,247.809,45.031,13310.880038
2 Jan 2000 12:05:15.000,247.656,44.860,13320.863385
2 Jan 2000 12:05:25.000,247.505,44.689,13330.895945
2 Jan 2000 12:05:35.000,247.355,44.519,13340.977525
2 Jan 2000 12:05:45.000,247.207,44.347,13351.107933
2 Jan 2000 12:05:55.000,247.060,44.176,13361.286976
2 Jan 2000 12:06:05.000,246.914,44.005,13371.514460
2 Jan 2000 12:06:15.000,246.769,43.833,13381.790192
2 Jan 2000 12:06:25.000,246.625,43.662,13392.113978
2 Jan 2000 12:06:35.000,246.483,43.490,13402.485622
2 Jan 2000 12:06:45.000,246.342,43.318,13412.904930
2 Jan 2000 12:06:55.000,246.202,43.146,13423.371706
2 Jan 2000 12:07:05.000,246.063,42.974,13433.885755
2 Jan 2000 12:07:15.000,245.925,42.802,13444.446880
2 Jan 2000 12:07:25.000,245.789,42.629,13455.054886
2 Jan 2000 12:07:35.000,245.653,42.457,13465.709575
2 Jan 2000 12:07:45.000,245.519,42.284,13476.410750
2 Jan 2000 12:07:55.000,245.386,42.112,13487.158214
2 Jan 2000 12:08:05.000,245.253,41.939,13497.951769
2 Jan 2000 12:08:15.000,245.122,41.766,13508.791216
2 Jan 2000 12:08:25.000,244.992,41.593,13519.676358
2 Jan 2000 12:08:35.000,244.863,41.420,13530.606997
2 Jan 2000 12:08:45.000,244.736,41.247,13541.582932
2 Jan 2000 12:08:55.000,244.609,41.074,13552.603964
2 Jan 2000 12:09:05.000,244.483,40.901,13563.669895
2 Jan 2000 12:09:15.000,244.358,40.727,13574.780525
2 Jan 2000 12:09:25.000,244.234,40.554,13585.935653
2 Jan 2000 12:09:35.000,244.111,40.381,13597.135079
2 Jan 2000 12:09:45.000,243.990,40.207,13608.378603
2 Jan 2000 12:09:55.000,243.869,40.034,13619.666025
2 Jan 2000 12:10:05.000,243.749,39.860,13630.997143
2 Jan 2000 12:10:15.000,243.630,39.686,13642.371756
2 Jan 2000 12:10:25.000,243.512,39.513,13653.789663
2 Jan 2000 12:10:35.000,243.394,39.339,13665.250662
2 Jan 2000 12:10:45.000,243.278,39.165,13676.754553
2 Jan 2000 12:10:55.000,243.163,38.991,13688.301132
2 Jan 2000 12:11:05.000,243.048,38.818,13699.890199
2 Jan 2000 12:11:15.000,242.935,38.644,13711.521550
2 Jan 2000 12:11:25.000,242.822,38.470,13723.194984
2 Jan 2000 12:11:35.000,242.710,38.296,13734.910297
2 Jan 2000 12:11:45.000,242.600,38.122,13746.667289
2 Jan 2000 12:11:55.000,242.489,37.948,13758.465755
2 Jan 2000 12:12:05.000,242.380,37.775,13770.305493
2 Jan 2000 12:12:15.000,242.272,37.601,13782.186300
2 Jan 2000 12:12:25.000,242.164,37.427,13794.107973
2 Jan 2000 12:12:35.000,242.057,37.253,13806.070308
2 Jan 2000 12:12:45.000,241.951,37.079,13818.073103
2 Jan 2000 12:12:55.000,241.846,36.905,13830.116155
2 Jan 2000 12:13:05.000,241.742,36.731,13842.199259
2 Jan 2000 12:13:15.000,241.638,36.557,13854.322212
2 Jan 2000 12:13:25.000,241.535,36.383,13866.484811
2 Jan 2000 12:13:35.000,241.433,36.210,13878.686852
2 Jan 2000 12:13:45.000,241.332,36.036,13890.928131
2 Jan 2000 12:13:55.000,241.231,35.862,13903.208445
2 Jan 2000 12:14:05.000,241.131,35.688,13915.527590
2 Jan 2000 12:14:15.000,241.032,35.514,13927.885362
2 Jan 2000 12:14:25.000,240.934,35.341,13940.281558
2 Jan 2000 12:14:35.000,240.836,35.167,13952.715973
2 Jan 2000 12:14:44.562,240.743,35.001,13964.640994

Interval Statistics
"Min Elevation",2 Jan 2000 12:14:44.562,240.743,35.001,13964.640994
"Max Elevation",2 Jan 2000 11:37:50.777,300.750,63.627,12459.169954
"Mean Elevation",,,54.618,
"Min Range",2 Jan 2000 11:37:57.774,300.408,63.626,12459.153403
"Max Range",2 Jan 2000 12:14:44.562,240.743,35.001,13964.640994
"Mean Range",,,,12860.009531

"Time (UTCG)","Azimuth (deg)","Elevation (deg)","Range (km)"
2 Jan 2000 23:49:04.699,262.713,56.873,12713.572026
2 Jan 2000 23:49:14.000,263.063,56.929,12711.193886
2 Jan 2000 23:49:24.000,263.440,56.989,12708.684066
2 Jan 2000 23:49:34.000,263.819,57.049,12706.223001
2 Jan 2000 23:49:44.000,264.198,57.107,12703.810700
2 Jan 2000 23:49:54.000,264.579,57.164,12701.447170
2 Jan 2000 23:50:04.000,264.962,57.220,12699.132417
2 Jan 2000 23:50:14.000,265.345,57.274,12696.866445
2 Jan 2000 23:50:24.000,265.729,57.328,12694.649260
2 Jan 2000 23:50:34.000,266.115,57.381,12692.480864
2 Jan 2000 23:50:44.000,266.501,57.433,12690.361260
2 Jan 2000 23:50:54.000,266.889,57.483,12688.290450
2 Jan 2000 23:51:04.000,267.278,57.533,12686.268435
2 Jan 2000 23:51:14.000,267.668,57.581,12684.295213
2 Jan 2000 23:51:24.000,268.058,57.629,12682.370785
2 Jan 2000 23:51:34.000,268.450,57.675,12680.495149
2 Jan 2000 23:51:44.000,268.843,57.720,12678.668300
2 Jan 2000 23:51:54.000,269.237,57.764,12676.890237
2 Jan 2000 23:52:04.000,269.631,57.807,12675.160954
2 Jan 2000 23:52:14.000,270.027,57.849,12673.480446
2 Jan 2000 23:52:24.000,270.424,57.889,12671.848707
2 Jan 2000 23:52:34.000,270.821,57.929,12670.265729
2 Jan 2000 23:52:44.000,271.219,57.967,12668.731504
2 Jan 2000 23:52:54.000,271.618,58.005,12667.246023
2 Jan 2000 23:53:04.000,272.018,58.041,12665.809277
2 Jan 2000 23:53:14.000,272.419,58.076,12664.421254
2 Jan 2000 23:53:24.000,272.820,58.110,12663.081943
2 Jan 2000 23:53:34.000,273.222,58.142,12661.791332
2 Jan 2000 23:53:44.000,273.625,58.174,12660.549407
2 Jan 2000 23:53:54.000,274.028,58.204,12659.356153
2 Jan 2000 23:54:04.000,274.432,58.234,12658.211556
2 Jan 2000 23:54:14.000,274.837,58.262,12657.115599
2 Jan 2000 23:54:24.000,275.243,58.289,12656.068267
2 Jan 2000 23:54:34.000,275.649,58.314,12655.069539
2 Jan 2000 23:54:44.000,276.055,58.339,12654.119400
2 Jan 2000 23:54:54.000,276.462,58.362,12653.217827
2 Jan 2000 23:55:04.000,276.870,58.385,12652.364802
2 Jan 2000 23:55:14.000,277.278,58.406,12651.560303
2 Jan 2000 23:55:24.000,277.686,58.426,12650.804307
2 Jan 2000 23:55:34.000,278.095,58.444,12650.096792
2 Jan 2000 23:55:44.000,278.504,58.462,12649.437734
2 Jan 2000 23:55:54.000,278.914,58.478,12648.827107
2 Jan 2000 23:56:04.000,279.324,58.493,12648.264887
2 Jan 2000 23:56:14.000,279.734,58.507,12647.751047
2 Jan 2000 23:56:24.000,280.144,58.520,12647.285559
2 Jan 2000 23:56:34.000,280.555,58.532,12646.868395
2 Jan 2000 23:56:44.000,280.966,58.542,12646.499527
2 Jan 2000 23:56:54.000,281.377,58.551,12646.178923
2 Jan 2000 23:57:04.000,281.789,58.559,12645.906554
2 Jan 2000 23:57:14.000,282.200,58.566,12645.682387
2 Jan 2000 23:57:24.000,282.612,58.572,12645.506391
2 Jan 2000 23:57:34.000,283.023,58.576,12645.378530
2 Jan 2000 23:57:44.000,283.435,58.580,12645.298773
2 Jan 2000 23:57:54.000,283.847,58.582,12645.267083
2 Jan 2000 23:58:04.000,284.258,58.583,12645.283424
2 Jan 2000 23:58:14.000,284.670,58.583,12645.347760
2 Jan 2000 23:58:24.000,285.082,58.581,12645.460052
2 Jan 2000 23:58:34.000,285.493,58.578,12645.620264
2 Jan 2000 23:58:44.000,285.905,58.575,12645.828354
2 Jan 2000 23:58:54.000,286.316,58.570,12646.084284
2 Jan 2000 23:59:04.000,286.727,58.563,12646.388012
2 Jan 2000 23:59:14.000,287.138,58.556,12646.739496
2 Jan 2000 23:59:24.000,287.549,58.548,12647.138694
2 Jan 2000 23:59:34.000,287.959,58.538,12647.585562
2 Jan 2000 23:59:44.000,288.369,58.527,12648.080056
2 Jan 2000 23:59:54.000,288.779,58.515,12648.622130
3 Jan 2000 00:00:04.000,289.188,58.502,12649.211740
3 Jan 2000 00:00:14.000,289.597,58.487,12649.848838
3 Jan 2000 00:00:24.000,290.006,58.472,12650.533377
3 Jan 2000 00:00:34.000,290.414,58.455,12651.265307
3 Jan 2000 00:00:44.000,290.822,58.437,12652.044581
3 Jan 2000 00:00:54.000,291.229,58.418,12652.871148
3 Jan 2000 00:01:04.000,291.636,58.398,12653.744957
3 Jan 2000 00:01:14.000,292.042,58.377,12654.665957
3 Jan 2000 00:01:24.000,292.448,58.355,12655.634095
3 Jan 2000 00:01:34.000,292.853,58.331,12656.649318
3 Jan 2000 00:01:44.000,293.258,58.306,12657.711573
3 Jan 2000 00:01:54.000,293.662,58.280,12658.820804
3 Jan 2000 00:02:04.000,294.065,58.253,12659.976955
3 Jan 2000 00:02:14.000,294.468,58.225,12661.179971
3 Jan 2000 00:02:24.000,294.870,58.196,12662.429795
3 Jan 2000 00:02:34.000,295.271,58.166,12663.726368
3 Jan 2000 00:02:44.000,295.671,58.135,12665.069631
3 Jan 2000 00:02:54.000,296.071,58.102,12666.459526
3 Jan 2000 00:03:04.000,296.470,58.068,12667.895993
3 Jan 2000 00:03:14.000,296.868,58.034,12669.378969
3 Jan 2000 00:03:24.000,297.265,57.998,12670.908395
3 Jan 2000 00:03:34.000,297.661,57.961,12672.484206
3 Jan 2000 00:03:44.000,298.057,57.923,12674.106340
3 Jan 2000 00:03:54.000,298.451,57.884,12675.774732
3 Jan 2000 00:04:04.000,298.845,57.844,12677.489319
3 Jan 2000 00:04:14.000,299.238,57.803,12679.250035
3 Jan 2000 00:04:24.000,299.629,57.761,12681.056813
3 Jan 2000 00:04:34.000,300.020,57.717,12682.909586
3 Jan 2000 00:04:44.000,300.410,57.673,12684.808288
3 Jan 2000 00:04:54.000,300.799,57.628,12686.752848
3 Jan 2000 00:05:04.000,301.186,57.581,12688.743199
3 Jan 2000 00:05:14.000,301.573,57.534,12690.779271
3 Jan 2000 00:05:24.000,301.959,57.486,12692.860992
3 Jan 2000 00:05:34.000,302.343,57.436,12694.988292
3 Jan 2000 00:05:44.000,302.726,57.386,12697.161098
3 Jan 2000 00:05:54.000,303.109,57.334,12699.379339
3 Jan 2000 00:06:04.000,303.490,57.282,12701.642940
3 Jan 2000 00:06:14.000,303.870,57.229,12703.951827
3 Jan 2000 00:06:24.000,304.249,57.174,12706.305926
3 Jan 2000 00:06:34.000,304.627,57.119,12708.705162
3 Jan 2000 00:06:44.000,305.003,57.063,12711.149457
3 Jan 2000 00:06:54.000,305.378,57.005,12713.638736
3 Jan 2000 00:07:04.000,305.752,56.947,12716.172921
3 Jan 2000 00:07:14.000,306.125,56.888,12718.751933
3 Jan 2000 00:07:24.000,306.497,56.828,12721.375693
3 Jan 2000 00:07:34.000,306.867,56.767,12724.044123
3 Jan 2000 00:07:44.000,307.236,56.705,12726.757142
3 Jan 2000 00:07:54.000,307.604,56.642,12729.514670
3 Jan 2000 00:08:04.000,307.971,56.578,12732.316624
3 Jan 2000 00:08:14.000,308.336,56.514,12735.162922
3 Jan 2000 00:08:24.000,308.700,56.448,12738.053483
3 Jan 2000 00:08:34.000,309.063,56.382,12740.988221
3 Jan 2000 00:08:44.000,309.424,56.314,12743.967055
3 Jan 2000 00:08:54.000,309.784,56.246,12746.989898
3 Jan 2000 00:09:04.000,310.143,56.177,12750.056665
3 Jan 2000 00:09:14.000,310.500,56.107,12753.167271
3 Jan 2000 00:09:24.000,310.856,56.036,12756.321629
3 Jan 2000 00:09:34.000,311.211,55.965,12759.519652
3 Jan 2000 00:09:44.000,311.564,55.892,12762.761252
3 Jan 2000 00:09:54.000,311.916,55.819,12766.046340
3 Jan 2000 00:10:04.000,312.266,55.745,12769.374829
3 Jan 2000 00:10:14.000,312.615,55.670,12772.746628
3 Jan 2000 00:10:24.000,312.963,55.594,12776.161647
3 Jan 2000 00:10:34.000,313.309,55.518,12779.619795
3 Jan 2000 00:10:44.000,313.654,55.440,12783.120982
3 Jan 2000 00:10:54.000,313.998,55.362,12786.665114
3 Jan 2000 00:11:04.000,314.340,55.284,12790.252101
3 Jan 2000 00:11:14.000,314.681,55.204,12793.881848
3 Jan 2000 00:11:24.000,315.020,55.124,12797.554263
3 Jan 2000 00:11:34.000,315.358,55.042,12801.269251
3 Jan 2000 00:11:44.000,315.695,54.961,12805.026717
3 Jan 2000 00:11:54.000,316.030,54.878,12808.826567
3 Jan 2000 00:12:04.000,316.363,54.795,12812.668704
3 Jan 2000 00:12:14.000,316.696,54.711,12816.553033
3 Jan 2000 00:12:24.000,317.027,54.626,12820.479455
3 Jan 2000 00:12:34.000,317.356,54.540,12824.447875
3 Jan 2000 00:12:44.000,317.684,54.454,12828.458194
3 Jan 2000 00:12:54.000,318.011,54.367,12832.510313
3 Jan 2000 00:13:04.000,318.336,54.280,12836.604135
3 Jan 2000 00:13:14.000,318.660,54.191,12840.739559
3 Jan 2000 00:13:24.000,318.982,54.102,12844.916485
3 Jan 2000 00:13:34.000,319.303,54.013,12849.134813
3 Jan 2000 00:13:44.000,319.622,53.923,12853.394443
3 Jan 2000 00:13:54.000,319.940,53.832,12857.695272
3 Jan 2000 00:14:04.000,320.257,53.740,12862.037199
3 Jan 2000 00:14:14.000,320.572,53.648,12866.420122
3 Jan 2000 00:14:24.000,320.886,53.555,12870.843937
3 Jan 2000 00:14:34.000,321.198,53.462,12875.308541
3 Jan 2000 00:14:44.000,321.509,53.368,12879.813832
3 Jan 2000 00:14:54.000,321.819,53.273,12884.359703
3 Jan 2000 00:15:04.000,322.127,53.178,12888.946051
3 Jan 2000 00:15:14.000,322.434,53.082,12893.572770
3 Jan 2000 00:15:24.000,322.739,52.986,12898.239756
3 Jan 2000 00:15:34.000,323.043,52.889,12902.946901
3 Jan 2000 00:15:44.000,323.346,52.791,12907.694099
3 Jan 2000 00:15:54.000,323.647,52.693,12912.481244
3 Jan 2000 00:16:04.000,323.947,52.595,12917.308228
3 Jan 2000 00:16:14.000,324.245,52.495,12922.174944
3 Jan 2000 00:16:24.000,324.543,52.396,12927.081283
3 Jan 2000 00:16:34.000,324.838,52.295,12932.027136
3 Jan 2000 00:16:44.000,325.133,52.195,12937.012396
3 Jan 2000 00:16:54.000,325.426,52.093,12942.036951
3 Jan 2000 00:17:04.000,325.717,51.991,12947.100694
3 Jan 2000 00:17:14.000,326.007,51.889,12952.203512
3 Jan 2000 00:17:24.000,326.296,51.786,12957.345297
3 Jan 2000 00:17:34.000,326.584,51.683,12962.525936
3 Jan 2000 00:17:44.000,326.870,51.579,12967.745319
3 Jan 2000 00:17:54.000,327.155,51.475,12973.003334
3 Jan 2000 00:18:04.000,327.439,51.370,12978.299869
3 Jan 2000 00:18:14.000,327.721,51.264,12983.634812
3 Jan 2000 00:18:24.000,328.002,51.159,12989.008049
3 Jan 2000 00:18:34.000,328.282,51.052,12994.419468
3 Jan 2000 00:18:44.000,328.560,50.946,12999.868955
3 Jan 2000 00:18:54.000,328.837,50.839,13005.356396
3 Jan 2000 00:19:04.000,329.113,50.731,13010.881678
3 Jan 2000 00:19:14.000,329.387,50.623,13016.444685
3 Jan 2000 00:19:24.000,329.660,50.515,13022.045303
3 Jan 2000 00:19:34.000,329.932,50.406,13027.683417
3 Jan 2000 00:19:44.000,330.203,50.297,13033.358912
3 Jan 2000 00:19:54.000,330.472,50.187,13039.071671
3 Jan 2000 00:20:04.000,330.741,50.077,13044.821578
3 Jan 2000 00:20:14.000,331.007,49.966,13050.608518
3 Jan 2000 00:20:24.000,331.273,49.855,13056.432373
3 Jan 2000 00:20:34.000,331.538,49.744,13062.293027
3 Jan 2000 00:20:44.000,331.801,49.632,13068.190362
3 Jan 2000 00:20:54.000,332.063,49.520,13074.124261
3 Jan 2000 00:21:04.000,332.323,49.408,13080.094606
3 Jan 2000 00:21:14.000,332.583,49.295,13086.101279
3 Jan 2000 00:21:24.000,332.841,49.182,13092.144161
3 Jan 2000 00:21:34.000,333.098,49.069,13098.223134
3 Jan 2000 00:21:44.000,333.354,48.955,13104.338078
3 Jan 2000 00:21:54.000,333.609,48.841,13110.488876
3 Jan 2000 00:22:04.000,333.863,48.726,13116.675407
3 Jan 2000 00:22:14.000,334.115,48.611,13122.897552
3 Jan 2000 00:22:24.000,334.367,48.496,13129.155191
3 Jan 2000 00:22:34.000,334.617,48.381,13135.448204
3 Jan 2000 00:22:44.000,334.866,48.265,13141.776469
3 Jan 2000 00:22:54.000,335.114,48.149,13148.139868
3 Jan 2000 00:23:04.000,335.360,48.032,13154.538279
3 Jan 2000 00:23:14.000,335.606,47.915,13160.971581
3 Jan 2000 00:23:24.000,335.850,47.798,13167.439652
3 Jan 2000 00:23:34.000,336.094,47.681,13173.942372
3 Jan 2000 00:23:44.000,336.336,47.563,13180.479619
3 Jan 2000 00:23:54.000,336.577,47.445,13187.051270
3 Jan 2000 00:24:04.000,336.817,47.327,13193.657204
3 Jan 2000 00:24:14.000,337.056,47.209,13200.297298
3 Jan 2000 00:24:24.000,337.294,47.090,13206.971430
3 Jan 2000 00:24:34.000,337.531,46.971,13213.679478
3 Jan 2000 00:24:44.000,337.767,46.852,13220.421319
3 Jan 2000 00:24:54.000,338.002,46.732,13227.196829
3 Jan 2000 00:25:04.000,338.236,46.612,13234.005885
3 Jan 2000 00:25:14.000,338.468,46.492,13240.848365
3 Jan 2000 00:25:24.000,338.700,46.372,13247.724145
3 Jan 2000 00:25:34.000,338.931,46.251,13254.633100
3 Jan 2000 00:25:44.000,339.160,46.131,13261.575108
3 Jan 2000 00:25:54.000,339.389,46.010,13268.550044
3 Jan 2000 00:26:04.000,339.617,45.888,13275.557785
3 Jan 2000 00:26:14.000,339.843,45.767,13282.598206
3 Jan 2000 00:26:24.000,340.069,45.645,13289.671182
3 Jan 2000 00:26:34.000,340.293,45.523,13296.776590
3 Jan 2000 00:26:44.000,340.517,45.401,13303.914305
3 Jan 2000 00:26:54.000,340.740,45.279,13311.084201
3 Jan 2000 00:27:04.000,340.962,45.156,13318.286155
3 Jan 2000 00:27:14.000,341.182,45.034,13325.520040
3 Jan 2000 00:27:24.000,341.402,44.911,13332.785733
3 Jan 2000 00:27:34.000,341.621,44.788,13340.083108
3 Jan 2000 00:27:44.000,341.839,44.664,13347.412039
3 Jan 2000 00:27:54.000,342.056,44.541,13354.772402
3 Jan 2000 00:28:04.000,342.273,44.417,13362.164071
3 Jan 2000 00:28:14.000,342.488,44.293,13369.586919
3 Jan 2000 00:28:24.000,342.702,44.169,13377.040823
3 Jan 2000 00:28:34.000,342.916,44.045,13384.525655
3 Jan 2000 00:28:44.000,343.128,43.921,13392.041290
3 Jan 2000 00:28:54.000,343.340,43.796,13399.587603
3 Jan 2000 00:29:04.000,343.551,43.672,13407.164467
3 Jan 2000 00:29:14.000,343.761,43.547,13414.771756
3 Jan 2000 00:29:24.000,343.970,43.422,13422.409344
3 Jan 2000 00:29:34.000,344.178,43.297,13430.077105
3 Jan 2000 00:29:44.000,344.385,43.171,13437.774913
3 Jan 2000 00:29:54.000,344.592,43.046,13445.502642
3 Jan 2000 00:30:04.000,344.797,42.920,13453.260165
3 Jan 2000 00:30:14.000,345.002,42.795,13461.047356
3 Jan 2000 00:30:24.000,345.206,42.669,13468.864089
3 Jan 2000 00:30:34.000,345.409,42.543,13476.710236
3 Jan 2000 00:30:44.000,345.612,42.417,13484.585673
3 Jan 2000 00:30:54.000,345.813,42.290,13492.490272
3 Jan 2000 00:31:04.000,346.014,42.164,13500.423907
3 Jan 2000 00:31:14.000,346.214,42.038,13508.386450
3 Jan 2000 00:31:24.000,346.413,41.911,13516.377777
3 Jan 2000 00:31:34.000,346.612,41.784,13524.397760
3 Jan 2000 00:31:44.000,346.809,41.658,13532.446273
3 Jan 2000 00:31:54.000,347.006,41.531,13540.523189
3 Jan 2000 00:32:04.000,347.202,41.404,13548.628381
3 Jan 2000 00:32:14.000,347.398,41.276,13556.761723
3 Jan 2000 00:32:24.000,347.592,41.149,13564.923089
3 Jan 2000 00:32:34.000,347.786,41.022,13573.112351
3 Jan 2000 00:32:44.000,347.979,40.894,13581.329384
3 Jan 2000 00:32:54.000,348.172,40.767,13589.574061
3 Jan 2000 00:33:04.000,348.363,40.639,13597.846255
3 Jan 2000 00:33:14.000,348.554,40.512,13606.145839
3 Jan 2000 00:33:24.000,348.745,40.384,13614.472688
3 Jan 2000 00:33:34.000,348.934,40.256,13622.826675
3 Jan 2000 00:33:44.000,349.123,40.128,13631.207674
3 Jan 2000 00:33:54.000,349.311,40.000,13639.615557
3 Jan 2000 00:34:04.000,349.499,39.872,13648.050199
3 Jan 2000 00:34:14.000,349.685,39.744,13656.511473
3 Jan 2000 00:34:24.000,349.871,39.616,13664.999254
3 Jan 2000 00:34:34.000,350.057,39.487,13673.513415
3 Jan 2000 00:34:44.000,350.241,39.359,13682.053829
3 Jan 2000 00:34:54.000,350.425,39.231,13690.620371
3 Jan 2000 00:35:04.000,350.609,39.102,13699.212915
3 Jan 2000 00:35:14.000,350.792,38.974,13707.831334
3 Jan 2000 00:35:24.000,350.974,38.845,13716.475503
3 Jan 2000 00:35:34.000,351.155,38.716,13725.145295
3 Jan 2000 00:35:44.000,351.336,38.588,13733.840586
3 Jan 2000 00:35:54.000,351.516,38.459,13742.561249
3 Jan 2000 00:36:04.000,351.696,38.330,13751.307158
3 Jan 2000 00:36:14.000,351.875,38.201,13760.078188
3 Jan 2000 00:36:24.000,352.053,38.072,13768.874214
3 Jan 2000 00:36:34.000,352.230,37.944,13777.695110
3 Jan 2000 00:36:44.000,352.408,37.815,13786.540751
3 Jan 2000 00:36:54.000,352.584,37.686,13795.411011
3 Jan 2000 00:37:04.000,352.760,37.557,13804.305765
3 Jan 2000 00:37:14.000,352.935,37.428,13813.224888
3 Jan 2000 00:37:24.000,353.110,37.299,13822.168256
3 Jan 2000 00:37:34.000,353.284,37.169,13831.135743
3 Jan 2000 00:37:44.000,353.458,37.040,13840.127225
3 Jan 2000 00:37:54.000,353.630,36.911,13849.142576
3 Jan 2000 00:38:04.000,353.803,36.782,13858.181673
3 Jan 2000 00:38:14.000,353.975,36.653,13867.244390
3 Jan 2000 00:38:24.000,354.146,36.524,13876.330604
3 Jan 2000 00:38:34.000,354.317,36.394,13885.440191
3 Jan 2000 00:38:44.000,354.487,36.265,13894.573025
3 Jan 2000 00:38:54.000,354.656,36.136,13903.728984
3 Jan 2000 00:39:04.000,354.825,36.007,13912.907943
3 Jan 2000 00:39:14.000,354.994,35.877,13922.109778
3 Jan 2000 00:39:24.000,355.162,35.748,13931.334366
3 Jan 2000 00:39:34.000,355.329,35.619,13940.581584
3 Jan 2000 00:39:44.000,355.496,35.489,13949.851307
3 Jan 2000 00:39:54.000,355.663,35.360,13959.143413
3 Jan 2000 00:40:04.000,355.829,35.231,13968.457779
3 Jan 2000 00:40:14.000,355.994,35.102,13977.794281
3 Jan 2000 00:40:21.812,356.123,35.001,13985.102867

Interval Statistics
"Min Elevation",3 Jan 2000 00:40:21.812,356.123,35.001,13985.102867
"Max Elevation",2 Jan 2000 23:58:06.797,284.374,58.583,12645.296585
"Mean Elevation",,,50.881,
"Min Range",2 Jan 2000 23:57:55.598,283.913,58.582,12645.266470
"Max Range",3 Jan 2000 00:40:21.812,356.123,35.001,13985.102867
"Mean Range",,,,13039.104689

"Time (UTCG)","Azimuth (deg)","Elevation (deg)","Range (km)"
3 Jan 2000 07:51:10.549,10.886,44.431,13361.656793
3 Jan 2000 07:51:20.000,11.036,44.582,13352.645331
3 Jan 2000 07:51:30.000,11.195,44.742,13343.141298
3 Jan 2000 07:51:40.000,11.356,44.902,13333.669165
3 Jan 2000 07:51:50.000,11.517,45.062,13324.229085
3 Jan 2000 07:52:00.000,11.679,45.222,13314.821214
3 Jan 2000 07:52:10.000,11.841,45.382,13305.445707
3 Jan 2000 07:52:20.000,12.005,45.542,13296.102717
3 Jan 2000 07:52:30.000,12.169,45.702,13286.792400
3 Jan 2000 07:52:40.000,12.335,45.862,13277.514910
3 Jan 2000 07:52:50.000,12.501,46.022,13268.270401
3 Jan 2000 07:53:00.000,12.668,46.182,13259.059029
3 Jan 2000 07:53:10.000,12.836,46.342,13249.880947
3 Jan 2000 07:53:20.000,13.004,46.503,13240.736311
3 Jan 2000 07:53:30.000,13.174,46.663,13231.625275
3 Jan 2000 07:53:40.000,13.345,46.823,13222.547994
3 Jan 2000 07:53:50.000,13.516,46.983,13213.504621
3 Jan 2000 07:54:00.000,13.689,47.143,13204.495312
3 Jan 2000 07:54:10.000,13.862,47.304,13195.520220
3 Jan 2000 07:54:20.000,14.036,47.464,13186.579501
3 Jan 2000 07:54:30.000,14.212,47.624,13177.673307
3 Jan 2000 07:54:40.000,14.388,47.784,13168.801795
3 Jan 2000 07:54:50.000,14.565,47.945,13159.965117
3 Jan 2000 07:55:00.000,14.743,48.105,13151.163427
3 Jan 2000 07:55:10.000,14.923,48.265,13142.396881
3 Jan 2000 07:55:20.000,15.103,48.425,13133.665631
3 Jan 2000 07:55:30.000,15.284,48.585,13124.969831
3 Jan 2000 07:55:40.000,15.467,48.745,13116.309636
3 Jan 2000 07:55:50.000,15.650,48.906,13107.685198
3 Jan 2000 07:56:00.000,15.835,49.066,13099.096672
3 Jan 2000 07:56:10.000,16.020,49.226,13090.544211
3 Jan 2000 07:56:20.000,16.207,49.386,13082.027967
3 Jan 2000 07:56:30.000,16.395,49.546,13073.548094
3 Jan 2000 07:56:40.000,16.584,49.706,13065.104746
3 Jan 2000 07:56:50.000,16.774,49.866,13056.698075
3 Jan 2000 07:57:00.000,16.965,50.025,13048.328233
3 Jan 2000 07:57:10.000,17.158,50.185,13039.995374
3 Jan 2000 07:57:20.000,17.352,50.345,13031.699650
3 Jan 2000 07:57:30.000,17.546,50.505,13023.441214
3 Jan 2000 07:57:40.000,17.743,50.664,13015.220216
3 Jan 2000 07:57:50.000,17.940,50.824,13007.036810
3 Jan 2000 07:58:00.000,18.139,50.983,12998.891148
3 Jan 2000 07:58:10.000,18.338,51.143,12990.783380
3 Jan 2000 07:58:20.000,18.540,51.302,12982.713658
3 Jan 2000 07:58:30.000,18.742,51.461,12974.682134
3 Jan 2000 07:58:40.000,18.946,51.621,12966.688959
3 Jan 2000 07:58:50.000,19.151,51.780,12958.734284
3 Jan 2000 07:59:00.000,19.357,51.939,12950.818258
3 Jan 2000 07:59:10.000,19.565,52.097,12942.941033
3 Jan 2000 07:59:20.000,19.775,52.256,12935.102759
3 Jan 2000 07:59:30.000,19.985,52.415,12927.303586
3 Jan 2000 07:59:40.000,20.197,52.573,12919.543663
3 Jan 2000 07:59:50.000,20.411,52.732,12911.823141
3 Jan 2000 08:00:00.000,20.626,52.890,12904.142168
3 Jan 2000 08:00:10.000,20.842,53.048,12896.500893
3 Jan 2000 08:00:20.000,21.060,53.206,12888.899466
3 Jan 2000 08:00:30.000,21.280,53.364,12881.338034
3 Jan 2000 08:00:40.000,21.501,53.522,12873.816746
3 Jan 2000 08:00:50.000,21.723,53.680,12866.335750
3 Jan 2000 08:01:00.000,21.947,53.837,12858.895194
3 Jan 2000 08:01:10.000,22.173,53.994,12851.495225
3 Jan 2000 08:01:20.000,22.400,54.151,12844.135989
3 Jan 2000 08:01:30.000,22.629,54.308,12836.817635
3 Jan 2000 08:01:40.000,22.860,54.465,12829.540308
3 Jan 2000 08:01:50.000,23.092,54.622,12822.304155
3 Jan 2000 08:02:00.000,23.326,54.778,12815.109320
3 Jan 2000 08:02:10.000,23.562,54.934,12807.955951
3 Jan 2000 08:02:20.000,23.799,55.090,12800.844192
3 Jan 2000 08:02:30.000,24.038,55.246,12793.774188
3 Jan 2000 08:02:40.000,24.279,55.402,12786.746083
3 Jan 2000 08:02:50.000,24.522,55.557,12779.760022
3 Jan 2000 08:03:00.000,24.767,55.712,12772.816148
3 Jan 2000 08:03:10.000,25.013,55.867,12765.914605
3 Jan 2000 08:03:20.000,25.262,56.022,12759.055535
3 Jan 2000 08:03:30.000,25.512,56.176,12752.239082
3 Jan 2000 08:03:40.000,25.764,56.330,12745.465388
3 Jan 2000 08:03:50.000,26.018,56.484,12738.734595
3 Jan 2000 08:04:00.000,26.274,56.638,12732.046843
3 Jan 2000 08:04:10.000,26.532,56.791,12725.402275
3 Jan 2000 08:04:20.000,26.793,56.944,12718.801031
3 Jan 2000 08:04:30.000,27.055,57.097,12712.243250
3 Jan 2000 08:04:40.000,27.319,57.250,12705.729074
3 Jan 2000 08:04:50.000,27.585,57.402,12699.258641
3 Jan 2000 08:05:00.000,27.854,57.554,12692.832090
3 Jan 2000 08:05:10.000,28.125,57.705,12686.449560
3 Jan 2000 08:05:20.000,28.397,57.857,12680.111188
3 Jan 2000 08:05:30.000,28.672,58.007,12673.817113
3 Jan 2000 08:05:40.000,28.950,58.158,12667.567471
3 Jan 2000 08:05:50.000,29.229,58.308,12661.362400
3 Jan 2000 08:06:00.000,29.511,58.458,12655.202034
3 Jan 2000 08:06:10.000,29.795,58.607,12649.086511
3 Jan 2000 08:06:20.000,30.082,58.756,12643.015964
3 Jan 2000 08:06:30.000,30.371,58.905,12636.990529
3 Jan 2000 08:06:40.000,30.662,59.053,12631.010340
3 Jan 2000 08:06:50.000,30.956,59.201,12625.075531
3 Jan 2000 08:07:00.000,31.252,59.349,12619.186234
3 Jan 2000 08:07:10.000,31.551,59.496,12613.342582
3 Jan 2000 08:07:20.000,31.852,59.642,12607.544708
3 Jan 2000 08:07:30.000,32.156,59.788,12601.792742
3 Jan 2000 08:07:40.000,32.462,59.934,12596.086817
3 Jan 2000 08:07:50.000,32.771,60.079,12590.427061
3 Jan 2000 08:08:00.000,33.083,60.224,12584.813605
3 Jan 2000 08:08:10.000,33.397,60.368,12579.246578
3 Jan 2000 08:08:20.000,33.714,60.512,12573.726110
3 Jan 2000 08:08:30.000,34.034,60.655,12568.252327
3 Jan 2000 08:08:40.000,34.356,60.798,12562.825358
3 Jan 2000 08:08:50.000,34.682,60.940,12557.445329
3 Jan 2000 08:09:00.000,35.010,61.081,12552.112367
3 Jan 2000 08:09:10.000,35.341,61.222,12546.826597
3 Jan 2000 08:09:20.000,35.675,61.363,12541.588145
3 Jan 2000 08:09:30.000,36.012,61.503,12536.397134
3 Jan 2000 08:09:40.000,36.352,61.642,12531.253690
3 Jan 2000 08:09:50.000,36.694,61.780,12526.157934
3 Jan 2000 08:10:00.000,37.040,61.919,12521.109990
3 Jan 2000 08:10:10.000,37.389,62.056,12516.109979
3 Jan 2000 08:10:20.000,37.741,62.193,12511.158023
3 Jan 2000 08:10:30.000,38.096,62.329,12506.254241
3 Jan 2000 08:10:40.000,38.455,62.464,12501.398755
3 Jan 2000 08:10:50.000,38.816,62.599,12496.591683
3 Jan 2000 08:11:00.000,39.181,62.733,12491.833143
3 Jan 2000 08:11:10.000,39.549,62.866,12487.123254
3 Jan 2000 08:11:20.000,39.920,62.999,12482.462132
3 Jan 2000 08:11:30.000,40.294,63.130,12477.849895
3 Jan 2000 08:11:40.000,40.672,63.261,12473.286657
3 Jan 2000 08:11:50.000,41.054,63.392,12468.772533
3 Jan 2000 08:12:00.000,41.438,63.521,12464.307639
3 Jan 2000 08:12:10.000,41.826,63.650,12459.892087
3 Jan 2000 08:12:20.000,42.218,63.778,12455.525990
3 Jan 2000 08:12:30.000,42.613,63.905,12451.209460
3 Jan 2000 08:12:40.000,43.012,64.031,12446.942608
3 Jan 2000 08:12:50.000,43.414,64.156,12442.725546
3 Jan 2000 08:13:00.000,43.819,64.280,12438.558382
3 Jan 2000 08:13:10.000,44.229,64.404,12434.441225
3 Jan 2000 08:13:20.000,44.642,64.526,12430.374185
3 Jan 2000 08:13:30.000,45.058,64.648,12426.357367
3 Jan 2000 08:13:40.000,45.479,64.769,12422.390879
3 Jan 2000 08:13:50.000,45.903,64.888,12418.474827
3 Jan 2000 08:14:00.000,46.330,65.007,12414.609316
3 Jan 2000 08:14:10.000,46.762,65.125,12410.794449
3 Jan 2000 08:14:20.000,47.197,65.241,12407.030330
3 Jan 2000 08:14:30.000,47.636,65.357,12403.317062
3 Jan 2000 08:14:40.000,48.079,65.471,12399.654747
3 Jan 2000 08:14:50.000,48.526,65.585,12396.043484
3 Jan 2000 08:15:00.000,48.977,65.697,12392.483375
3 Jan 2000 08:15:10.000,49.431,65.808,12388.974518
3 Jan 2000 08:15:20.000,49.889,65.918,12385.517012
3 Jan 2000 08:15:30.000,50.352,66.027,12382.110955
3 Jan 2000 08:15:40.000,50.818,66.135,12378.756442
3 Jan 2000 08:15:50.000,51.288,66.242,12375.453570
3 Jan 2000 08:16:00.000,51.762,66.347,12372.202433
3 Jan 2000 08:16:10.000,52.240,66.451,12369.003125
3 Jan 2000 08:16:20.000,52.722,66.554,12365.855740
3 Jan 2000 08:16:30.000,53.208,66.655,12362.760370
3 Jan 2000 08:16:40.000,53.698,66.755,12359.717105
3 Jan 2000 08:16:50.000,54.192,66.854,12356.726037
3 Jan 2000 08:17:00.000,54.689,66.952,12353.787255
3 Jan 2000 08:17:10.000,55.191,67.048,12350.900846
3 Jan 2000 08:17:20.000,55.697,67.143,12348.066900
3 Jan 2000 08:17:30.000,56.207,67.236,12345.285502
3 Jan 2000 08:17:40.000,56.720,67.328,12342.556738
3 Jan 2000 08:17:50.000,57.238,67.419,12339.880693
3 Jan 2000 08:18:00.000,57.759,67.508,12337.257451
3 Jan 2000 08:18:10.000,58.284,67.596,12334.687095
3 Jan 2000 08:18:20.000,58.814,67.682,12332.169706
3 Jan 2000 08:18:30.000,59.347,67.766,12329.705366
3 Jan 2000 08:18:40.000,59.883,67.849,12327.294155
3 Jan 2000 08:18:50.000,60.424,67.931,12324.936152
3 Jan 2000 08:19:00.000,60.969,68.011,12322.631434
3 Jan 2000 08:19:10.000,61.517,68.089,12320.380079
3 Jan 2000 08:19:20.000,62.069,68.165,12318.182163
3 Jan 2000 08:19:30.000,62.624,68.240,12316.037761
3 Jan 2000 08:19:40.000,63.183,68.314,12313.946947
3 Jan 2000 08:19:50.000,63.746,68.385,12311.909794
3 Jan 2000 08:20:00.000,64.312,68.455,12309.926374
3 Jan 2000 08:20:10.000,64.882,68.523,12307.996759
3 Jan 2000 08:20:20.000,65.455,68.590,12306.121018
3 Jan 2000 08:20:30.000,66.032,68.655,12304.299220
3 Jan 2000 08:20:40.000,66.612,68.717,12302.531434
3 Jan 2000 08:20:50.000,67.195,68.779,12300.817726
3 Jan 2000 08:21:00.000,67.781,68.838,12299.158162
3 Jan 2000 08:21:10.000,68.371,68.895,12297.552808
3 Jan 2000 08:21:20.000,68.963,68.951,12296.001726
3 Jan 2000 08:21:30.000,69.559,69.004,12294.504980
3 Jan 2000 08:21:40.000,70.157,69.056,12293.062632
3 Jan 2000 08:21:50.000,70.758,69.106,12291.674742
3 Jan 2000 08:22:00.000,71.362,69.154,12290.341370
3 Jan 2000 08:22:10.000,71.969,69.200,12289.062575
3 Jan 2000 08:22:20.000,72.578,69.244,12287.838413
3 Jan 2000 08:22:30.000,73.189,69.286,12286.668942
3 Jan 2000 08:22:40.000,73.803,69.326,12285.554217
3 Jan 2000 08:22:50.000,74.419,69.364,12284.494291
3 Jan 2000 08:23:00.000,75.038,69.400,12283.489219
3 Jan 2000 08:23:10.000,75.658,69.434,12282.539052
3 Jan 2000 08:23:20.000,76.281,69.466,12281.643842
3 Jan 2000 08:23:30.000,76.905,69.496,12280.803638
3 Jan 2000 08:23:40.000,77.531,69.524,12280.018489
3 Jan 2000 08:23:50.000,78.158,69.550,12279.288443
3 Jan 2000 08:24:00.000,78.788,69.574,12278.613546
3 Jan 2000 08:24:10.000,79.418,69.596,12277.993844
3 Jan 2000 08:24:20.000,80.050,69.615,12277.429382
3 Jan 2000 08:24:30.000,80.683,69.633,12276.920202
3 Jan 2000 08:24:40.000,81.317,69.648,12276.466348
3 Jan 2000 08:24:50.000,81.952,69.661,12276.067859
3 Jan 2000 08:25:00.000,82.587,69.672,12275.724777
3 Jan 2000 08:25:10.000,83.224,69.681,12275.437139
3 Jan 2000 08:25:20.000,83.861,69.688,12275.204983
3 Jan 2000 08:25:30.000,84.498,69.693,12275.028347
3 Jan 2000 08:25:40.000,85.136,69.695,12274.907265
3 Jan 2000 08:25:50.000,85.773,69.696,12274.841772
3 Jan 2000 08:26:00.000,86.411,69.694,12274.831902
3 Jan 2000 08:26:10.000,87.049,69.690,12274.877685
3 Jan 2000 08:26:20.000,87.686,69.684,12274.979153
3 Jan 2000 08:26:30.000,88.323,69.676,12275.136336
3 Jan 2000 08:26:40.000,88.960,69.666,12275.349262
3 Jan 2000 08:26:50.000,89.596,69.653,12275.617959
3 Jan 2000 08:27:00.000,90.231,69.639,12275.942454
3 Jan 2000 08:27:10.000,90.866,69.622,12276.322771
3 Jan 2000 08:27:20.000,91.499,69.603,12276.758934
3 Jan 2000 08:27:30.000,92.131,69.582,12277.250966
3 Jan 2000 08:27:40.000,92.762,69.559,12277.798890
3 Jan 2000 08:27:50.000,93.392,69.534,12278.402725
3 Jan 2000 08:28:00.000,94.020,69.506,12279.062492
