cemeouhf_ael/Place-CEMID-Sensor-Sensor1-To-Satellite-POLMEO23_AER.csv

"Time (UTCG)","Azimuth (deg)","Elevation (deg)","Range (km)"
1 Jan 2000 12:00:00.000,243.194,45.520,13281.598442
1 Jan 2000 12:00:10.000,243.053,45.344,13291.765054
1 Jan 2000 12:00:20.000,242.914,45.167,13302.025449
1 Jan 2000 12:00:30.000,242.776,44.991,13312.334299
1 Jan 2000 12:00:40.000,242.639,44.814,13322.691408
1 Jan 2000 12:00:50.000,242.503,44.637,13333.096584
1 Jan 2000 12:01:00.000,242.368,44.460,13343.549629
1 Jan 2000 12:01:10.000,242.235,44.283,13354.050350
1 Jan 2000 12:01:20.000,242.103,44.106,13364.598549
1 Jan 2000 12:01:30.000,241.971,43.929,13375.194031
1 Jan 2000 12:01:40.000,241.842,43.751,13385.836599
1 Jan 2000 12:01:50.000,241.713,43.574,13396.526056
1 Jan 2000 12:02:00.000,241.585,43.397,13407.262205
1 Jan 2000 12:02:10.000,241.458,43.219,13418.044848
1 Jan 2000 12:02:20.000,241.333,43.042,13428.873787
1 Jan 2000 12:02:30.000,241.209,42.864,13439.748823
1 Jan 2000 12:02:40.000,241.085,42.686,13450.669760
1 Jan 2000 12:02:50.000,240.963,42.509,13461.636396
1 Jan 2000 12:03:00.000,240.842,42.331,13472.648534
1 Jan 2000 12:03:10.000,240.722,42.153,13483.705974
1 Jan 2000 12:03:20.000,240.602,41.975,13494.808516
1 Jan 2000 12:03:30.000,240.484,41.797,13505.955961
1 Jan 2000 12:03:40.000,240.367,41.619,13517.148107
1 Jan 2000 12:03:50.000,240.251,41.442,13528.384756
1 Jan 2000 12:04:00.000,240.136,41.264,13539.665705
1 Jan 2000 12:04:10.000,240.021,41.086,13550.990755
1 Jan 2000 12:04:20.000,239.908,40.908,13562.359704
1 Jan 2000 12:04:30.000,239.796,40.730,13573.772350
1 Jan 2000 12:04:40.000,239.684,40.552,13585.228494
1 Jan 2000 12:04:50.000,239.574,40.373,13596.727931
1 Jan 2000 12:05:00.000,239.464,40.195,13608.270462
1 Jan 2000 12:05:10.000,239.356,40.017,13619.855883
1 Jan 2000 12:05:20.000,239.248,39.839,13631.483993
1 Jan 2000 12:05:30.000,239.141,39.661,13643.154590
1 Jan 2000 12:05:40.000,239.035,39.483,13654.867469
1 Jan 2000 12:05:50.000,238.930,39.305,13666.622430
1 Jan 2000 12:06:00.000,238.825,39.127,13678.419269
1 Jan 2000 12:06:10.000,238.722,38.949,13690.257783
1 Jan 2000 12:06:20.000,238.619,38.771,13702.137770
1 Jan 2000 12:06:30.000,238.517,38.593,13714.059025
1 Jan 2000 12:06:40.000,238.416,38.415,13726.021346
1 Jan 2000 12:06:50.000,238.316,38.237,13738.024530
1 Jan 2000 12:07:00.000,238.217,38.060,13750.068372
1 Jan 2000 12:07:10.000,238.118,37.882,13762.152670
1 Jan 2000 12:07:20.000,238.020,37.704,13774.277219
1 Jan 2000 12:07:30.000,237.923,37.526,13786.441817
1 Jan 2000 12:07:40.000,237.826,37.348,13798.646258
1 Jan 2000 12:07:50.000,237.731,37.171,13810.890340
1 Jan 2000 12:08:00.000,237.636,36.993,13823.173859
1 Jan 2000 12:08:10.000,237.542,36.815,13835.496610
1 Jan 2000 12:08:20.000,237.448,36.638,13847.858389
1 Jan 2000 12:08:30.000,237.356,36.460,13860.258993
1 Jan 2000 12:08:40.000,237.264,36.283,13872.698218
1 Jan 2000 12:08:50.000,237.172,36.105,13885.175859
1 Jan 2000 12:09:00.000,237.082,35.928,13897.691712
1 Jan 2000 12:09:10.000,236.992,35.751,13910.245574
1 Jan 2000 12:09:20.000,236.902,35.573,13922.837240
1 Jan 2000 12:09:30.000,236.814,35.396,13935.466507
1 Jan 2000 12:09:40.000,236.726,35.219,13948.133170
1 Jan 2000 12:09:50.000,236.639,35.042,13960.837025
1 Jan 2000 12:09:52.327,236.618,35.001,13963.798162

Interval Statistics
"Min Elevation",1 Jan 2000 12:09:52.327,236.618,35.001,13963.798162
"Max Elevation",1 Jan 2000 12:00:00.000,243.194,45.520,13281.598442
"Mean Elevation",,,40.197,
"Min Range",1 Jan 2000 12:00:00.000,243.194,45.520,13281.598442
"Max Range",1 Jan 2000 12:09:52.327,236.618,35.001,13963.798162
"Mean Range",,,,13614.757731

"Time (UTCG)","Azimuth (deg)","Elevation (deg)","Range (km)"
1 Jan 2000 23:33:19.430,240.562,54.328,12823.448382
1 Jan 2000 23:33:29.000,240.858,54.437,12818.476046
1 Jan 2000 23:33:39.000,241.168,54.550,12813.327913
1 Jan 2000 23:33:49.000,241.480,54.663,12808.228411
1 Jan 2000 23:33:59.000,241.793,54.775,12803.177598
1 Jan 2000 23:34:09.000,242.109,54.886,12798.175531
1 Jan 2000 23:34:19.000,242.426,54.996,12793.222265
1 Jan 2000 23:34:29.000,242.745,55.106,12788.317857
1 Jan 2000 23:34:39.000,243.066,55.215,12783.462361
1 Jan 2000 23:34:49.000,243.389,55.323,12778.655829
1 Jan 2000 23:34:59.000,243.713,55.431,12773.898316
1 Jan 2000 23:35:09.000,244.040,55.538,12769.189871
1 Jan 2000 23:35:19.000,244.368,55.643,12764.530548
1 Jan 2000 23:35:29.000,244.698,55.749,12759.920395
1 Jan 2000 23:35:39.000,245.030,55.853,12755.359462
1 Jan 2000 23:35:49.000,245.363,55.957,12750.847798
1 Jan 2000 23:35:59.000,245.699,56.060,12746.385450
1 Jan 2000 23:36:09.000,246.036,56.162,12741.972464
1 Jan 2000 23:36:19.000,246.375,56.263,12737.608888
1 Jan 2000 23:36:29.000,246.716,56.363,12733.294764
1 Jan 2000 23:36:39.000,247.059,56.463,12729.030139
1 Jan 2000 23:36:49.000,247.404,56.561,12724.815054
1 Jan 2000 23:36:59.000,247.751,56.659,12720.649552
1 Jan 2000 23:37:09.000,248.099,56.756,12716.533675
1 Jan 2000 23:37:19.000,248.449,56.852,12712.467464
1 Jan 2000 23:37:29.000,248.801,56.948,12708.450957
1 Jan 2000 23:37:39.000,249.155,57.042,12704.484194
1 Jan 2000 23:37:49.000,249.511,57.136,12700.567212
1 Jan 2000 23:37:59.000,249.868,57.228,12696.700049
1 Jan 2000 23:38:09.000,250.227,57.320,12692.882740
1 Jan 2000 23:38:19.000,250.589,57.411,12689.115322
1 Jan 2000 23:38:29.000,250.951,57.500,12685.397827
1 Jan 2000 23:38:39.000,251.316,57.589,12681.730290
1 Jan 2000 23:38:49.000,251.683,57.677,12678.112743
1 Jan 2000 23:38:59.000,252.051,57.764,12674.545218
1 Jan 2000 23:39:09.000,252.421,57.850,12671.027745
1 Jan 2000 23:39:19.000,252.793,57.935,12667.560354
1 Jan 2000 23:39:29.000,253.167,58.019,12664.143074
1 Jan 2000 23:39:39.000,253.543,58.102,12660.775932
1 Jan 2000 23:39:49.000,253.920,58.184,12657.458957
1 Jan 2000 23:39:59.000,254.299,58.265,12654.192173
1 Jan 2000 23:40:09.000,254.680,58.345,12650.975606
1 Jan 2000 23:40:19.000,255.062,58.425,12647.809280
1 Jan 2000 23:40:29.000,255.446,58.502,12644.693219
1 Jan 2000 23:40:39.000,255.832,58.579,12641.627445
1 Jan 2000 23:40:49.000,256.220,58.655,12638.611980
1 Jan 2000 23:40:59.000,256.609,58.730,12635.646843
1 Jan 2000 23:41:09.000,257.000,58.804,12632.732055
1 Jan 2000 23:41:19.000,257.393,58.877,12629.867634
1 Jan 2000 23:41:29.000,257.787,58.948,12627.053597
1 Jan 2000 23:41:39.000,258.183,59.019,12624.289963
1 Jan 2000 23:41:49.000,258.581,59.088,12621.576746
1 Jan 2000 23:41:59.000,258.980,59.156,12618.913961
1 Jan 2000 23:42:09.000,259.380,59.224,12616.301623
1 Jan 2000 23:42:19.000,259.783,59.290,12613.739744
1 Jan 2000 23:42:29.000,260.187,59.355,12611.228337
1 Jan 2000 23:42:39.000,260.592,59.418,12608.767413
1 Jan 2000 23:42:49.000,260.999,59.481,12606.356981
1 Jan 2000 23:42:59.000,261.407,59.542,12603.997052
1 Jan 2000 23:43:09.000,261.817,59.603,12601.687633
1 Jan 2000 23:43:19.000,262.228,59.662,12599.428732
1 Jan 2000 23:43:29.000,262.641,59.720,12597.220355
1 Jan 2000 23:43:39.000,263.055,59.777,12595.062508
1 Jan 2000 23:43:49.000,263.471,59.832,12592.955195
1 Jan 2000 23:43:59.000,263.888,59.887,12590.898420
1 Jan 2000 23:44:09.000,264.306,59.940,12588.892186
1 Jan 2000 23:44:19.000,264.726,59.992,12586.936493
1 Jan 2000 23:44:29.000,265.147,60.043,12585.031344
1 Jan 2000 23:44:39.000,265.569,60.092,12583.176738
1 Jan 2000 23:44:49.000,265.992,60.141,12581.372673
1 Jan 2000 23:44:59.000,266.417,60.188,12579.619148
1 Jan 2000 23:45:09.000,266.842,60.233,12577.916159
1 Jan 2000 23:45:19.000,267.269,60.278,12576.263703
1 Jan 2000 23:45:29.000,267.697,60.321,12574.661774
1 Jan 2000 23:45:39.000,268.126,60.363,12573.110366
1 Jan 2000 23:45:49.000,268.557,60.404,12571.609474
1 Jan 2000 23:45:59.000,268.988,60.444,12570.159088
1 Jan 2000 23:46:09.000,269.420,60.482,12568.759201
1 Jan 2000 23:46:19.000,269.853,60.519,12567.409803
1 Jan 2000 23:46:29.000,270.288,60.555,12566.110882
1 Jan 2000 23:46:39.000,270.723,60.589,12564.862427
1 Jan 2000 23:46:49.000,271.159,60.622,12563.664427
1 Jan 2000 23:46:59.000,271.596,60.654,12562.516866
1 Jan 2000 23:47:09.000,272.033,60.685,12561.419732
1 Jan 2000 23:47:19.000,272.472,60.714,12560.373008
1 Jan 2000 23:47:29.000,272.911,60.742,12559.376679
1 Jan 2000 23:47:39.000,273.351,60.768,12558.430726
1 Jan 2000 23:47:49.000,273.791,60.794,12557.535133
1 Jan 2000 23:47:59.000,274.233,60.817,12556.689879
1 Jan 2000 23:48:09.000,274.674,60.840,12555.894945
1 Jan 2000 23:48:19.000,275.117,60.861,12555.150309
1 Jan 2000 23:48:29.000,275.560,60.881,12554.455950
1 Jan 2000 23:48:39.000,276.003,60.900,12553.811845
1 Jan 2000 23:48:49.000,276.447,60.917,12553.217970
1 Jan 2000 23:48:59.000,276.891,60.933,12552.674300
1 Jan 2000 23:49:09.000,277.336,60.948,12552.180810
1 Jan 2000 23:49:19.000,277.781,60.961,12551.737473
1 Jan 2000 23:49:29.000,278.226,60.973,12551.344261
1 Jan 2000 23:49:39.000,278.672,60.984,12551.001147
1 Jan 2000 23:49:49.000,279.118,60.993,12550.708100
1 Jan 2000 23:49:59.000,279.564,61.001,12550.465090
1 Jan 2000 23:50:09.000,280.010,61.008,12550.272087
1 Jan 2000 23:50:19.000,280.457,61.013,12550.129057
1 Jan 2000 23:50:29.000,280.903,61.017,12550.035969
1 Jan 2000 23:50:39.000,281.349,61.020,12549.992787
1 Jan 2000 23:50:49.000,281.796,61.021,12549.999477
1 Jan 2000 23:50:59.000,282.242,61.021,12550.056004
1 Jan 2000 23:51:09.000,282.689,61.020,12550.162329
1 Jan 2000 23:51:19.000,283.135,61.017,12550.318417
1 Jan 2000 23:51:29.000,283.581,61.013,12550.524228
1 Jan 2000 23:51:39.000,284.027,61.007,12550.779723
1 Jan 2000 23:51:49.000,284.473,61.001,12551.084862
1 Jan 2000 23:51:59.000,284.918,60.993,12551.439602
1 Jan 2000 23:52:09.000,285.364,60.983,12551.843903
1 Jan 2000 23:52:19.000,285.808,60.972,12552.297721
1 Jan 2000 23:52:29.000,286.253,60.960,12552.801012
1 Jan 2000 23:52:39.000,286.697,60.947,12553.353732
1 Jan 2000 23:52:49.000,287.141,60.932,12553.955834
1 Jan 2000 23:52:59.000,287.584,60.916,12554.607272
1 Jan 2000 23:53:09.000,288.026,60.899,12555.307999
1 Jan 2000 23:53:19.000,288.469,60.881,12556.057967
1 Jan 2000 23:53:29.000,288.910,60.861,12556.857125
1 Jan 2000 23:53:39.000,289.351,60.840,12557.705424
1 Jan 2000 23:53:49.000,289.791,60.817,12558.602813
1 Jan 2000 23:53:59.000,290.231,60.793,12559.549241
1 Jan 2000 23:54:09.000,290.670,60.768,12560.544654
1 Jan 2000 23:54:19.000,291.108,60.742,12561.588999
1 Jan 2000 23:54:29.000,291.545,60.714,12562.682221
1 Jan 2000 23:54:39.000,291.981,60.685,12563.824266
1 Jan 2000 23:54:49.000,292.417,60.655,12565.015077
1 Jan 2000 23:54:59.000,292.852,60.624,12566.254597
1 Jan 2000 23:55:09.000,293.286,60.591,12567.542769
1 Jan 2000 23:55:19.000,293.718,60.557,12568.879533
1 Jan 2000 23:55:29.000,294.150,60.522,12570.264830
1 Jan 2000 23:55:39.000,294.581,60.486,12571.698601
1 Jan 2000 23:55:49.000,295.011,60.448,12573.180783
1 Jan 2000 23:55:59.000,295.440,60.410,12574.711315
1 Jan 2000 23:56:09.000,295.868,60.370,12576.290134
1 Jan 2000 23:56:19.000,296.294,60.328,12577.917176
1 Jan 2000 23:56:29.000,296.720,60.286,12579.592377
1 Jan 2000 23:56:39.000,297.144,60.242,12581.315672
1 Jan 2000 23:56:49.000,297.567,60.197,12583.086995
1 Jan 2000 23:56:59.000,297.989,60.151,12584.906278
1 Jan 2000 23:57:09.000,298.409,60.104,12586.773455
1 Jan 2000 23:57:19.000,298.829,60.056,12588.688456
1 Jan 2000 23:57:29.000,299.247,60.006,12590.651212
1 Jan 2000 23:57:39.000,299.664,59.956,12592.661654
1 Jan 2000 23:57:49.000,300.079,59.904,12594.719710
1 Jan 2000 23:57:59.000,300.493,59.851,12596.825309
1 Jan 2000 23:58:09.000,300.906,59.797,12598.978378
1 Jan 2000 23:58:19.000,301.317,59.742,12601.178845
1 Jan 2000 23:58:29.000,301.727,59.686,12603.426635
1 Jan 2000 23:58:39.000,302.135,59.628,12605.721674
1 Jan 2000 23:58:49.000,302.542,59.570,12608.063886
1 Jan 2000 23:58:59.000,302.948,59.510,12610.453194
1 Jan 2000 23:59:09.000,303.352,59.450,12612.889523
1 Jan 2000 23:59:19.000,303.754,59.388,12615.372794
1 Jan 2000 23:59:29.000,304.155,59.325,12617.902929
1 Jan 2000 23:59:39.000,304.554,59.261,12620.479849
1 Jan 2000 23:59:49.000,304.952,59.197,12623.103473
1 Jan 2000 23:59:59.000,305.349,59.131,12625.773722
2 Jan 2000 00:00:09.000,305.743,59.064,12628.490512
2 Jan 2000 00:00:19.000,306.137,58.996,12631.253764
2 Jan 2000 00:00:29.000,306.528,58.927,12634.063393
2 Jan 2000 00:00:39.000,306.918,58.857,12636.919316
2 Jan 2000 00:00:49.000,307.306,58.786,12639.821449
2 Jan 2000 00:00:59.000,307.693,58.714,12642.769707
2 Jan 2000 00:01:09.000,308.078,58.641,12645.764005
2 Jan 2000 00:01:19.000,308.461,58.568,12648.804255
2 Jan 2000 00:01:29.000,308.843,58.493,12651.890371
2 Jan 2000 00:01:39.000,309.223,58.417,12655.022265
2 Jan 2000 00:01:49.000,309.601,58.340,12658.199849
2 Jan 2000 00:01:59.000,309.978,58.263,12661.423034
2 Jan 2000 00:02:09.000,310.353,58.184,12664.691730
2 Jan 2000 00:02:19.000,310.726,58.105,12668.005846
2 Jan 2000 00:02:29.000,311.098,58.025,12671.365292
2 Jan 2000 00:02:39.000,311.468,57.944,12674.769976
2 Jan 2000 00:02:49.000,311.836,57.862,12678.219805
2 Jan 2000 00:02:59.000,312.202,57.779,12681.714686
2 Jan 2000 00:03:09.000,312.567,57.695,12685.254526
2 Jan 2000 00:03:19.000,312.930,57.610,12688.839231
2 Jan 2000 00:03:29.000,313.291,57.525,12692.468705
2 Jan 2000 00:03:39.000,313.650,57.438,12696.142853
2 Jan 2000 00:03:49.000,314.008,57.351,12699.861579
2 Jan 2000 00:03:59.000,314.364,57.263,12703.624786
2 Jan 2000 00:04:09.000,314.718,57.175,12707.432377
2 Jan 2000 00:04:19.000,315.071,57.085,12711.284253
2 Jan 2000 00:04:29.000,315.422,56.995,12715.180316
2 Jan 2000 00:04:39.000,315.771,56.904,12719.120468
2 Jan 2000 00:04:49.000,316.118,56.812,12723.104607
2 Jan 2000 00:04:59.000,316.464,56.719,12727.132634
2 Jan 2000 00:05:09.000,316.808,56.626,12731.204448
2 Jan 2000 00:05:19.000,317.150,56.531,12735.319947
2 Jan 2000 00:05:29.000,317.490,56.437,12739.479029
2 Jan 2000 00:05:39.000,317.829,56.341,12743.681592
2 Jan 2000 00:05:49.000,318.166,56.245,12747.927532
2 Jan 2000 00:05:59.000,318.501,56.148,12752.216745
2 Jan 2000 00:06:09.000,318.835,56.050,12756.549128
2 Jan 2000 00:06:19.000,319.166,55.951,12760.924575
2 Jan 2000 00:06:29.000,319.496,55.852,12765.342982
2 Jan 2000 00:06:39.000,319.825,55.753,12769.804241
2 Jan 2000 00:06:49.000,320.151,55.652,12774.308247
2 Jan 2000 00:06:59.000,320.476,55.551,12778.854893
2 Jan 2000 00:07:09.000,320.800,55.449,12783.444071
2 Jan 2000 00:07:19.000,321.121,55.347,12788.075673
2 Jan 2000 00:07:29.000,321.441,55.244,12792.749590
2 Jan 2000 00:07:39.000,321.759,55.140,12797.465715
2 Jan 2000 00:07:49.000,322.076,55.036,12802.223937
2 Jan 2000 00:07:59.000,322.391,54.931,12807.024145
2 Jan 2000 00:08:09.000,322.704,54.826,12811.866231
2 Jan 2000 00:08:19.000,323.015,54.720,12816.750082
2 Jan 2000 00:08:29.000,323.325,54.613,12821.675588
2 Jan 2000 00:08:39.000,323.634,54.506,12826.642636
2 Jan 2000 00:08:49.000,323.940,54.398,12831.651115
2 Jan 2000 00:08:59.000,324.245,54.290,12836.700910
2 Jan 2000 00:09:09.000,324.549,54.181,12841.791910
2 Jan 2000 00:09:19.000,324.851,54.071,12846.924000
2 Jan 2000 00:09:29.000,325.151,53.962,12852.097067
2 Jan 2000 00:09:39.000,325.449,53.851,12857.310994
2 Jan 2000 00:09:49.000,325.746,53.740,12862.565669
2 Jan 2000 00:09:59.000,326.042,53.628,12867.860975
2 Jan 2000 00:10:09.000,326.336,53.516,12873.196796
2 Jan 2000 00:10:19.000,326.628,53.404,12878.573015
2 Jan 2000 00:10:29.000,326.919,53.291,12883.989518
2 Jan 2000 00:10:39.000,327.208,53.177,12889.446185
2 Jan 2000 00:10:49.000,327.495,53.063,12894.942900
2 Jan 2000 00:10:59.000,327.781,52.949,12900.479545
2 Jan 2000 00:11:09.000,328.066,52.834,12906.056002
2 Jan 2000 00:11:19.000,328.349,52.719,12911.672152
2 Jan 2000 00:11:29.000,328.631,52.603,12917.327875
2 Jan 2000 00:11:39.000,328.911,52.487,12923.023053
2 Jan 2000 00:11:49.000,329.189,52.370,12928.757566
2 Jan 2000 00:11:59.000,329.466,52.253,12934.531293
2 Jan 2000 00:12:09.000,329.742,52.135,12940.344114
2 Jan 2000 00:12:19.000,330.016,52.017,12946.195909
2 Jan 2000 00:12:29.000,330.289,51.899,12952.086556
2 Jan 2000 00:12:39.000,330.560,51.780,12958.015933
2 Jan 2000 00:12:49.000,330.830,51.661,12963.983919
2 Jan 2000 00:12:59.000,331.099,51.541,12969.990391
2 Jan 2000 00:13:09.000,331.366,51.421,12976.035227
2 Jan 2000 00:13:19.000,331.631,51.301,12982.118305
2 Jan 2000 00:13:29.000,331.896,51.180,12988.239500
2 Jan 2000 00:13:39.000,332.158,51.059,12994.398690
2 Jan 2000 00:13:49.000,332.420,50.938,13000.595751
2 Jan 2000 00:13:59.000,332.680,50.816,13006.830559
2 Jan 2000 00:14:09.000,332.939,50.694,13013.102988
2 Jan 2000 00:14:19.000,333.196,50.571,13019.412916
2 Jan 2000 00:14:29.000,333.452,50.449,13025.760216
2 Jan 2000 00:14:39.000,333.707,50.325,13032.144764
2 Jan 2000 00:14:49.000,333.961,50.202,13038.566434
2 Jan 2000 00:14:59.000,334.213,50.078,13045.025100
2 Jan 2000 00:15:09.000,334.464,49.954,13051.520637
2 Jan 2000 00:15:19.000,334.713,49.830,13058.052917
2 Jan 2000 00:15:29.000,334.962,49.705,13064.621816
2 Jan 2000 00:15:39.000,335.209,49.580,13071.227204
2 Jan 2000 00:15:49.000,335.454,49.455,13077.868957
2 Jan 2000 00:15:59.000,335.699,49.329,13084.546946
2 Jan 2000 00:16:09.000,335.942,49.203,13091.261044
2 Jan 2000 00:16:19.000,336.184,49.077,13098.011124
2 Jan 2000 00:16:29.000,336.425,48.951,13104.797057
2 Jan 2000 00:16:39.000,336.665,48.824,13111.618715
2 Jan 2000 00:16:49.000,336.903,48.697,13118.475970
2 Jan 2000 00:16:59.000,337.140,48.570,13125.368693
2 Jan 2000 00:17:09.000,337.376,48.442,13132.296755
2 Jan 2000 00:17:19.000,337.611,48.315,13139.260029
2 Jan 2000 00:17:29.000,337.845,48.187,13146.258383
2 Jan 2000 00:17:39.000,338.078,48.058,13153.291690
2 Jan 2000 00:17:49.000,338.309,47.930,13160.359818
2 Jan 2000 00:17:59.000,338.539,47.801,13167.462640
2 Jan 2000 00:18:09.000,338.768,47.673,13174.600024
2 Jan 2000 00:18:19.000,338.997,47.543,13181.771842
2 Jan 2000 00:18:29.000,339.223,47.414,13188.977961
2 Jan 2000 00:18:39.000,339.449,47.285,13196.218253
2 Jan 2000 00:18:49.000,339.674,47.155,13203.492587
2 Jan 2000 00:18:59.000,339.898,47.025,13210.800831
2 Jan 2000 00:19:09.000,340.120,46.895,13218.142855
2 Jan 2000 00:19:19.000,340.342,46.765,13225.518528
2 Jan 2000 00:19:29.000,340.562,46.634,13232.927720
2 Jan 2000 00:19:39.000,340.782,46.503,13240.370297
2 Jan 2000 00:19:49.000,341.000,46.372,13247.846131
2 Jan 2000 00:19:59.000,341.217,46.241,13255.355087
2 Jan 2000 00:20:09.000,341.434,46.110,13262.897036
2 Jan 2000 00:20:19.000,341.649,45.979,13270.471846
2 Jan 2000 00:20:29.000,341.863,45.847,13278.079383
2 Jan 2000 00:20:39.000,342.077,45.716,13285.719518
2 Jan 2000 00:20:49.000,342.289,45.584,13293.392117
2 Jan 2000 00:20:59.000,342.500,45.452,13301.097048
2 Jan 2000 00:21:09.000,342.711,45.319,13308.834179
2 Jan 2000 00:21:19.000,342.920,45.187,13316.603378
2 Jan 2000 00:21:29.000,343.129,45.055,13324.404512
2 Jan 2000 00:21:39.000,343.336,44.922,13332.237449
2 Jan 2000 00:21:49.000,343.543,44.789,13340.102057
2 Jan 2000 00:21:59.000,343.748,44.656,13347.998201
2 Jan 2000 00:22:09.000,343.953,44.523,13355.925751
2 Jan 2000 00:22:19.000,344.157,44.390,13363.884572
2 Jan 2000 00:22:29.000,344.360,44.257,13371.874533
2 Jan 2000 00:22:39.000,344.562,44.124,13379.895500
2 Jan 2000 00:22:49.000,344.763,43.990,13387.947341
2 Jan 2000 00:22:59.000,344.963,43.857,13396.029922
2 Jan 2000 00:23:09.000,345.163,43.723,13404.143110
2 Jan 2000 00:23:19.000,345.361,43.589,13412.286772
2 Jan 2000 00:23:29.000,345.559,43.455,13420.460775
2 Jan 2000 00:23:39.000,345.756,43.321,13428.664987
2 Jan 2000 00:23:49.000,345.952,43.187,13436.899273
2 Jan 2000 00:23:59.000,346.147,43.053,13445.163501
2 Jan 2000 00:24:09.000,346.341,42.918,13453.457537
2 Jan 2000 00:24:19.000,346.534,42.784,13461.781248
2 Jan 2000 00:24:29.000,346.727,42.650,13470.134501
2 Jan 2000 00:24:39.000,346.919,42.515,13478.517163
2 Jan 2000 00:24:49.000,347.110,42.380,13486.929101
2 Jan 2000 00:24:59.000,347.300,42.246,13495.370180
2 Jan 2000 00:25:09.000,347.490,42.111,13503.840269
2 Jan 2000 00:25:19.000,347.678,41.976,13512.339233
2 Jan 2000 00:25:29.000,347.866,41.841,13520.866939
2 Jan 2000 00:25:39.000,348.053,41.706,13529.423255
2 Jan 2000 00:25:49.000,348.240,41.571,13538.008047
2 Jan 2000 00:25:59.000,348.425,41.436,13546.621182
2 Jan 2000 00:26:09.000,348.610,41.301,13555.262526
2 Jan 2000 00:26:19.000,348.794,41.165,13563.931947
2 Jan 2000 00:26:29.000,348.978,41.030,13572.629312
2 Jan 2000 00:26:39.000,349.161,40.895,13581.354487
2 Jan 2000 00:26:49.000,349.343,40.759,13590.107339
2 Jan 2000 00:26:59.000,349.524,40.624,13598.887736
2 Jan 2000 00:27:09.000,349.704,40.489,13607.695545
2 Jan 2000 00:27:19.000,349.884,40.353,13616.530632
2 Jan 2000 00:27:29.000,350.063,40.217,13625.392865
2 Jan 2000 00:27:39.000,350.242,40.082,13634.282111
2 Jan 2000 00:27:49.000,350.419,39.946,13643.198238
2 Jan 2000 00:27:59.000,350.597,39.811,13652.141112
2 Jan 2000 00:28:09.000,350.773,39.675,13661.110602
2 Jan 2000 00:28:19.000,350.949,39.539,13670.106574
2 Jan 2000 00:28:29.000,351.124,39.403,13679.128897
2 Jan 2000 00:28:39.000,351.298,39.268,13688.177437
2 Jan 2000 00:28:49.000,351.472,39.132,13697.252064
2 Jan 2000 00:28:59.000,351.645,38.996,13706.352643
2 Jan 2000 00:29:09.000,351.818,38.860,13715.479044
2 Jan 2000 00:29:19.000,351.990,38.724,13724.631134
2 Jan 2000 00:29:29.000,352.161,38.589,13733.808782
2 Jan 2000 00:29:39.000,352.332,38.453,13743.011855
2 Jan 2000 00:29:49.000,352.502,38.317,13752.240221
2 Jan 2000 00:29:59.000,352.671,38.181,13761.493750
2 Jan 2000 00:30:09.000,352.840,38.045,13770.772310
2 Jan 2000 00:30:19.000,353.008,37.909,13780.075769
2 Jan 2000 00:30:29.000,353.176,37.773,13789.403995
2 Jan 2000 00:30:39.000,353.343,37.637,13798.756859
2 Jan 2000 00:30:49.000,353.509,37.502,13808.134227
2 Jan 2000 00:30:59.000,353.675,37.366,13817.535971
2 Jan 2000 00:31:09.000,353.840,37.230,13826.961958
2 Jan 2000 00:31:19.000,354.005,37.094,13836.412058
2 Jan 2000 00:31:29.000,354.169,36.958,13845.886140
2 Jan 2000 00:31:39.000,354.333,36.822,13855.384075
2 Jan 2000 00:31:49.000,354.496,36.686,13864.905730
2 Jan 2000 00:31:59.000,354.659,36.550,13874.450977
2 Jan 2000 00:32:09.000,354.821,36.415,13884.019685
2 Jan 2000 00:32:19.000,354.982,36.279,13893.611725
2 Jan 2000 00:32:29.000,355.143,36.143,13903.226966
2 Jan 2000 00:32:39.000,355.303,36.007,13912.865278
2 Jan 2000 00:32:49.000,355.463,35.872,13922.526533
2 Jan 2000 00:32:59.000,355.623,35.736,13932.210601
2 Jan 2000 00:33:09.000,355.781,35.600,13941.917353
2 Jan 2000 00:33:19.000,355.940,35.465,13951.646659
2 Jan 2000 00:33:29.000,356.098,35.329,13961.398390
2 Jan 2000 00:33:39.000,356.255,35.193,13971.172419
2 Jan 2000 00:33:49.000,356.412,35.058,13980.968616
2 Jan 2000 00:33:53.215,356.478,35.001,13985.104191

Interval Statistics
"Min Elevation",2 Jan 2000 00:33:53.215,356.478,35.001,13985.104191
"Max Elevation",1 Jan 2000 23:50:53.530,281.998,61.021,12550.018910
"Mean Elevation",,,52.978,
"Min Range",1 Jan 2000 23:50:42.659,281.513,61.020,12549.989451
"Max Range",2 Jan 2000 00:33:53.215,356.478,35.001,13985.104191
"Mean Range",,,,12938.024412

"Time (UTCG)","Azimuth (deg)","Elevation (deg)","Range (km)"
2 Jan 2000 07:46:15.491,13.496,45.570,13294.393667
2 Jan 2000 07:46:25.000,13.666,45.715,13285.945374
2 Jan 2000 07:46:35.000,13.846,45.868,13277.092441
2 Jan 2000 07:46:45.000,14.027,46.021,13268.272308
2 Jan 2000 07:46:55.000,14.209,46.174,13259.485123
2 Jan 2000 07:47:05.000,14.391,46.326,13250.731034
2 Jan 2000 07:47:15.000,14.575,46.479,13242.010189
2 Jan 2000 07:47:25.000,14.759,46.632,13233.322737
2 Jan 2000 07:47:35.000,14.945,46.784,13224.668827
2 Jan 2000 07:47:45.000,15.132,46.937,13216.048606
2 Jan 2000 07:47:55.000,15.319,47.089,13207.462222
2 Jan 2000 07:48:05.000,15.508,47.242,13198.909825
2 Jan 2000 07:48:15.000,15.697,47.394,13190.391562
2 Jan 2000 07:48:25.000,15.888,47.546,13181.907581
2 Jan 2000 07:48:35.000,16.079,47.699,13173.458030
2 Jan 2000 07:48:45.000,16.272,47.851,13165.043056
2 Jan 2000 07:48:55.000,16.466,48.003,13156.662808
2 Jan 2000 07:49:05.000,16.661,48.155,13148.317433
2 Jan 2000 07:49:15.000,16.857,48.307,13140.007079
2 Jan 2000 07:49:25.000,17.054,48.459,13131.731893
2 Jan 2000 07:49:35.000,17.252,48.611,13123.492022
2 Jan 2000 07:49:45.000,17.451,48.763,13115.287614
2 Jan 2000 07:49:55.000,17.651,48.914,13107.118816
2 Jan 2000 07:50:05.000,17.853,49.066,13098.985774
2 Jan 2000 07:50:15.000,18.056,49.217,13090.888635
2 Jan 2000 07:50:25.000,18.259,49.369,13082.827546
2 Jan 2000 07:50:35.000,18.465,49.520,13074.802654
2 Jan 2000 07:50:45.000,18.671,49.671,13066.814105
2 Jan 2000 07:50:55.000,18.878,49.822,13058.862045
2 Jan 2000 07:51:05.000,19.087,49.973,13050.946620
2 Jan 2000 07:51:15.000,19.297,50.124,13043.067976
2 Jan 2000 07:51:25.000,19.508,50.275,13035.226258
2 Jan 2000 07:51:35.000,19.721,50.425,13027.421613
2 Jan 2000 07:51:45.000,19.934,50.576,13019.654185
2 Jan 2000 07:51:55.000,20.150,50.726,13011.924120
2 Jan 2000 07:52:05.000,20.366,50.876,13004.231562
2 Jan 2000 07:52:15.000,20.584,51.026,12996.576657
2 Jan 2000 07:52:25.000,20.803,51.176,12988.959548
2 Jan 2000 07:52:35.000,21.023,51.326,12981.380381
2 Jan 2000 07:52:45.000,21.245,51.475,12973.839299
2 Jan 2000 07:52:55.000,21.468,51.625,12966.336446
2 Jan 2000 07:53:05.000,21.693,51.774,12958.871966
2 Jan 2000 07:53:15.000,21.919,51.923,12951.446002
2 Jan 2000 07:53:25.000,22.146,52.072,12944.058697
2 Jan 2000 07:53:35.000,22.375,52.220,12936.710195
2 Jan 2000 07:53:45.000,22.606,52.369,12929.400638
2 Jan 2000 07:53:55.000,22.838,52.517,12922.130168
2 Jan 2000 07:54:05.000,23.071,52.665,12914.898928
2 Jan 2000 07:54:15.000,23.306,52.813,12907.707058
2 Jan 2000 07:54:25.000,23.542,52.961,12900.554702
2 Jan 2000 07:54:35.000,23.780,53.108,12893.442001
2 Jan 2000 07:54:45.000,24.020,53.255,12886.369094
2 Jan 2000 07:54:55.000,24.261,53.402,12879.336124
2 Jan 2000 07:55:05.000,24.504,53.549,12872.343230
2 Jan 2000 07:55:15.000,24.748,53.696,12865.390552
2 Jan 2000 07:55:25.000,24.994,53.842,12858.478231
2 Jan 2000 07:55:35.000,25.242,53.988,12851.606406
2 Jan 2000 07:55:45.000,25.491,54.134,12844.775215
2 Jan 2000 07:55:55.000,25.743,54.279,12837.984799
2 Jan 2000 07:56:05.000,25.995,54.424,12831.235295
2 Jan 2000 07:56:15.000,26.250,54.569,12824.526841
2 Jan 2000 07:56:25.000,26.506,54.714,12817.859576
2 Jan 2000 07:56:35.000,26.764,54.858,12811.233636
2 Jan 2000 07:56:45.000,27.024,55.002,12804.649159
2 Jan 2000 07:56:55.000,27.286,55.146,12798.106281
2 Jan 2000 07:57:05.000,27.549,55.289,12791.605140
2 Jan 2000 07:57:15.000,27.815,55.432,12785.145870
2 Jan 2000 07:57:25.000,28.082,55.575,12778.728607
2 Jan 2000 07:57:35.000,28.351,55.717,12772.353487
2 Jan 2000 07:57:45.000,28.622,55.859,12766.020644
2 Jan 2000 07:57:55.000,28.895,56.001,12759.730212
2 Jan 2000 07:58:05.000,29.170,56.142,12753.482326
2 Jan 2000 07:58:15.000,29.447,56.283,12747.277119
2 Jan 2000 07:58:25.000,29.726,56.424,12741.114724
2 Jan 2000 07:58:35.000,30.007,56.564,12734.995274
2 Jan 2000 07:58:45.000,30.290,56.704,12728.918901
2 Jan 2000 07:58:55.000,30.575,56.843,12722.885737
2 Jan 2000 07:59:05.000,30.862,56.982,12716.895912
2 Jan 2000 07:59:15.000,31.151,57.121,12710.949559
2 Jan 2000 07:59:25.000,31.442,57.259,12705.046807
2 Jan 2000 07:59:35.000,31.736,57.397,12699.187787
2 Jan 2000 07:59:45.000,32.031,57.534,12693.372627
2 Jan 2000 07:59:55.000,32.329,57.671,12687.601457
2 Jan 2000 08:00:05.000,32.629,57.807,12681.874406
2 Jan 2000 08:00:15.000,32.931,57.943,12676.191600
2 Jan 2000 08:00:25.000,33.236,58.078,12670.553168
2 Jan 2000 08:00:35.000,33.542,58.213,12664.959237
2 Jan 2000 08:00:45.000,33.851,58.348,12659.409933
2 Jan 2000 08:00:55.000,34.163,58.481,12653.905383
2 Jan 2000 08:01:05.000,34.476,58.615,12648.445710
2 Jan 2000 08:01:15.000,34.793,58.748,12643.031041
2 Jan 2000 08:01:25.000,35.111,58.880,12637.661500
2 Jan 2000 08:01:35.000,35.432,59.012,12632.337210
2 Jan 2000 08:01:45.000,35.755,59.143,12627.058295
2 Jan 2000 08:01:55.000,36.081,59.273,12621.824877
2 Jan 2000 08:02:05.000,36.409,59.403,12616.637079
2 Jan 2000 08:02:15.000,36.739,59.533,12611.495022
2 Jan 2000 08:02:25.000,37.072,59.662,12606.398827
2 Jan 2000 08:02:35.000,37.408,59.790,12601.348614
2 Jan 2000 08:02:45.000,37.746,59.917,12596.344503
2 Jan 2000 08:02:55.000,38.087,60.044,12591.386613
2 Jan 2000 08:03:05.000,38.430,60.170,12586.475063
2 Jan 2000 08:03:15.000,38.776,60.296,12581.609971
2 Jan 2000 08:03:25.000,39.125,60.421,12576.791454
2 Jan 2000 08:03:35.000,39.476,60.545,12572.019629
2 Jan 2000 08:03:45.000,39.830,60.669,12567.294612
2 Jan 2000 08:03:55.000,40.187,60.791,12562.616518
2 Jan 2000 08:04:05.000,40.546,60.913,12557.985462
2 Jan 2000 08:04:15.000,40.908,61.035,12553.401558
2 Jan 2000 08:04:25.000,41.273,61.155,12548.864920
2 Jan 2000 08:04:35.000,41.640,61.275,12544.375661
2 Jan 2000 08:04:45.000,42.011,61.394,12539.933892
2 Jan 2000 08:04:55.000,42.384,61.513,12535.539725
2 Jan 2000 08:05:05.000,42.760,61.630,12531.193272
2 Jan 2000 08:05:15.000,43.138,61.747,12526.894642
2 Jan 2000 08:05:25.000,43.520,61.862,12522.643944
2 Jan 2000 08:05:35.000,43.904,61.977,12518.441287
2 Jan 2000 08:05:45.000,44.292,62.091,12514.286780
2 Jan 2000 08:05:55.000,44.682,62.205,12510.180529
2 Jan 2000 08:06:05.000,45.075,62.317,12506.122641
2 Jan 2000 08:06:15.000,45.471,62.428,12502.113222
2 Jan 2000 08:06:25.000,45.870,62.539,12498.152378
2 Jan 2000 08:06:35.000,46.272,62.649,12494.240212
2 Jan 2000 08:06:45.000,46.677,62.757,12490.376828
2 Jan 2000 08:06:55.000,47.085,62.865,12486.562329
2 Jan 2000 08:07:05.000,47.496,62.972,12482.796817
2 Jan 2000 08:07:15.000,47.910,63.077,12479.080394
2 Jan 2000 08:07:25.000,48.327,63.182,12475.413160
2 Jan 2000 08:07:35.000,48.747,63.286,12471.795215
2 Jan 2000 08:07:45.000,49.170,63.389,12468.226658
2 Jan 2000 08:07:55.000,49.596,63.490,12464.707587
2 Jan 2000 08:08:05.000,50.025,63.591,12461.238100
2 Jan 2000 08:08:15.000,50.457,63.690,12457.818294
2 Jan 2000 08:08:25.000,50.892,63.789,12454.448264
2 Jan 2000 08:08:35.000,51.330,63.886,12451.128106
2 Jan 2000 08:08:45.000,51.771,63.982,12447.857913
2 Jan 2000 08:08:55.000,52.215,64.077,12444.637780
2 Jan 2000 08:09:05.000,52.662,64.171,12441.467798
2 Jan 2000 08:09:15.000,53.112,64.264,12438.348060
2 Jan 2000 08:09:25.000,53.565,64.355,12435.278657
2 Jan 2000 08:09:35.000,54.021,64.446,12432.259679
2 Jan 2000 08:09:45.000,54.480,64.535,12429.291214
2 Jan 2000 08:09:55.000,54.943,64.622,12426.373352
2 Jan 2000 08:10:05.000,55.408,64.709,12423.506180
2 Jan 2000 08:10:15.000,55.876,64.794,12420.689785
2 Jan 2000 08:10:25.000,56.347,64.878,12417.924252
2 Jan 2000 08:10:35.000,56.821,64.961,12415.209667
2 Jan 2000 08:10:45.000,57.298,65.043,12412.546113
2 Jan 2000 08:10:55.000,57.778,65.123,12409.933674
2 Jan 2000 08:11:05.000,58.261,65.201,12407.372432
2 Jan 2000 08:11:15.000,58.746,65.279,12404.862469
2 Jan 2000 08:11:25.000,59.235,65.355,12402.403865
2 Jan 2000 08:11:35.000,59.726,65.429,12399.996699
2 Jan 2000 08:11:45.000,60.220,65.503,12397.641051
2 Jan 2000 08:11:55.000,60.717,65.574,12395.336998
2 Jan 2000 08:12:05.000,61.217,65.645,12393.084617
2 Jan 2000 08:12:15.000,61.719,65.714,12390.883984
2 Jan 2000 08:12:25.000,62.224,65.781,12388.735175
2 Jan 2000 08:12:35.000,62.732,65.847,12386.638262
2 Jan 2000 08:12:45.000,63.243,65.911,12384.593320
2 Jan 2000 08:12:55.000,63.755,65.974,12382.600420
2 Jan 2000 08:13:05.000,64.271,66.036,12380.659634
2 Jan 2000 08:13:15.000,64.789,66.095,12378.771032
2 Jan 2000 08:13:25.000,65.309,66.154,12376.934684
2 Jan 2000 08:13:35.000,65.832,66.210,12375.150657
2 Jan 2000 08:13:45.000,66.357,66.266,12373.419020
2 Jan 2000 08:13:55.000,66.885,66.319,12371.739839
2 Jan 2000 08:14:05.000,67.414,66.371,12370.113179
2 Jan 2000 08:14:15.000,67.946,66.421,12368.539105
2 Jan 2000 08:14:25.000,68.480,66.470,12367.017680
2 Jan 2000 08:14:35.000,69.017,66.517,12365.548968
2 Jan 2000 08:14:45.000,69.555,66.562,12364.133028
2 Jan 2000 08:14:55.000,70.095,66.606,12362.769923
2 Jan 2000 08:15:05.000,70.637,66.648,12361.459712
2 Jan 2000 08:15:15.000,71.181,66.688,12360.202453
2 Jan 2000 08:15:25.000,71.727,66.727,12358.998204
2 Jan 2000 08:15:35.000,72.274,66.763,12357.847022
2 Jan 2000 08:15:45.000,72.823,66.799,12356.748961
2 Jan 2000 08:15:55.000,73.374,66.832,12355.704077
2 Jan 2000 08:16:05.000,73.926,66.864,12354.712423
2 Jan 2000 08:16:15.000,74.480,66.893,12353.774052
2 Jan 2000 08:16:25.000,75.035,66.921,12352.889015
2 Jan 2000 08:16:35.000,75.591,66.948,12352.057362
2 Jan 2000 08:16:45.000,76.149,66.972,12351.279144
2 Jan 2000 08:16:55.000,76.708,66.995,12350.554408
2 Jan 2000 08:17:05.000,77.267,67.016,12349.883202
2 Jan 2000 08:17:15.000,77.828,67.035,12349.265571
2 Jan 2000 08:17:25.000,78.390,67.052,12348.701563
2 Jan 2000 08:17:35.000,78.952,67.068,12348.191219
2 Jan 2000 08:17:45.000,79.515,67.082,12347.734585
2 Jan 2000 08:17:55.000,80.079,67.094,12347.331701
2 Jan 2000 08:18:05.000,80.643,67.104,12346.982610
2 Jan 2000 08:18:15.000,81.208,67.112,12346.687350
2 Jan 2000 08:18:25.000,81.774,67.118,12346.445962
2 Jan 2000 08:18:35.000,82.339,67.123,12346.258482
2 Jan 2000 08:18:45.000,82.905,67.125,12346.124948
2 Jan 2000 08:18:55.000,83.471,67.126,12346.045395
2 Jan 2000 08:19:05.000,84.037,67.125,12346.019859
2 Jan 2000 08:19:15.000,84.603,67.122,12346.048372
2 Jan 2000 08:19:25.000,85.169,67.118,12346.130968
2 Jan 2000 08:19:35.000,85.734,67.111,12346.267677
2 Jan 2000 08:19:45.000,86.300,67.103,12346.458531
2 Jan 2000 08:19:55.000,86.865,67.093,12346.703558
2 Jan 2000 08:20:05.000,87.429,67.081,12347.002787
2 Jan 2000 08:20:15.000,87.993,67.067,12347.356245
2 Jan 2000 08:20:25.000,88.557,67.051,12347.763957
2 Jan 2000 08:20:35.000,89.119,67.033,12348.225950
2 Jan 2000 08:20:45.000,89.681,67.014,12348.742247
2 Jan 2000 08:20:55.000,90.242,66.993,12349.312870
2 Jan 2000 08:21:05.000,90.802,66.969,12349.937842
2 Jan 2000 08:21:15.000,91.361,66.945,12350.617183
2 Jan 2000 08:21:25.000,91.919,66.918,12351.350912
2 Jan 2000 08:21:35.000,92.476,66.889,12352.139049
2 Jan 2000 08:21:45.000,93.031,66.859,12352.981609
2 Jan 2000 08:21:55.000,93.585,66.827,12353.878611
2 Jan 2000 08:22:05.000,94.138,66.793,12354.830068
2 Jan 2000 08:22:15.000,94.689,66.757,12355.835995
2 Jan 2000 08:22:25.000,95.238,66.720,12356.896405
2 Jan 2000 08:22:35.000,95.786,66.681,12358.011309
2 Jan 2000 08:22:45.000,96.332,66.640,12359.180719
2 Jan 2000 08:22:55.000,96.876,66.597,12360.404644
2 Jan 2000 08:23:05.000,97.419,66.553,12361.683093
2 Jan 2000 08:23:15.000,97.960,66.506,12363.016073
2 Jan 2000 08:23:25.000,98.498,66.458,12364.403590
2 Jan 2000 08:23:35.000,99.035,66.409,12365.845650
2 Jan 2000 08:23:45.000,99.569,66.358,12367.342256
2 Jan 2000 08:23:55.000,100.101,66.305,12368.893413
2 Jan 2000 08:24:05.000,100.631,66.250,12370.499122
2 Jan 2000 08:24:15.000,101.159,66.194,12372.159383
2 Jan 2000 08:24:25.000,101.685,66.136,12373.874196
2 Jan 2000 08:24:35.000,102.208,66.076,12375.643561
2 Jan 2000 08:24:45.000,102.728,66.015,12377.467475
2 Jan 2000 08:24:55.000,103.246,65.952,12379.345933
2 Jan 2000 08:25:05.000,103.762,65.887,12381.278932
2 Jan 2000 08:25:15.000,104.275,65.821,12383.266466
2 Jan 2000 08:25:25.000,104.785,65.754,12385.308527
2 Jan 2000 08:25:35.000,105.293,65.685,12387.405108
2 Jan 2000 08:25:45.000,105.798,65.614,12389.556200
2 Jan 2000 08:25:55.000,106.300,65.542,12391.761793
2 Jan 2000 08:26:05.000,106.800,65.468,12394.021875
2 Jan 2000 08:26:15.000,107.297,65.393,12396.336434
2 Jan 2000 08:26:25.000,107.791,65.316,12398.705457
2 Jan 2000 08:26:35.000,108.282,65.238,12401.128929
2 Jan 2000 08:26:45.000,108.770,65.158,12403.606834
2 Jan 2000 08:26:55.000,109.255,65.077,12406.139156
2 Jan 2000 08:27:05.000,109.738,64.994,12408.725878
2 Jan 2000 08:27:15.000,110.217,64.911,12411.366979
2 Jan 2000 08:27:25.000,110.693,64.825,12414.062440
2 Jan 2000 08:27:35.000,111.167,64.738,12416.812240
2 Jan 2000 08:27:45.000,111.637,64.650,12419.616357
2 Jan 2000 08:27:55.000,112.104,64.561,12422.474768
2 Jan 2000 08:28:05.000,112.568,64.470,12425.387448
2 Jan 2000 08:28:15.000,113.030,64.378,12428.354373
2 Jan 2000 08:28:25.000,113.488,64.285,12431.375514
2 Jan 2000 08:28:35.000,113.943,64.190,12434.450846
2 Jan 2000 08:28:45.000,114.395,64.094,12437.580339
2 Jan 2000 08:28:55.000,114.843,63.997,12440.763964
2 Jan 2000 08:29:05.000,115.289,63.898,12444.001690
2 Jan 2000 08:29:15.000,115.732,63.798,12447.293485
2 Jan 2000 08:29:25.000,116.171,63.697,12450.639316
2 Jan 2000 08:29:35.000,116.607,63.595,12454.039149
2 Jan 2000 08:29:45.000,117.040,63.492,12457.492950
2 Jan 2000 08:29:55.000,117.471,63.387,12461.000682
2 Jan 2000 08:30:05.000,117.897,63.282,12464.562309
2 Jan 2000 08:30:15.000,118.321,63.175,12468.177791
2 Jan 2000 08:30:25.000,118.742,63.067,12471.847091
2 Jan 2000 08:30:35.000,119.159,62.958,12475.570167
2 Jan 2000 08:30:45.000,119.574,62.848,12479.346978
2 Jan 2000 08:30:55.000,119.985,62.737,12483.177483
2 Jan 2000 08:31:05.000,120.393,62.625,12487.061637
2 Jan 2000 08:31:15.000,120.799,62.511,12490.999396
2 Jan 2000 08:31:25.000,121.201,62.397,12494.990715
2 Jan 2000 08:31:35.000,121.600,62.282,12499.035548
2 Jan 2000 08:31:45.000,121.995,62.165,12503.133847
2 Jan 2000 08:31:55.000,122.388,62.048,12507.285563
2 Jan 2000 08:32:05.000,122.778,61.930,12511.490647
2 Jan 2000 08:32:15.000,123.165,61.810,12515.749048
2 Jan 2000 08:32:25.000,123.549,61.690,12520.060715
2 Jan 2000 08:32:35.000,123.930,61.569,12524.425596
2 Jan 2000 08:32:45.000,124.307,61.447,12528.843636
2 Jan 2000 08:32:55.000,124.682,61.324,12533.314782
2 Jan 2000 08:33:05.000,125.054,61.200,12537.838977
2 Jan 2000 08:33:15.000,125.423,61.075,12542.416166
2 Jan 2000 08:33:25.000,125.789,60.950,12547.046290
2 Jan 2000 08:33:35.000,126.152,60.823,12551.729292
2 Jan 2000 08:33:45.000,126.512,60.696,12556.465111
2 Jan 2000 08:33:55.000,126.870,60.568,12561.253687
2 Jan 2000 08:34:05.000,127.224,60.439,12566.094959
2 Jan 2000 08:34:15.000,127.576,60.309,12570.988865
2 Jan 2000 08:34:25.000,127.925,60.178,12575.935340
2 Jan 2000 08:34:35.000,128.271,60.047,12580.934322
2 Jan 2000 08:34:45.000,128.614,59.915,12585.985743
2 Jan 2000 08:34:55.000,128.954,59.782,12591.089539
2 Jan 2000 08:35:05.000,129.292,59.648,12596.245642
2 Jan 2000 08:35:15.000,129.627,59.514,12601.453984
2 Jan 2000 08:35:25.000,129.959,59.379,12606.714496
2 Jan 2000 08:35:35.000,130.289,59.243,12612.027108
2 Jan 2000 08:35:45.000,130.616,59.107,12617.391748
2 Jan 2000 08:35:55.000,130.940,58.970,12622.808346
2 Jan 2000 08:36:05.000,131.262,58.832,12628.276828
2 Jan 2000 08:36:15.000,131.581,58.694,12633.797121
2 Jan 2000 08:36:25.000,131.898,58.554,12639.369149
2 Jan 2000 08:36:35.000,132.212,58.415,12644.992839
2 Jan 2000 08:36:45.000,132.524,58.274,12650.668112
2 Jan 2000 08:36:55.000,132.833,58.133,12656.394893
2 Jan 2000 08:37:05.000,133.139,57.992,12662.173102
2 Jan 2000 08:37:15.000,133.443,57.850,12668.002661
2 Jan 2000 08:37:25.000,133.745,57.707,12673.883489
2 Jan 2000 08:37:35.000,134.044,57.564,12679.815507
2 Jan 2000 08:37:45.000,134.341,57.420,12685.798631
2 Jan 2000 08:37:55.000,134.635,57.275,12691.832781
2 Jan 2000 08:38:05.000,134.927,57.130,12697.917871
2 Jan 2000 08:38:15.000,135.217,56.985,12704.053818
2 Jan 2000 08:38:25.000,135.504,56.839,12710.240537
2 Jan 2000 08:38:35.000,135.789,56.692,12716.477942
2 Jan 2000 08:38:45.000,136.072,56.545,12722.765945
2 Jan 2000 08:38:55.000,136.353,56.397,12729.104460
2 Jan 2000 08:39:05.000,136.631,56.249,12735.493398
2 Jan 2000 08:39:15.000,136.907,56.101,12741.932670
2 Jan 2000 08:39:25.000,137.181,55.951,12748.422184
2 Jan 2000 08:39:35.000,137.453,55.802,12754.961851
2 Jan 2000 08:39:45.000,137.723,55.652,12761.551579
2 Jan 2000 08:39:55.000,137.990,55.502,12768.191275
2 Jan 2000 08:40:05.000,138.256,55.351,12774.880846
2 Jan 2000 08:40:15.000,138.519,55.199,12781.620197
2 Jan 2000 08:40:25.000,138.780,55.048,12788.409234
2 Jan 2000 08:40:35.000,139.040,54.896,12795.247861
2 Jan 2000 08:40:45.000,139.297,54.743,12802.135981
2 Jan 2000 08:40:55.000,139.552,54.590,12809.073498
2 Jan 2000 08:41:05.000,139.805,54.437,12816.060313
2 Jan 2000 08:41:15.000,140.057,54.283,12823.096327
2 Jan 2000 08:41:25.000,140.306,54.129,12830.181442
2 Jan 2000 08:41:35.000,140.554,53.975,12837.315555
2 Jan 2000 08:41:45.000,140.799,53.820,12844.498568
2 Jan 2000 08:41:55.000,141.043,53.665,12851.730377
2 Jan 2000 08:42:05.000,141.284,53.509,12859.010881
2 Jan 2000 08:42:15.000,141.524,53.353,12866.339976
2 Jan 2000 08:42:25.000,141.762,53.197,12873.717558
2 Jan 2000 08:42:35.000,141.999,53.041,12881.143522
2 Jan 2000 08:42:45.000,142.233,52.884,12888.617764
2 Jan 2000 08:42:55.000,142.466,52.727,12896.140177
2 Jan 2000 08:43:05.000,142.697,52.569,12903.710654
2 Jan 2000 08:43:15.000,142.926,52.411,12911.329089
2 Jan 2000 08:43:25.000,143.154,52.253,12918.995372
2 Jan 2000 08:43:35.000,143.380,52.095,12926.709395
2 Jan 2000 08:43:45.000,143.604,51.936,12934.471049
2 Jan 2000 08:43:55.000,143.826,51.777,12942.280224
2 Jan 2000 08:44:05.000,144.047,51.618,12950.136808
2 Jan 2000 08:44:15.000,144.266,51.459,12958.040690
2 Jan 2000 08:44:25.000,144.484,51.299,12965.991758
2 Jan 2000 08:44:35.000,144.700,51.139,12973.989900
2 Jan 2000 08:44:45.000,144.914,50.979,12982.035002
2 Jan 2000 08:44:55.000,145.127,50.818,12990.126950
2 Jan 2000 08:45:05.000,145.338,50.658,12998.265629
2 Jan 2000 08:45:15.000,145.548,50.497,13006.450925
2 Jan 2000 08:45:25.000,145.756,50.336,13014.682720
2 Jan 2000 08:45:35.000,145.963,50.174,13022.960900
2 Jan 2000 08:45:45.000,146.168,50.013,13031.285346
2 Jan 2000 08:45:55.000,146.372,49.851,13039.655941
2 Jan 2000 08:46:05.000,146.575,49.689,13048.072567
2 Jan 2000 08:46:15.000,146.775,49.527,13056.535106
2 Jan 2000 08:46:25.000,146.975,49.364,13065.043436
2 Jan 2000 08:46:35.000,147.173,49.202,13073.597440
2 Jan 2000 08:46:45.000,147.370,49.039,13082.196995
2 Jan 2000 08:46:55.000,147.565,48.876,13090.841981
2 Jan 2000 08:47:05.000,147.759,48.713,13099.532277
2 Jan 2000 08:47:15.000,147.951,48.550,13108.267760
2 Jan 2000 08:47:25.000,148.143,48.386,13117.048307
2 Jan 2000 08:47:35.000,148.333,48.223,13125.873795
2 Jan 2000 08:47:45.000,148.521,48.059,13134.744101
2 Jan 2000 08:47:55.000,148.708,47.895,13143.659099
2 Jan 2000 08:48:05.000,148.895,47.731,13152.618666
2 Jan 2000 08:48:15.000,149.079,47.566,13161.622675
2 Jan 2000 08:48:25.000,149.263,47.402,13170.671001
2 Jan 2000 08:48:35.000,149.445,47.238,13179.763518
2 Jan 2000 08:48:45.000,149.626,47.073,13188.900099
2 Jan 2000 08:48:55.000,149.806,46.908,13198.080615
2 Jan 2000 08:49:05.000,149.984,46.743,13207.304941
2 Jan 2000 08:49:15.000,150.162,46.578,13216.572946
2 Jan 2000 08:49:25.000,150.338,46.413,13225.884503
2 Jan 2000 08:49:35.000,150.513,46.248,13235.239482
2 Jan 2000 08:49:45.000,150.687,46.082,13244.637753
2 Jan 2000 08:49:55.000,150.860,45.917,13254.079187
2 Jan 2000 08:50:05.000,151.031,45.751,13263.563653
2 Jan 2000 08:50:15.000,151.202,45.585,13273.091020
2 Jan 2000 08:50:25.000,151.371,45.420,13282.661155
2 Jan 2000 08:50:35.000,151.539,45.254,13292.273928
2 Jan 2000 08:50:45.000,151.706,45.088,13301.929207
2 Jan 2000 08:50:55.000,151.872,44.922,13311.626857
2 Jan 2000 08:51:05.000,152.037,44.755,13321.366747
2 Jan 2000 08:51:15.000,152.201,44.589,13331.148742
2 Jan 2000 08:51:25.000,152.364,44.423,13340.972709
2 Jan 2000 08:51:35.000,152.526,44.257,13350.838514
2 Jan 2000 08:51:45.000,152.687,44.090,13360.746021
2 Jan 2000 08:51:55.000,152.847,43.924,13370.695095
2 Jan 2000 08:52:05.000,153.006,43.757,13380.685602
2 Jan 2000 08:52:15.000,153.163,43.590,13390.717405
2 Jan 2000 08:52:25.000,153.320,43.424,13400.790367
2 Jan 2000 08:52:35.000,153.476,43.257,13410.904353
2 Jan 2000 08:52:45.000,153.631,43.090,13421.059225
2 Jan 2000 08:52:55.000,153.785,42.923,13431.254847
2 Jan 2000 08:53:05.000,153.938,42.756,13441.491080
2 Jan 2000 08:53:15.000,154.090,42.589,13451.767786
2 Jan 2000 08:53:25.000,154.241,42.422,13462.084827
2 Jan 2000 08:53:35.000,154.391,42.255,13472.442065
2 Jan 2000 08:53:45.000,154.540,42.088,13482.839361
2 Jan 2000 08:53:55.000,154.689,41.921,13493.276574
2 Jan 2000 08:54:05.000,154.836,41.754,13503.753567
2 Jan 2000 08:54:15.000,154.983,41.586,13514.270198
2 Jan 2000 08:54:25.000,155.128,41.419,13524.826328
2 Jan 2000 08:54:35.000,155.273,41.252,13535.421816
2 Jan 2000 08:54:45.000,155.417,41.085,13546.056521
2 Jan 2000 08:54:55.000,155.560,40.917,13556.730303
2 Jan 2000 08:55:05.000,155.703,40.750,13567.443019
2 Jan 2000 08:55:15.000,155.844,40.583,13578.194529
2 Jan 2000 08:55:25.000,155.985,40.415,13588.984690
2 Jan 2000 08:55:35.000,156.124,40.248,13599.813361
2 Jan 2000 08:55:45.000,156.263,40.081,13610.680398
2 Jan 2000 08:55:55.000,156.401,39.913,13621.585660
2 Jan 2000 08:56:05.000,156.539,39.746,13632.529003
2 Jan 2000 08:56:15.000,156.675,39.578,13643.510284
2 Jan 2000 08:56:25.000,156.811,39.411,13654.529360
2 Jan 2000 08:56:35.000,156.946,39.244,13665.586088
2 Jan 2000 08:56:45.000,157.080,39.076,13676.680322
2 Jan 2000 08:56:55.000,157.214,38.909,13687.811920
2 Jan 2000 08:57:05.000,157.347,38.742,13698.980737
2 Jan 2000 08:57:15.000,157.479,38.574,13710.186629
2 Jan 2000 08:57:25.000,157.610,38.407,13721.429450
2 Jan 2000 08:57:35.000,157.740,38.240,13732.709056
2 Jan 2000 08:57:45.000,157.870,38.072,13744.025302
2 Jan 2000 08:57:55.000,157.999,37.905,13755.378043
2 Jan 2000 08:58:05.000,158.127,37.738,13766.767132
2 Jan 2000 08:58:15.000,158.255,37.570,13778.192425
2 Jan 2000 08:58:25.000,158.382,37.403,13789.653776
2 Jan 2000 08:58:35.000,158.508,37.236,13801.151038
2 Jan 2000 08:58:45.000,158.634,37.069,13812.684065
2 Jan 2000 08:58:55.000,158.758,36.902,13824.252711
2 Jan 2000 08:59:05.000,158.883,36.734,13835.856830
2 Jan 2000 08:59:15.000,159.006,36.567,13847.496274
2 Jan 2000 08:59:25.000,159.129,36.400,13859.170897
2 Jan 2000 08:59:35.000,159.251,36.233,13870.880553
2 Jan 2000 08:59:45.000,159.373,36.066,13882.625093
2 Jan 2000 08:59:55.000,159.493,35.899,13894.404371
2 Jan 2000 09:00:05.000,159.614,35.732,13906.218239
2 Jan 2000 09:00:15.000,159.733,35.565,13918.066550
2 Jan 2000 09:00:25.000,159.852,35.399,13929.949156
2 Jan 2000 09:00:35.000,159.971,35.232,13941.865910
2 Jan 2000 09:00:45.000,160.088,35.065,13953.816663
2 Jan 2000 09:00:48.848,160.133,35.001,13958.424310

Interval Statistics
"Min Elevation",2 Jan 2000 09:00:48.848,160.133,35.001,13958.424310
"Max Elevation",2 Jan 2000 08:18:54.587,83.447,67.126,12346.047611
"Mean Elevation",,,56.088,
"Min Range",2 Jan 2000 08:19:04.725,84.021,67.125,12346.019838
"Max Range",2 Jan 2000 09:00:48.848,160.133,35.001,13958.424310
"Mean Range",,,,12802.424270

"Time (UTCG)","Azimuth (deg)","Elevation (deg)","Range (km)"
2 Jan 2000 20:05:38.055,128.081,46.778,13208.012255
2 Jan 2000 20:05:48.000,127.971,46.966,13197.500107
2 Jan 2000 20:05:58.000,127.859,47.155,13186.977233
2 Jan 2000 20:06:08.000,127.747,47.344,13176.502552
2 Jan 2000 20:06:18.000,127.633,47.533,13166.076258
2 Jan 2000 20:06:28.000,127.518,47.722,13155.698544
2 Jan 2000 20:06:38.000,127.401,47.911,13145.369605
2 Jan 2000 20:06:48.000,127.284,48.100,13135.089634
2 Jan 2000 20:06:58.000,127.165,48.289,13124.858824
2 Jan 2000 20:07:08.000,127.045,48.477,13114.677366
2 Jan 2000 20:07:18.000,126.924,48.666,13104.545453
2 Jan 2000 20:07:28.000,126.801,48.855,13094.463277
2 Jan 2000 20:07:38.000,126.677,49.044,13084.431028
2 Jan 2000 20:07:48.000,126.552,49.233,13074.448896
2 Jan 2000 20:07:58.000,126.426,49.421,13064.517073
2 Jan 2000 20:08:08.000,126.298,49.610,13054.635748
2 Jan 2000 20:08:18.000,126.168,49.798,13044.805109
2 Jan 2000 20:08:28.000,126.038,49.987,13035.025345
2 Jan 2000 20:08:38.000,125.906,50.175,13025.296644
2 Jan 2000 20:08:48.000,125.772,50.364,13015.619194
2 Jan 2000 20:08:58.000,125.637,50.552,13005.993183
2 Jan 2000 20:09:08.000,125.500,50.740,12996.418795
2 Jan 2000 20:09:18.000,125.362,50.929,12986.896217
2 Jan 2000 20:09:28.000,125.223,51.117,12977.425635
2 Jan 2000 20:09:38.000,125.081,51.305,12968.007233
2 Jan 2000 20:09:48.000,124.939,51.492,12958.641195
2 Jan 2000 20:09:58.000,124.794,51.680,12949.327705
2 Jan 2000 20:10:08.000,124.648,51.868,12940.066946
2 Jan 2000 20:10:18.000,124.501,52.055,12930.859101
2 Jan 2000 20:10:28.000,124.351,52.243,12921.704350
2 Jan 2000 20:10:38.000,124.201,52.430,12912.602875
2 Jan 2000 20:10:48.000,124.048,52.617,12903.554856
2 Jan 2000 20:10:58.000,123.893,52.804,12894.560474
2 Jan 2000 20:11:08.000,123.737,52.991,12885.619906
2 Jan 2000 20:11:18.000,123.579,53.178,12876.733333
2 Jan 2000 20:11:28.000,123.419,53.365,12867.900931
2 Jan 2000 20:11:38.000,123.257,53.551,12859.122877
2 Jan 2000 20:11:48.000,123.094,53.737,12850.399348
2 Jan 2000 20:11:58.000,122.928,53.923,12841.730519
2 Jan 2000 20:12:08.000,122.761,54.109,12833.116565
2 Jan 2000 20:12:18.000,122.591,54.295,12824.557661
2 Jan 2000 20:12:28.000,122.420,54.481,12816.053979
2 Jan 2000 20:12:38.000,122.247,54.666,12807.605693
2 Jan 2000 20:12:48.000,122.071,54.851,12799.212974
2 Jan 2000 20:12:58.000,121.893,55.036,12790.875993
2 Jan 2000 20:13:08.000,121.714,55.220,12782.594921
2 Jan 2000 20:13:18.000,121.532,55.405,12774.369926
2 Jan 2000 20:13:28.000,121.348,55.589,12766.201179
2 Jan 2000 20:13:38.000,121.161,55.773,12758.088845
2 Jan 2000 20:13:48.000,120.973,55.957,12750.033094
2 Jan 2000 20:13:58.000,120.782,56.140,12742.034090
2 Jan 2000 20:14:08.000,120.589,56.323,12734.091998
2 Jan 2000 20:14:18.000,120.393,56.506,12726.206985
2 Jan 2000 20:14:28.000,120.195,56.688,12718.379212
2 Jan 2000 20:14:38.000,119.995,56.871,12710.608843
2 Jan 2000 20:14:48.000,119.792,57.053,12702.896039
2 Jan 2000 20:14:58.000,119.587,57.234,12695.240962
2 Jan 2000 20:15:08.000,119.379,57.415,12687.643770
2 Jan 2000 20:15:18.000,119.169,57.596,12680.104625
2 Jan 2000 20:15:28.000,118.956,57.777,12672.623682
2 Jan 2000 20:15:38.000,118.740,57.957,12665.201100
2 Jan 2000 20:15:48.000,118.522,58.137,12657.837035
2 Jan 2000 20:15:58.000,118.300,58.316,12650.531642
2 Jan 2000 20:16:08.000,118.076,58.495,12643.285075
2 Jan 2000 20:16:18.000,117.850,58.674,12636.097488
2 Jan 2000 20:16:28.000,117.620,58.852,12628.969032
2 Jan 2000 20:16:38.000,117.387,59.030,12621.899859
2 Jan 2000 20:16:48.000,117.152,59.207,12614.890119
2 Jan 2000 20:16:58.000,116.913,59.384,12607.939962
2 Jan 2000 20:17:08.000,116.672,59.561,12601.049536
2 Jan 2000 20:17:18.000,116.427,59.737,12594.218987
2 Jan 2000 20:17:28.000,116.180,59.912,12587.448461
2 Jan 2000 20:17:38.000,115.929,60.087,12580.738105
2 Jan 2000 20:17:48.000,115.674,60.261,12574.088061
2 Jan 2000 20:17:58.000,115.417,60.435,12567.498472
2 Jan 2000 20:18:08.000,115.156,60.609,12560.969481
2 Jan 2000 20:18:18.000,114.892,60.781,12554.501227
2 Jan 2000 20:18:28.000,114.624,60.954,12548.093850
2 Jan 2000 20:18:38.000,114.353,61.125,12541.747489
2 Jan 2000 20:18:48.000,114.079,61.296,12535.462280
2 Jan 2000 20:18:58.000,113.801,61.467,12529.238361
2 Jan 2000 20:19:08.000,113.519,61.636,12523.075865
2 Jan 2000 20:19:18.000,113.233,61.806,12516.974926
2 Jan 2000 20:19:28.000,112.944,61.974,12510.935677
2 Jan 2000 20:19:38.000,112.651,62.142,12504.958250
2 Jan 2000 20:19:48.000,112.354,62.309,12499.042774
2 Jan 2000 20:19:58.000,112.053,62.475,12493.189378
2 Jan 2000 20:20:08.000,111.749,62.641,12487.398190
2 Jan 2000 20:20:18.000,111.440,62.806,12481.669337
2 Jan 2000 20:20:28.000,111.127,62.970,12476.002944
2 Jan 2000 20:20:38.000,110.810,63.133,12470.399135
2 Jan 2000 20:20:48.000,110.489,63.296,12464.858033
2 Jan 2000 20:20:58.000,110.164,63.457,12459.379759
2 Jan 2000 20:21:08.000,109.834,63.618,12453.964433
2 Jan 2000 20:21:18.000,109.501,63.778,12448.612175
2 Jan 2000 20:21:28.000,109.162,63.937,12443.323102
2 Jan 2000 20:21:38.000,108.819,64.096,12438.097330
2 Jan 2000 20:21:48.000,108.472,64.253,12432.934975
2 Jan 2000 20:21:58.000,108.120,64.409,12427.836150
2 Jan 2000 20:22:08.000,107.764,64.564,12422.800967
2 Jan 2000 20:22:18.000,107.403,64.719,12417.829539
2 Jan 2000 20:22:28.000,107.037,64.872,12412.921973
2 Jan 2000 20:22:38.000,106.666,65.024,12408.078380
2 Jan 2000 20:22:48.000,106.291,65.176,12403.298866
2 Jan 2000 20:22:58.000,105.910,65.326,12398.583536
2 Jan 2000 20:23:08.000,105.525,65.475,12393.932495
2 Jan 2000 20:23:18.000,105.135,65.623,12389.345845
2 Jan 2000 20:23:28.000,104.739,65.770,12384.823689
2 Jan 2000 20:23:38.000,104.339,65.915,12380.366127
2 Jan 2000 20:23:48.000,103.933,66.060,12375.973256
2 Jan 2000 20:23:58.000,103.522,66.203,12371.645175
2 Jan 2000 20:24:08.000,103.106,66.345,12367.381978
2 Jan 2000 20:24:18.000,102.685,66.485,12363.183762
2 Jan 2000 20:24:28.000,102.258,66.625,12359.050618
2 Jan 2000 20:24:38.000,101.826,66.763,12354.982638
2 Jan 2000 20:24:48.000,101.388,66.899,12350.979913
2 Jan 2000 20:24:58.000,100.945,67.034,12347.042530
2 Jan 2000 20:25:08.000,100.496,67.168,12343.170577
2 Jan 2000 20:25:18.000,100.042,67.300,12339.364140
2 Jan 2000 20:25:28.000,99.582,67.431,12335.623303
2 Jan 2000 20:25:38.000,99.117,67.561,12331.948149
2 Jan 2000 20:25:48.000,98.646,67.688,12328.338759
2 Jan 2000 20:25:58.000,98.169,67.815,12324.795212
2 Jan 2000 20:26:08.000,97.686,67.939,12321.317587
2 Jan 2000 20:26:18.000,97.198,68.062,12317.905960
2 Jan 2000 20:26:28.000,96.704,68.184,12314.560408
2 Jan 2000 20:26:38.000,96.204,68.303,12311.281002
2 Jan 2000 20:26:48.000,95.699,68.421,12308.067816
2 Jan 2000 20:26:58.000,95.187,68.537,12304.920921
2 Jan 2000 20:27:08.000,94.670,68.652,12301.840384
2 Jan 2000 20:27:18.000,94.147,68.764,12298.826274
2 Jan 2000 20:27:28.000,93.618,68.875,12295.878657
2 Jan 2000 20:27:38.000,93.084,68.984,12292.997596
2 Jan 2000 20:27:48.000,92.544,69.091,12290.183155
2 Jan 2000 20:27:58.000,91.998,69.196,12287.435395
2 Jan 2000 20:28:08.000,91.446,69.299,12284.754376
2 Jan 2000 20:28:18.000,90.888,69.399,12282.140155
2 Jan 2000 20:28:28.000,90.325,69.498,12279.592790
2 Jan 2000 20:28:38.000,89.756,69.595,12277.112335
2 Jan 2000 20:28:48.000,89.182,69.690,12274.698843
2 Jan 2000 20:28:58.000,88.602,69.782,12272.352366
2 Jan 2000 20:29:08.000,88.016,69.873,12270.072955
2 Jan 2000 20:29:18.000,87.425,69.961,12267.860657
2 Jan 2000 20:29:28.000,86.829,70.047,12265.715520
2 Jan 2000 20:29:38.000,86.227,70.131,12263.637589
2 Jan 2000 20:29:48.000,85.621,70.212,12261.626907
2 Jan 2000 20:29:58.000,85.009,70.291,12259.683516
2 Jan 2000 20:30:08.000,84.392,70.368,12257.807458
2 Jan 2000 20:30:18.000,83.770,70.442,12255.998770
2 Jan 2000 20:30:28.000,83.143,70.514,12254.257490
2 Jan 2000 20:30:38.000,82.512,70.583,12252.583654
2 Jan 2000 20:30:48.000,81.875,70.650,12250.977294
2 Jan 2000 20:30:58.000,81.235,70.715,12249.438444
2 Jan 2000 20:31:08.000,80.590,70.776,12247.967134
2 Jan 2000 20:31:18.000,79.941,70.836,12246.563393
2 Jan 2000 20:31:28.000,79.287,70.892,12245.227247
2 Jan 2000 20:31:38.000,78.630,70.947,12243.958724
2 Jan 2000 20:31:48.000,77.969,70.998,12242.757846
2 Jan 2000 20:31:58.000,77.305,71.047,12241.624636
2 Jan 2000 20:32:08.000,76.637,71.093,12240.559115
2 Jan 2000 20:32:18.000,75.966,71.137,12239.561301
2 Jan 2000 20:32:28.000,75.291,71.177,12238.631212
2 Jan 2000 20:32:38.000,74.614,71.215,12237.768864
2 Jan 2000 20:32:48.000,73.934,71.251,12236.974270
2 Jan 2000 20:32:58.000,73.252,71.283,12236.247443
2 Jan 2000 20:33:08.000,72.567,71.313,12235.588393
2 Jan 2000 20:33:18.000,71.880,71.340,12234.997130
2 Jan 2000 20:33:28.000,71.192,71.364,12234.473661
2 Jan 2000 20:33:38.000,70.501,71.385,12234.017991
2 Jan 2000 20:33:48.000,69.809,71.404,12233.630125
2 Jan 2000 20:33:58.000,69.116,71.419,12233.310064
2 Jan 2000 20:34:08.000,68.422,71.432,12233.057810
2 Jan 2000 20:34:18.000,67.727,71.442,12232.873361
2 Jan 2000 20:34:28.000,67.032,71.449,12232.756715
2 Jan 2000 20:34:38.000,66.336,71.453,12232.707866
2 Jan 2000 20:34:48.000,65.640,71.454,12232.726810
2 Jan 2000 20:34:58.000,64.944,71.453,12232.813539
2 Jan 2000 20:35:08.000,64.248,71.448,12232.968042
2 Jan 2000 20:35:18.000,63.553,71.441,12233.190310
2 Jan 2000 20:35:28.000,62.858,71.431,12233.480329
2 Jan 2000 20:35:38.000,62.165,71.418,12233.838085
2 Jan 2000 20:35:48.000,61.473,71.402,12234.263561
2 Jan 2000 20:35:58.000,60.782,71.383,12234.756741
2 Jan 2000 20:36:08.000,60.093,71.362,12235.317605
2 Jan 2000 20:36:18.000,59.405,71.338,12235.946131
2 Jan 2000 20:36:28.000,58.720,71.310,12236.642297
2 Jan 2000 20:36:38.000,58.037,71.281,12237.406079
2 Jan 2000 20:36:48.000,57.356,71.248,12238.237451
2 Jan 2000 20:36:58.000,56.679,71.212,12239.136385
2 Jan 2000 20:37:08.000,56.003,71.174,12240.102851
2 Jan 2000 20:37:18.000,55.331,71.133,12241.136820
2 Jan 2000 20:37:28.000,54.663,71.090,12242.238257
2 Jan 2000 20:37:38.000,53.997,71.043,12243.407130
2 Jan 2000 20:37:48.000,53.336,70.994,12244.643401
2 Jan 2000 20:37:58.000,52.678,70.943,12245.947034
2 Jan 2000 20:38:08.000,52.023,70.889,12247.317990
2 Jan 2000 20:38:18.000,51.373,70.832,12248.756227
2 Jan 2000 20:38:28.000,50.728,70.772,12250.261703
2 Jan 2000 20:38:38.000,50.086,70.711,12251.834375
2 Jan 2000 20:38:48.000,49.449,70.646,12253.474196
2 Jan 2000 20:38:58.000,48.817,70.579,12255.181120
2 Jan 2000 20:39:08.000,48.189,70.510,12256.955097
2 Jan 2000 20:39:18.000,47.566,70.438,12258.796078
2 Jan 2000 20:39:28.000,46.948,70.364,12260.704009
2 Jan 2000 20:39:38.000,46.335,70.287,12262.678838
2 Jan 2000 20:39:48.000,45.728,70.208,12264.720508
2 Jan 2000 20:39:58.000,45.125,70.127,12266.828964
2 Jan 2000 20:40:08.000,44.528,70.043,12269.004147
2 Jan 2000 20:40:18.000,43.937,69.958,12271.245996
2 Jan 2000 20:40:28.000,43.351,69.870,12273.554451
2 Jan 2000 20:40:38.000,42.770,69.779,12275.929448
2 Jan 2000 20:40:48.000,42.195,69.687,12278.370922
2 Jan 2000 20:40:58.000,41.626,69.592,12280.878808
2 Jan 2000 20:41:08.000,41.062,69.496,12283.453036
2 Jan 2000 20:41:18.000,40.504,69.397,12286.093539
2 Jan 2000 20:41:28.000,39.952,69.297,12288.800244
2 Jan 2000 20:41:38.000,39.405,69.194,12291.573081
2 Jan 2000 20:41:48.000,38.865,69.089,12294.411974
2 Jan 2000 20:41:58.000,38.330,68.983,12297.316848
2 Jan 2000 20:42:08.000,37.802,68.874,12300.287626
2 Jan 2000 20:42:18.000,37.279,68.764,12303.324230
2 Jan 2000 20:42:28.000,36.762,68.652,12306.426579
2 Jan 2000 20:42:38.000,36.250,68.538,12309.594593
2 Jan 2000 20:42:48.000,35.745,68.422,12312.828188
2 Jan 2000 20:42:58.000,35.246,68.305,12316.127280
2 Jan 2000 20:43:08.000,34.752,68.186,12319.491782
2 Jan 2000 20:43:18.000,34.265,68.065,12322.921607
2 Jan 2000 20:43:28.000,33.783,67.943,12326.416667
2 Jan 2000 20:43:38.000,33.307,67.819,12329.976871
2 Jan 2000 20:43:48.000,32.836,67.693,12333.602128
2 Jan 2000 20:43:58.000,32.372,67.566,12337.292343
2 Jan 2000 20:44:08.000,31.913,67.437,12341.047423
2 Jan 2000 20:44:18.000,31.460,67.307,12344.867271
2 Jan 2000 20:44:28.000,31.013,67.175,12348.751790
2 Jan 2000 20:44:38.000,30.571,67.042,12352.700880
2 Jan 2000 20:44:48.000,30.135,66.908,12356.714443
2 Jan 2000 20:44:58.000,29.704,66.772,12360.792375
2 Jan 2000 20:45:08.000,29.279,66.635,12364.934574
2 Jan 2000 20:45:18.000,28.860,66.496,12369.140935
2 Jan 2000 20:45:28.000,28.446,66.356,12373.411353
2 Jan 2000 20:45:38.000,28.037,66.215,12377.745720
2 Jan 2000 20:45:48.000,27.633,66.073,12382.143928
2 Jan 2000 20:45:58.000,27.235,65.930,12386.605866
2 Jan 2000 20:46:08.000,26.842,65.785,12391.131425
2 Jan 2000 20:46:18.000,26.455,65.639,12395.720490
2 Jan 2000 20:46:28.000,26.072,65.492,12400.372949
2 Jan 2000 20:46:38.000,25.694,65.344,12405.088685
2 Jan 2000 20:46:48.000,25.322,65.195,12409.867584
2 Jan 2000 20:46:58.000,24.954,65.045,12414.709525
2 Jan 2000 20:47:08.000,24.592,64.894,12419.614392
2 Jan 2000 20:47:18.000,24.234,64.741,12424.582063
2 Jan 2000 20:47:28.000,23.881,64.588,12429.612417
2 Jan 2000 20:47:38.000,23.532,64.434,12434.705331
2 Jan 2000 20:47:48.000,23.189,64.279,12439.860681
2 Jan 2000 20:47:58.000,22.850,64.123,12445.078341
2 Jan 2000 20:48:08.000,22.516,63.966,12450.358185
2 Jan 2000 20:48:18.000,22.186,63.808,12455.700086
2 Jan 2000 20:48:28.000,21.860,63.649,12461.103914
2 Jan 2000 20:48:38.000,21.539,63.489,12466.569539
2 Jan 2000 20:48:48.000,21.223,63.329,12472.096829
2 Jan 2000 20:48:58.000,20.910,63.168,12477.685653
