cemeouhf_ael/Place-CEMID-Sensor-Sensor1-To-Satellite-POLMEO13_AER.csv

"Time (UTCG)","Azimuth (deg)","Elevation (deg)","Range (km)"
1 Jan 2000 17:06:56.107,220.034,51.758,12943.656250
1 Jan 2000 17:07:06.000,220.265,51.908,12936.238178
1 Jan 2000 17:07:16.000,220.501,52.061,12928.787464
1 Jan 2000 17:07:26.000,220.738,52.212,12921.384322
1 Jan 2000 17:07:36.000,220.978,52.364,12914.028853
1 Jan 2000 17:07:46.000,221.218,52.515,12906.721159
1 Jan 2000 17:07:56.000,221.461,52.666,12899.461342
1 Jan 2000 17:08:06.000,221.705,52.816,12892.249501
1 Jan 2000 17:08:16.000,221.951,52.967,12885.085736
1 Jan 2000 17:08:26.000,222.199,53.116,12877.970147
1 Jan 2000 17:08:36.000,222.449,53.266,12870.902831
1 Jan 2000 17:08:46.000,222.701,53.414,12863.883885
1 Jan 2000 17:08:56.000,222.954,53.563,12856.913407
1 Jan 2000 17:09:06.000,223.209,53.711,12849.991492
1 Jan 2000 17:09:16.000,223.467,53.859,12843.118236
1 Jan 2000 17:09:26.000,223.726,54.006,12836.293733
1 Jan 2000 17:09:36.000,223.987,54.153,12829.518078
1 Jan 2000 17:09:46.000,224.249,54.299,12822.791362
1 Jan 2000 17:09:56.000,224.514,54.445,12816.113678
1 Jan 2000 17:10:06.000,224.781,54.591,12809.485118
1 Jan 2000 17:10:16.000,225.050,54.736,12802.905772
1 Jan 2000 17:10:26.000,225.321,54.881,12796.375731
1 Jan 2000 17:10:36.000,225.594,55.025,12789.895083
1 Jan 2000 17:10:46.000,225.868,55.168,12783.463916
1 Jan 2000 17:10:56.000,226.145,55.312,12777.082319
1 Jan 2000 17:11:06.000,226.424,55.454,12770.750378
1 Jan 2000 17:11:16.000,226.705,55.596,12764.468180
1 Jan 2000 17:11:26.000,226.989,55.738,12758.235808
1 Jan 2000 17:11:36.000,227.274,55.879,12752.053348
1 Jan 2000 17:11:46.000,227.561,56.020,12745.920883
1 Jan 2000 17:11:56.000,227.851,56.160,12739.838496
1 Jan 2000 17:12:06.000,228.143,56.299,12733.806268
1 Jan 2000 17:12:16.000,228.437,56.438,12727.824282
1 Jan 2000 17:12:26.000,228.733,56.577,12721.892616
1 Jan 2000 17:12:36.000,229.031,56.714,12716.011350
1 Jan 2000 17:12:46.000,229.332,56.852,12710.180563
1 Jan 2000 17:12:56.000,229.635,56.988,12704.400333
1 Jan 2000 17:13:06.000,229.940,57.124,12698.670736
1 Jan 2000 17:13:16.000,230.247,57.260,12692.991848
1 Jan 2000 17:13:26.000,230.557,57.394,12687.363745
1 Jan 2000 17:13:36.000,230.869,57.529,12681.786500
1 Jan 2000 17:13:46.000,231.184,57.662,12676.260186
1 Jan 2000 17:13:56.000,231.501,57.795,12670.784877
1 Jan 2000 17:14:06.000,231.820,57.927,12665.360644
1 Jan 2000 17:14:16.000,232.142,58.058,12659.987558
1 Jan 2000 17:14:26.000,232.466,58.189,12654.665687
1 Jan 2000 17:14:36.000,232.792,58.319,12649.395102
1 Jan 2000 17:14:46.000,233.121,58.449,12644.175870
1 Jan 2000 17:14:56.000,233.453,58.577,12639.008059
1 Jan 2000 17:15:06.000,233.786,58.705,12633.891734
1 Jan 2000 17:15:16.000,234.123,58.832,12628.826960
1 Jan 2000 17:15:26.000,234.462,58.959,12623.813803
1 Jan 2000 17:15:36.000,234.803,59.084,12618.852325
1 Jan 2000 17:15:46.000,235.147,59.209,12613.942589
1 Jan 2000 17:15:56.000,235.494,59.333,12609.084656
1 Jan 2000 17:16:06.000,235.843,59.457,12604.278588
1 Jan 2000 17:16:16.000,236.194,59.579,12599.524443
1 Jan 2000 17:16:26.000,236.548,59.701,12594.822281
1 Jan 2000 17:16:36.000,236.905,59.822,12590.172159
1 Jan 2000 17:16:46.000,237.265,59.941,12585.574134
1 Jan 2000 17:16:56.000,237.627,60.061,12581.028263
1 Jan 2000 17:17:06.000,237.992,60.179,12576.534599
1 Jan 2000 17:17:16.000,238.359,60.296,12572.093197
1 Jan 2000 17:17:26.000,238.729,60.413,12567.704110
1 Jan 2000 17:17:36.000,239.102,60.528,12563.367390
1 Jan 2000 17:17:46.000,239.477,60.643,12559.083088
1 Jan 2000 17:17:56.000,239.855,60.757,12554.851254
1 Jan 2000 17:18:06.000,240.236,60.869,12550.671937
1 Jan 2000 17:18:16.000,240.619,60.981,12546.545186
1 Jan 2000 17:18:26.000,241.006,61.092,12542.471047
1 Jan 2000 17:18:36.000,241.394,61.202,12538.449566
1 Jan 2000 17:18:46.000,241.786,61.311,12534.480789
1 Jan 2000 17:18:56.000,242.180,61.418,12530.564760
1 Jan 2000 17:19:06.000,242.578,61.525,12526.701522
1 Jan 2000 17:19:16.000,242.977,61.631,12522.891118
1 Jan 2000 17:19:26.000,243.380,61.736,12519.133587
1 Jan 2000 17:19:36.000,243.785,61.839,12515.428971
1 Jan 2000 17:19:46.000,244.193,61.942,12511.777309
1 Jan 2000 17:19:56.000,244.604,62.043,12508.178638
1 Jan 2000 17:20:06.000,245.018,62.144,12504.632997
1 Jan 2000 17:20:16.000,245.434,62.243,12501.140420
1 Jan 2000 17:20:26.000,245.853,62.341,12497.700943
1 Jan 2000 17:20:36.000,246.274,62.438,12494.314600
1 Jan 2000 17:20:46.000,246.699,62.534,12490.981424
1 Jan 2000 17:20:56.000,247.126,62.629,12487.701447
1 Jan 2000 17:21:06.000,247.556,62.722,12484.474701
1 Jan 2000 17:21:16.000,247.989,62.815,12481.301214
1 Jan 2000 17:21:26.000,248.424,62.906,12478.181016
1 Jan 2000 17:21:36.000,248.862,62.996,12475.114134
1 Jan 2000 17:21:46.000,249.302,63.084,12472.100597
1 Jan 2000 17:21:56.000,249.746,63.172,12469.140428
1 Jan 2000 17:22:06.000,250.192,63.258,12466.233654
1 Jan 2000 17:22:16.000,250.640,63.342,12463.380297
1 Jan 2000 17:22:26.000,251.091,63.426,12460.580380
1 Jan 2000 17:22:36.000,251.545,63.508,12457.833926
1 Jan 2000 17:22:46.000,252.002,63.589,12455.140954
1 Jan 2000 17:22:56.000,252.461,63.669,12452.501484
1 Jan 2000 17:23:06.000,252.922,63.747,12449.915534
1 Jan 2000 17:23:16.000,253.386,63.824,12447.383123
1 Jan 2000 17:23:26.000,253.853,63.900,12444.904265
1 Jan 2000 17:23:36.000,254.322,63.974,12442.478977
1 Jan 2000 17:23:46.000,254.793,64.046,12440.107273
1 Jan 2000 17:23:56.000,255.267,64.118,12437.789166
1 Jan 2000 17:24:06.000,255.743,64.188,12435.524667
1 Jan 2000 17:24:16.000,256.222,64.256,12433.313789
1 Jan 2000 17:24:26.000,256.702,64.323,12431.156540
1 Jan 2000 17:24:36.000,257.186,64.389,12429.052931
1 Jan 2000 17:24:46.000,257.671,64.453,12427.002968
1 Jan 2000 17:24:56.000,258.159,64.516,12425.006659
1 Jan 2000 17:25:06.000,258.649,64.577,12423.064009
1 Jan 2000 17:25:16.000,259.141,64.637,12421.175023
1 Jan 2000 17:25:26.000,259.635,64.695,12419.339705
1 Jan 2000 17:25:36.000,260.131,64.752,12417.558057
1 Jan 2000 17:25:46.000,260.629,64.807,12415.830080
1 Jan 2000 17:25:56.000,261.129,64.860,12414.155776
1 Jan 2000 17:26:06.000,261.631,64.912,12412.535142
1 Jan 2000 17:26:16.000,262.135,64.963,12410.968178
1 Jan 2000 17:26:26.000,262.641,65.012,12409.454881
1 Jan 2000 17:26:36.000,263.149,65.059,12407.995247
1 Jan 2000 17:26:46.000,263.658,65.105,12406.589271
1 Jan 2000 17:26:56.000,264.169,65.149,12405.236947
1 Jan 2000 17:27:06.000,264.682,65.191,12403.938267
1 Jan 2000 17:27:16.000,265.196,65.232,12402.693225
1 Jan 2000 17:27:26.000,265.711,65.272,12401.501810
1 Jan 2000 17:27:36.000,266.229,65.309,12400.364012
1 Jan 2000 17:27:46.000,266.747,65.345,12399.279820
1 Jan 2000 17:27:56.000,267.267,65.380,12398.249222
1 Jan 2000 17:28:06.000,267.788,65.412,12397.272203
1 Jan 2000 17:28:16.000,268.311,65.443,12396.348751
1 Jan 2000 17:28:26.000,268.834,65.473,12395.478848
1 Jan 2000 17:28:36.000,269.359,65.501,12394.662478
1 Jan 2000 17:28:46.000,269.885,65.527,12393.899624
1 Jan 2000 17:28:56.000,270.411,65.551,12393.190267
1 Jan 2000 17:29:06.000,270.939,65.574,12392.534387
1 Jan 2000 17:29:16.000,271.467,65.595,12391.931963
1 Jan 2000 17:29:26.000,271.996,65.614,12391.382973
1 Jan 2000 17:29:36.000,272.526,65.632,12390.887394
1 Jan 2000 17:29:46.000,273.057,65.648,12390.445202
1 Jan 2000 17:29:56.000,273.588,65.662,12390.056372
1 Jan 2000 17:30:06.000,274.119,65.674,12389.720878
1 Jan 2000 17:30:16.000,274.651,65.685,12389.438693
1 Jan 2000 17:30:26.000,275.183,65.694,12389.209788
1 Jan 2000 17:30:36.000,275.716,65.702,12389.034134
1 Jan 2000 17:30:46.000,276.249,65.707,12388.911701
1 Jan 2000 17:30:56.000,276.782,65.711,12388.842457
1 Jan 2000 17:31:06.000,277.315,65.714,12388.826370
1 Jan 2000 17:31:16.000,277.848,65.714,12388.863407
1 Jan 2000 17:31:26.000,278.381,65.713,12388.953532
1 Jan 2000 17:31:36.000,278.914,65.710,12389.096711
1 Jan 2000 17:31:46.000,279.446,65.706,12389.292907
1 Jan 2000 17:31:56.000,279.979,65.699,12389.542081
1 Jan 2000 17:32:06.000,280.511,65.691,12389.844197
1 Jan 2000 17:32:16.000,281.042,65.682,12390.199213
1 Jan 2000 17:32:26.000,281.573,65.670,12390.607090
1 Jan 2000 17:32:36.000,282.104,65.657,12391.067785
1 Jan 2000 17:32:46.000,282.634,65.643,12391.581257
1 Jan 2000 17:32:56.000,283.163,65.626,12392.147460
1 Jan 2000 17:33:06.000,283.691,65.608,12392.766351
1 Jan 2000 17:33:16.000,284.219,65.589,12393.437883
1 Jan 2000 17:33:26.000,284.746,65.567,12394.162011
1 Jan 2000 17:33:36.000,285.271,65.544,12394.938686
1 Jan 2000 17:33:46.000,285.796,65.519,12395.767859
1 Jan 2000 17:33:56.000,286.320,65.493,12396.649480
1 Jan 2000 17:34:06.000,286.842,65.465,12397.583500
1 Jan 2000 17:34:16.000,287.364,65.435,12398.569866
1 Jan 2000 17:34:26.000,287.884,65.404,12399.608525
1 Jan 2000 17:34:36.000,288.403,65.371,12400.699424
1 Jan 2000 17:34:46.000,288.920,65.337,12401.842508
1 Jan 2000 17:34:56.000,289.436,65.301,12403.037722
1 Jan 2000 17:35:06.000,289.950,65.263,12404.285008
1 Jan 2000 17:35:16.000,290.463,65.224,12405.584309
1 Jan 2000 17:35:26.000,290.975,65.183,12406.935567
1 Jan 2000 17:35:36.000,291.484,65.141,12408.338722
1 Jan 2000 17:35:46.000,291.992,65.097,12409.793714
1 Jan 2000 17:35:56.000,292.498,65.051,12411.300480
1 Jan 2000 17:36:06.000,293.003,65.004,12412.858959
1 Jan 2000 17:36:16.000,293.505,64.956,12414.469087
1 Jan 2000 17:36:26.000,294.006,64.906,12416.130801
1 Jan 2000 17:36:36.000,294.505,64.854,12417.844034
1 Jan 2000 17:36:46.000,295.001,64.801,12419.608720
1 Jan 2000 17:36:56.000,295.496,64.747,12421.424793
1 Jan 2000 17:37:06.000,295.989,64.691,12423.292184
1 Jan 2000 17:37:16.000,296.479,64.634,12425.210825
1 Jan 2000 17:37:26.000,296.968,64.575,12427.180645
1 Jan 2000 17:37:36.000,297.454,64.515,12429.201574
1 Jan 2000 17:37:46.000,297.938,64.453,12431.273540
1 Jan 2000 17:37:56.000,298.420,64.390,12433.396470
1 Jan 2000 17:38:06.000,298.900,64.325,12435.570291
1 Jan 2000 17:38:16.000,299.377,64.260,12437.794929
1 Jan 2000 17:38:26.000,299.852,64.192,12440.070307
1 Jan 2000 17:38:36.000,300.324,64.124,12442.396351
1 Jan 2000 17:38:46.000,300.795,64.054,12444.772982
1 Jan 2000 17:38:56.000,301.262,63.983,12447.200123
1 Jan 2000 17:39:06.000,301.728,63.910,12449.677696
1 Jan 2000 17:39:16.000,302.191,63.836,12452.205619
1 Jan 2000 17:39:26.000,302.651,63.761,12454.783813
1 Jan 2000 17:39:36.000,303.109,63.685,12457.412197
1 Jan 2000 17:39:46.000,303.565,63.607,12460.090688
1 Jan 2000 17:39:56.000,304.018,63.529,12462.819202
1 Jan 2000 17:40:06.000,304.468,63.449,12465.597656
1 Jan 2000 17:40:16.000,304.916,63.367,12468.425966
1 Jan 2000 17:40:26.000,305.361,63.285,12471.304045
1 Jan 2000 17:40:36.000,305.804,63.201,12474.231806
1 Jan 2000 17:40:46.000,306.244,63.116,12477.209164
1 Jan 2000 17:40:56.000,306.681,63.030,12480.236028
1 Jan 2000 17:41:06.000,307.116,62.943,12483.312312
1 Jan 2000 17:41:16.000,307.548,62.855,12486.437924
1 Jan 2000 17:41:26.000,307.978,62.766,12489.612774
1 Jan 2000 17:41:36.000,308.405,62.675,12492.836771
1 Jan 2000 17:41:46.000,308.829,62.584,12496.109823
1 Jan 2000 17:41:56.000,309.251,62.491,12499.431837
1 Jan 2000 17:42:06.000,309.670,62.397,12502.802718
1 Jan 2000 17:42:16.000,310.087,62.302,12506.222373
1 Jan 2000 17:42:26.000,310.501,62.207,12509.690707
1 Jan 2000 17:42:36.000,310.912,62.110,12513.207623
1 Jan 2000 17:42:46.000,311.320,62.012,12516.773024
1 Jan 2000 17:42:56.000,311.726,61.913,12520.386813
1 Jan 2000 17:43:06.000,312.129,61.813,12524.048891
1 Jan 2000 17:43:16.000,312.530,61.713,12527.759160
1 Jan 2000 17:43:26.000,312.928,61.611,12531.517520
1 Jan 2000 17:43:36.000,313.323,61.508,12535.323870
1 Jan 2000 17:43:46.000,313.716,61.405,12539.178110
1 Jan 2000 17:43:56.000,314.106,61.300,12543.080136
1 Jan 2000 17:44:06.000,314.494,61.195,12547.029846
1 Jan 2000 17:44:16.000,314.879,61.089,12551.027138
1 Jan 2000 17:44:26.000,315.261,60.982,12555.071907
1 Jan 2000 17:44:36.000,315.641,60.874,12559.164048
1 Jan 2000 17:44:46.000,316.018,60.765,12563.303455
1 Jan 2000 17:44:56.000,316.393,60.655,12567.490023
1 Jan 2000 17:45:06.000,316.765,60.545,12571.723645
1 Jan 2000 17:45:16.000,317.135,60.433,12576.004213
1 Jan 2000 17:45:26.000,317.502,60.321,12580.331619
1 Jan 2000 17:45:36.000,317.866,60.208,12584.705754
1 Jan 2000 17:45:46.000,318.228,60.095,12589.126509
1 Jan 2000 17:45:56.000,318.588,59.980,12593.593773
1 Jan 2000 17:46:06.000,318.945,59.865,12598.107436
1 Jan 2000 17:46:16.000,319.300,59.749,12602.667387
1 Jan 2000 17:46:26.000,319.652,59.633,12607.273513
1 Jan 2000 17:46:36.000,320.001,59.515,12611.925701
1 Jan 2000 17:46:46.000,320.349,59.397,12616.623839
1 Jan 2000 17:46:56.000,320.694,59.278,12621.367812
1 Jan 2000 17:47:06.000,321.036,59.159,12626.157506
1 Jan 2000 17:47:16.000,321.376,59.039,12630.992806
1 Jan 2000 17:47:26.000,321.714,58.918,12635.873596
1 Jan 2000 17:47:36.000,322.050,58.797,12640.799760
1 Jan 2000 17:47:46.000,322.383,58.675,12645.771180
1 Jan 2000 17:47:56.000,322.713,58.552,12650.787740
1 Jan 2000 17:48:06.000,323.042,58.429,12655.849321
1 Jan 2000 17:48:16.000,323.368,58.305,12660.955805
1 Jan 2000 17:48:26.000,323.692,58.180,12666.107073
1 Jan 2000 17:48:36.000,324.014,58.055,12671.303005
1 Jan 2000 17:48:46.000,324.333,57.929,12676.543480
1 Jan 2000 17:48:56.000,324.651,57.803,12681.828378
1 Jan 2000 17:49:06.000,324.966,57.676,12687.157578
1 Jan 2000 17:49:16.000,325.279,57.549,12692.530958
1 Jan 2000 17:49:26.000,325.589,57.421,12697.948395
1 Jan 2000 17:49:36.000,325.898,57.293,12703.409766
1 Jan 2000 17:49:46.000,326.205,57.164,12708.914949
1 Jan 2000 17:49:56.000,326.509,57.035,12714.463818
1 Jan 2000 17:50:06.000,326.811,56.905,12720.056251
1 Jan 2000 17:50:16.000,327.112,56.774,12725.692121
1 Jan 2000 17:50:26.000,327.410,56.643,12731.371304
1 Jan 2000 17:50:36.000,327.706,56.512,12737.093673
1 Jan 2000 17:50:46.000,328.000,56.380,12742.859103
1 Jan 2000 17:50:56.000,328.292,56.248,12748.667467
1 Jan 2000 17:51:06.000,328.582,56.115,12754.518637
1 Jan 2000 17:51:16.000,328.870,55.982,12760.412486
1 Jan 2000 17:51:26.000,329.157,55.848,12766.348885
1 Jan 2000 17:51:36.000,329.441,55.714,12772.327706
1 Jan 2000 17:51:46.000,329.723,55.580,12778.348820
1 Jan 2000 17:51:56.000,330.004,55.445,12784.412098
1 Jan 2000 17:52:06.000,330.282,55.310,12790.517409
1 Jan 2000 17:52:16.000,330.559,55.174,12796.664624
1 Jan 2000 17:52:26.000,330.834,55.038,12802.853611
1 Jan 2000 17:52:36.000,331.107,54.902,12809.084240
1 Jan 2000 17:52:46.000,331.378,54.765,12815.356379
1 Jan 2000 17:52:56.000,331.648,54.628,12821.669896
1 Jan 2000 17:53:06.000,331.916,54.491,12828.024660
1 Jan 2000 17:53:16.000,332.182,54.353,12834.420536
1 Jan 2000 17:53:26.000,332.446,54.215,12840.857393
1 Jan 2000 17:53:36.000,332.708,54.076,12847.335097
1 Jan 2000 17:53:46.000,332.969,53.937,12853.853514
1 Jan 2000 17:53:56.000,333.228,53.798,12860.412510
1 Jan 2000 17:54:06.000,333.486,53.659,12867.011951
1 Jan 2000 17:54:16.000,333.741,53.519,12873.651701
1 Jan 2000 17:54:26.000,333.996,53.379,12880.331626
1 Jan 2000 17:54:36.000,334.248,53.239,12887.051591
1 Jan 2000 17:54:46.000,334.499,53.098,12893.811459
1 Jan 2000 17:54:56.000,334.748,52.957,12900.611094
1 Jan 2000 17:55:06.000,334.996,52.816,12907.450360
1 Jan 2000 17:55:16.000,335.242,52.675,12914.329120
1 Jan 2000 17:55:26.000,335.487,52.533,12921.247238
1 Jan 2000 17:55:36.000,335.730,52.391,12928.204575
1 Jan 2000 17:55:46.000,335.971,52.249,12935.200995
1 Jan 2000 17:55:56.000,336.212,52.107,12942.236358
1 Jan 2000 17:56:06.000,336.450,51.964,12949.310528
1 Jan 2000 17:56:16.000,336.687,51.821,12956.423366
1 Jan 2000 17:56:26.000,336.923,51.678,12963.574733
1 Jan 2000 17:56:36.000,337.157,51.535,12970.764489
1 Jan 2000 17:56:46.000,337.390,51.391,12977.992497
1 Jan 2000 17:56:56.000,337.621,51.247,12985.258615
1 Jan 2000 17:57:06.000,337.852,51.103,12992.562706
1 Jan 2000 17:57:16.000,338.080,50.959,12999.904627
1 Jan 2000 17:57:26.000,338.307,50.815,13007.284240
1 Jan 2000 17:57:36.000,338.533,50.670,13014.701405
1 Jan 2000 17:57:46.000,338.758,50.526,13022.155979
1 Jan 2000 17:57:56.000,338.981,50.381,13029.647823
1 Jan 2000 17:58:06.000,339.203,50.236,13037.176795
1 Jan 2000 17:58:16.000,339.424,50.090,13044.742754
1 Jan 2000 17:58:26.000,339.643,49.945,13052.345559
1 Jan 2000 17:58:36.000,339.861,49.799,13059.985068
1 Jan 2000 17:58:46.000,340.078,49.654,13067.661138
1 Jan 2000 17:58:56.000,340.294,49.508,13075.373629
1 Jan 2000 17:59:06.000,340.508,49.362,13083.122398
1 Jan 2000 17:59:16.000,340.721,49.216,13090.907302
1 Jan 2000 17:59:26.000,340.933,49.069,13098.728198
1 Jan 2000 17:59:36.000,341.144,48.923,13106.584945
1 Jan 2000 17:59:46.000,341.354,48.776,13114.477399
1 Jan 2000 17:59:56.000,341.562,48.630,13122.405417
1 Jan 2000 18:00:06.000,341.769,48.483,13130.368857
1 Jan 2000 18:00:16.000,341.976,48.336,13138.367574
1 Jan 2000 18:00:26.000,342.181,48.189,13146.401425
1 Jan 2000 18:00:36.000,342.384,48.042,13154.470266
1 Jan 2000 18:00:46.000,342.587,47.895,13162.573955
1 Jan 2000 18:00:56.000,342.789,47.747,13170.712347
1 Jan 2000 18:01:06.000,342.989,47.600,13178.885298
1 Jan 2000 18:01:16.000,343.189,47.452,13187.092663
1 Jan 2000 18:01:26.000,343.387,47.305,13195.334300
1 Jan 2000 18:01:36.000,343.585,47.157,13203.610064
1 Jan 2000 18:01:46.000,343.781,47.009,13211.919809
1 Jan 2000 18:01:56.000,343.977,46.861,13220.263393
1 Jan 2000 18:02:06.000,344.171,46.713,13228.640670
1 Jan 2000 18:02:16.000,344.364,46.565,13237.051495
1 Jan 2000 18:02:26.000,344.557,46.417,13245.495725
1 Jan 2000 18:02:36.000,344.748,46.269,13253.973213
1 Jan 2000 18:02:46.000,344.938,46.121,13262.483817
1 Jan 2000 18:02:56.000,345.128,45.972,13271.027389
1 Jan 2000 18:03:06.000,345.316,45.824,13279.603786
1 Jan 2000 18:03:16.000,345.504,45.676,13288.212863
1 Jan 2000 18:03:26.000,345.690,45.527,13296.854474
1 Jan 2000 18:03:36.000,345.876,45.379,13305.528474
1 Jan 2000 18:03:46.000,346.061,45.230,13314.234719
1 Jan 2000 18:03:56.000,346.245,45.082,13322.973063
1 Jan 2000 18:04:06.000,346.427,44.933,13331.743360
1 Jan 2000 18:04:16.000,346.610,44.784,13340.545466
1 Jan 2000 18:04:26.000,346.791,44.636,13349.379236
1 Jan 2000 18:04:36.000,346.971,44.487,13358.244524
1 Jan 2000 18:04:46.000,347.150,44.338,13367.141185
1 Jan 2000 18:04:56.000,347.329,44.190,13376.069073
1 Jan 2000 18:05:06.000,347.507,44.041,13385.028043
1 Jan 2000 18:05:16.000,347.684,43.892,13394.017951
1 Jan 2000 18:05:26.000,347.860,43.743,13403.038650
1 Jan 2000 18:05:36.000,348.035,43.594,13412.089996
1 Jan 2000 18:05:46.000,348.210,43.445,13421.171843
1 Jan 2000 18:05:56.000,348.383,43.297,13430.284047
1 Jan 2000 18:06:06.000,348.556,43.148,13439.426460
1 Jan 2000 18:06:16.000,348.728,42.999,13448.598940
1 Jan 2000 18:06:26.000,348.900,42.850,13457.801340
1 Jan 2000 18:06:36.000,349.070,42.701,13467.033515
1 Jan 2000 18:06:46.000,349.240,42.552,13476.295321
1 Jan 2000 18:06:56.000,349.409,42.403,13485.586611
1 Jan 2000 18:07:06.000,349.578,42.255,13494.907242
1 Jan 2000 18:07:16.000,349.745,42.106,13504.257068
1 Jan 2000 18:07:26.000,349.912,41.957,13513.635945
1 Jan 2000 18:07:36.000,350.078,41.808,13523.043727
1 Jan 2000 18:07:46.000,350.244,41.659,13532.480269
1 Jan 2000 18:07:56.000,350.408,41.510,13541.945428
1 Jan 2000 18:08:06.000,350.572,41.362,13551.439058
1 Jan 2000 18:08:16.000,350.736,41.213,13560.961015
1 Jan 2000 18:08:26.000,350.898,41.064,13570.511154
1 Jan 2000 18:08:36.000,351.061,40.916,13580.089332
1 Jan 2000 18:08:46.000,351.222,40.767,13589.695402
1 Jan 2000 18:08:56.000,351.383,40.618,13599.329222
1 Jan 2000 18:09:06.000,351.543,40.470,13608.990647
1 Jan 2000 18:09:16.000,351.702,40.321,13618.679534
1 Jan 2000 18:09:26.000,351.861,40.173,13628.395737
1 Jan 2000 18:09:36.000,352.019,40.024,13638.139114
1 Jan 2000 18:09:46.000,352.176,39.876,13647.909520
1 Jan 2000 18:09:56.000,352.333,39.727,13657.706813
1 Jan 2000 18:10:06.000,352.489,39.579,13667.530847
1 Jan 2000 18:10:16.000,352.645,39.430,13677.381481
1 Jan 2000 18:10:26.000,352.800,39.282,13687.258570
1 Jan 2000 18:10:36.000,352.954,39.134,13697.161971
1 Jan 2000 18:10:46.000,353.108,38.986,13707.091542
1 Jan 2000 18:10:56.000,353.262,38.838,13717.047140
1 Jan 2000 18:11:06.000,353.414,38.689,13727.028621
1 Jan 2000 18:11:16.000,353.566,38.541,13737.035842
1 Jan 2000 18:11:26.000,353.718,38.393,13747.068663
1 Jan 2000 18:11:36.000,353.869,38.246,13757.126939
1 Jan 2000 18:11:46.000,354.019,38.098,13767.210529
1 Jan 2000 18:11:56.000,354.169,37.950,13777.319291
1 Jan 2000 18:12:06.000,354.319,37.802,13787.453083
1 Jan 2000 18:12:16.000,354.467,37.654,13797.611762
1 Jan 2000 18:12:26.000,354.616,37.507,13807.795187
1 Jan 2000 18:12:36.000,354.764,37.359,13818.003218
1 Jan 2000 18:12:46.000,354.911,37.212,13828.235712
1 Jan 2000 18:12:56.000,355.057,37.064,13838.492528
1 Jan 2000 18:13:06.000,355.204,36.917,13848.773525
1 Jan 2000 18:13:16.000,355.349,36.770,13859.078562
1 Jan 2000 18:13:26.000,355.495,36.622,13869.407500
1 Jan 2000 18:13:36.000,355.639,36.475,13879.760196
1 Jan 2000 18:13:46.000,355.784,36.328,13890.136511
1 Jan 2000 18:13:56.000,355.927,36.181,13900.536305
1 Jan 2000 18:14:06.000,356.071,36.034,13910.959438
1 Jan 2000 18:14:16.000,356.213,35.888,13921.405770
1 Jan 2000 18:14:26.000,356.356,35.741,13931.875161
1 Jan 2000 18:14:36.000,356.497,35.594,13942.367473
1 Jan 2000 18:14:46.000,356.639,35.448,13952.882565
1 Jan 2000 18:14:56.000,356.780,35.301,13963.420298
1 Jan 2000 18:15:06.000,356.920,35.155,13973.980535
1 Jan 2000 18:15:16.000,357.060,35.008,13984.563136
1 Jan 2000 18:15:16.513,357.067,35.001,13985.106297

Interval Statistics
"Min Elevation",1 Jan 2000 18:15:16.513,357.067,35.001,13985.106297
"Max Elevation",1 Jan 2000 17:31:14.325,277.759,65.714,12388.853503
"Mean Elevation",,,55.722,
"Min Range",1 Jan 2000 17:31:04.027,277.210,65.713,12388.825336
"Max Range",1 Jan 2000 18:15:16.513,357.067,35.001,13985.106297
"Mean Range",,,,12821.898114

"Time (UTCG)","Azimuth (deg)","Elevation (deg)","Range (km)"
2 Jan 2000 01:40:54.018,34.884,55.005,12803.926364
2 Jan 2000 01:41:04.000,35.187,55.119,12798.689992
2 Jan 2000 01:41:14.000,35.493,55.234,12793.485789
2 Jan 2000 01:41:24.000,35.801,55.348,12788.323613
2 Jan 2000 01:41:34.000,36.110,55.461,12783.203579
2 Jan 2000 01:41:44.000,36.421,55.574,12778.125803
2 Jan 2000 01:41:54.000,36.734,55.686,12773.090400
2 Jan 2000 01:42:04.000,37.049,55.797,12768.097486
2 Jan 2000 01:42:14.000,37.365,55.908,12763.147173
2 Jan 2000 01:42:24.000,37.683,56.019,12758.239577
2 Jan 2000 01:42:34.000,38.004,56.129,12753.374810
2 Jan 2000 01:42:44.000,38.326,56.238,12748.552985
2 Jan 2000 01:42:54.000,38.649,56.346,12743.774215
2 Jan 2000 01:43:04.000,38.975,56.454,12739.038610
2 Jan 2000 01:43:14.000,39.303,56.562,12734.346283
2 Jan 2000 01:43:24.000,39.632,56.668,12729.697344
2 Jan 2000 01:43:34.000,39.963,56.774,12725.091903
2 Jan 2000 01:43:44.000,40.296,56.879,12720.530069
2 Jan 2000 01:43:54.000,40.631,56.984,12716.011953
2 Jan 2000 01:44:04.000,40.968,57.088,12711.537662
2 Jan 2000 01:44:14.000,41.307,57.191,12707.107304
2 Jan 2000 01:44:24.000,41.648,57.294,12702.720988
2 Jan 2000 01:44:34.000,41.991,57.396,12698.378818
2 Jan 2000 01:44:44.000,42.335,57.497,12694.080903
2 Jan 2000 01:44:54.000,42.682,57.597,12689.827347
2 Jan 2000 01:45:04.000,43.030,57.696,12685.618256
2 Jan 2000 01:45:14.000,43.381,57.795,12681.453735
2 Jan 2000 01:45:24.000,43.733,57.893,12677.333886
2 Jan 2000 01:45:34.000,44.087,57.991,12673.258814
2 Jan 2000 01:45:44.000,44.443,58.087,12669.228622
2 Jan 2000 01:45:54.000,44.802,58.183,12665.243411
2 Jan 2000 01:46:04.000,45.162,58.278,12661.303282
2 Jan 2000 01:46:14.000,45.524,58.372,12657.408338
2 Jan 2000 01:46:24.000,45.888,58.465,12653.558678
2 Jan 2000 01:46:34.000,46.254,58.557,12649.754401
2 Jan 2000 01:46:44.000,46.622,58.649,12645.995608
2 Jan 2000 01:46:54.000,46.992,58.740,12642.282395
2 Jan 2000 01:47:04.000,47.363,58.830,12638.614862
2 Jan 2000 01:47:14.000,47.737,58.919,12634.993104
2 Jan 2000 01:47:24.000,48.113,59.007,12631.417218
2 Jan 2000 01:47:34.000,48.491,59.094,12627.887301
2 Jan 2000 01:47:44.000,48.870,59.180,12624.403447
2 Jan 2000 01:47:54.000,49.252,59.265,12620.965751
2 Jan 2000 01:48:04.000,49.635,59.350,12617.574306
2 Jan 2000 01:48:14.000,50.021,59.433,12614.229205
2 Jan 2000 01:48:24.000,50.408,59.516,12610.930541
2 Jan 2000 01:48:34.000,50.797,59.598,12607.678405
2 Jan 2000 01:48:44.000,51.189,59.678,12604.472889
2 Jan 2000 01:48:54.000,51.582,59.758,12601.314083
2 Jan 2000 01:49:04.000,51.977,59.836,12598.202075
2 Jan 2000 01:49:14.000,52.374,59.914,12595.136956
2 Jan 2000 01:49:24.000,52.772,59.991,12592.118813
2 Jan 2000 01:49:34.000,53.173,60.066,12589.147734
2 Jan 2000 01:49:44.000,53.576,60.141,12586.223804
2 Jan 2000 01:49:54.000,53.980,60.214,12583.347112
2 Jan 2000 01:50:04.000,54.386,60.287,12580.517740
2 Jan 2000 01:50:14.000,54.794,60.358,12577.735775
2 Jan 2000 01:50:24.000,55.204,60.429,12575.001299
2 Jan 2000 01:50:34.000,55.616,60.498,12572.314396
2 Jan 2000 01:50:44.000,56.030,60.566,12569.675147
2 Jan 2000 01:50:54.000,56.445,60.633,12567.083635
2 Jan 2000 01:51:04.000,56.862,60.699,12564.539940
2 Jan 2000 01:51:14.000,57.281,60.764,12562.044141
2 Jan 2000 01:51:24.000,57.701,60.828,12559.596319
2 Jan 2000 01:51:34.000,58.123,60.890,12557.196551
2 Jan 2000 01:51:44.000,58.547,60.952,12554.844915
2 Jan 2000 01:51:54.000,58.973,61.012,12552.541488
2 Jan 2000 01:52:04.000,59.400,61.071,12550.286346
2 Jan 2000 01:52:14.000,59.829,61.129,12548.079563
2 Jan 2000 01:52:24.000,60.259,61.186,12545.921215
2 Jan 2000 01:52:34.000,60.691,61.241,12543.811374
2 Jan 2000 01:52:44.000,61.125,61.296,12541.750115
2 Jan 2000 01:52:54.000,61.560,61.349,12539.737508
2 Jan 2000 01:53:04.000,61.997,61.401,12537.773625
2 Jan 2000 01:53:14.000,62.435,61.451,12535.858536
2 Jan 2000 01:53:24.000,62.875,61.501,12533.992310
2 Jan 2000 01:53:34.000,63.316,61.549,12532.175017
2 Jan 2000 01:53:44.000,63.758,61.596,12530.406725
2 Jan 2000 01:53:54.000,64.202,61.642,12528.687499
2 Jan 2000 01:54:04.000,64.647,61.686,12527.017406
2 Jan 2000 01:54:14.000,65.093,61.729,12525.396512
2 Jan 2000 01:54:24.000,65.541,61.771,12523.824881
2 Jan 2000 01:54:34.000,65.990,61.811,12522.302577
2 Jan 2000 01:54:44.000,66.440,61.851,12520.829662
2 Jan 2000 01:54:54.000,66.892,61.888,12519.406199
2 Jan 2000 01:55:04.000,67.344,61.925,12518.032247
2 Jan 2000 01:55:14.000,67.798,61.960,12516.707868
2 Jan 2000 01:55:24.000,68.253,61.994,12515.433121
2 Jan 2000 01:55:34.000,68.709,62.027,12514.208064
2 Jan 2000 01:55:44.000,69.165,62.058,12513.032754
2 Jan 2000 01:55:54.000,69.623,62.088,12511.907248
2 Jan 2000 01:56:04.000,70.082,62.116,12510.831603
2 Jan 2000 01:56:14.000,70.542,62.143,12509.805872
2 Jan 2000 01:56:24.000,71.002,62.169,12508.830110
2 Jan 2000 01:56:34.000,71.463,62.193,12507.904370
2 Jan 2000 01:56:44.000,71.925,62.216,12507.028704
2 Jan 2000 01:56:54.000,72.388,62.238,12506.203163
2 Jan 2000 01:57:04.000,72.852,62.258,12505.427797
2 Jan 2000 01:57:14.000,73.316,62.277,12504.702657
2 Jan 2000 01:57:24.000,73.781,62.295,12504.027790
2 Jan 2000 01:57:34.000,74.246,62.311,12503.403245
2 Jan 2000 01:57:44.000,74.712,62.325,12502.829067
2 Jan 2000 01:57:54.000,75.178,62.338,12502.305303
2 Jan 2000 01:58:04.000,75.645,62.350,12501.831998
2 Jan 2000 01:58:14.000,76.112,62.361,12501.409195
2 Jan 2000 01:58:24.000,76.580,62.370,12501.036937
2 Jan 2000 01:58:34.000,77.047,62.377,12500.715267
2 Jan 2000 01:58:44.000,77.515,62.383,12500.444226
2 Jan 2000 01:58:54.000,77.984,62.388,12500.223854
2 Jan 2000 01:59:04.000,78.452,62.391,12500.054190
2 Jan 2000 01:59:14.000,78.921,62.393,12499.935272
2 Jan 2000 01:59:24.000,79.390,62.393,12499.867139
2 Jan 2000 01:59:34.000,79.858,62.392,12499.849826
2 Jan 2000 01:59:44.000,80.327,62.390,12499.883368
2 Jan 2000 01:59:54.000,80.796,62.386,12499.967801
2 Jan 2000 02:00:04.000,81.264,62.381,12500.103158
2 Jan 2000 02:00:14.000,81.733,62.374,12500.289472
2 Jan 2000 02:00:24.000,82.201,62.366,12500.526774
2 Jan 2000 02:00:34.000,82.669,62.356,12500.815094
2 Jan 2000 02:00:44.000,83.137,62.345,12501.154464
2 Jan 2000 02:00:54.000,83.604,62.332,12501.544911
2 Jan 2000 02:01:04.000,84.071,62.318,12501.986464
2 Jan 2000 02:01:14.000,84.538,62.303,12502.479149
2 Jan 2000 02:01:24.000,85.004,62.286,12503.022993
2 Jan 2000 02:01:34.000,85.470,62.268,12503.618019
2 Jan 2000 02:01:44.000,85.935,62.248,12504.264253
2 Jan 2000 02:01:54.000,86.400,62.227,12504.961717
2 Jan 2000 02:02:04.000,86.864,62.205,12505.710434
2 Jan 2000 02:02:14.000,87.327,62.181,12506.510423
2 Jan 2000 02:02:24.000,87.790,62.155,12507.361706
2 Jan 2000 02:02:34.000,88.251,62.129,12508.264302
2 Jan 2000 02:02:44.000,88.712,62.101,12509.218228
2 Jan 2000 02:02:54.000,89.173,62.071,12510.223502
2 Jan 2000 02:03:04.000,89.632,62.040,12511.280140
2 Jan 2000 02:03:14.000,90.090,62.008,12512.388158
2 Jan 2000 02:03:24.000,90.548,61.974,12513.547569
2 Jan 2000 02:03:34.000,91.004,61.939,12514.758386
2 Jan 2000 02:03:44.000,91.459,61.902,12516.020623
2 Jan 2000 02:03:54.000,91.914,61.865,12517.334290
2 Jan 2000 02:04:04.000,92.367,61.825,12518.699398
2 Jan 2000 02:04:14.000,92.819,61.785,12520.115956
2 Jan 2000 02:04:24.000,93.270,61.743,12521.583972
2 Jan 2000 02:04:34.000,93.719,61.699,12523.103454
2 Jan 2000 02:04:44.000,94.168,61.655,12524.674407
2 Jan 2000 02:04:54.000,94.615,61.609,12526.296839
2 Jan 2000 02:05:04.000,95.061,61.562,12527.970752
2 Jan 2000 02:05:14.000,95.505,61.513,12529.696150
2 Jan 2000 02:05:24.000,95.948,61.463,12531.473036
2 Jan 2000 02:05:34.000,96.390,61.412,12533.301412
2 Jan 2000 02:05:44.000,96.830,61.359,12535.181277
2 Jan 2000 02:05:54.000,97.269,61.305,12537.112631
2 Jan 2000 02:06:04.000,97.706,61.250,12539.095473
2 Jan 2000 02:06:14.000,98.142,61.194,12541.129801
2 Jan 2000 02:06:24.000,98.576,61.136,12543.215610
2 Jan 2000 02:06:34.000,99.008,61.077,12545.352896
2 Jan 2000 02:06:44.000,99.439,61.017,12547.541654
2 Jan 2000 02:06:54.000,99.868,60.955,12549.781878
2 Jan 2000 02:07:04.000,100.296,60.892,12552.073560
2 Jan 2000 02:07:14.000,100.722,60.828,12554.416692
2 Jan 2000 02:07:24.000,101.146,60.763,12556.811264
2 Jan 2000 02:07:34.000,101.569,60.697,12559.257267
2 Jan 2000 02:07:44.000,101.989,60.629,12561.754688
2 Jan 2000 02:07:54.000,102.408,60.560,12564.303516
2 Jan 2000 02:08:04.000,102.826,60.491,12566.903737
2 Jan 2000 02:08:14.000,103.241,60.419,12569.555337
2 Jan 2000 02:08:24.000,103.654,60.347,12572.258301
2 Jan 2000 02:08:34.000,104.066,60.273,12575.012613
2 Jan 2000 02:08:44.000,104.476,60.199,12577.818255
2 Jan 2000 02:08:54.000,104.884,60.123,12580.675209
2 Jan 2000 02:09:04.000,105.290,60.046,12583.583458
2 Jan 2000 02:09:14.000,105.694,59.968,12586.542979
2 Jan 2000 02:09:24.000,106.096,59.889,12589.553753
2 Jan 2000 02:09:34.000,106.497,59.809,12592.615757
2 Jan 2000 02:09:44.000,106.895,59.727,12595.728968
2 Jan 2000 02:09:54.000,107.292,59.645,12598.893363
2 Jan 2000 02:10:04.000,107.686,59.561,12602.108916
2 Jan 2000 02:10:14.000,108.078,59.477,12605.375602
2 Jan 2000 02:10:24.000,108.469,59.391,12608.693394
2 Jan 2000 02:10:34.000,108.857,59.304,12612.062265
2 Jan 2000 02:10:44.000,109.244,59.217,12615.482185
2 Jan 2000 02:10:54.000,109.628,59.128,12618.953125
2 Jan 2000 02:11:04.000,110.011,59.038,12622.475054
2 Jan 2000 02:11:14.000,110.391,58.947,12626.047941
2 Jan 2000 02:11:24.000,110.770,58.855,12629.671753
2 Jan 2000 02:11:34.000,111.146,58.763,12633.346457
2 Jan 2000 02:11:44.000,111.520,58.669,12637.072019
2 Jan 2000 02:11:54.000,111.893,58.574,12640.848403
2 Jan 2000 02:12:04.000,112.263,58.479,12644.675573
2 Jan 2000 02:12:14.000,112.631,58.382,12648.553492
2 Jan 2000 02:12:24.000,112.997,58.284,12652.482122
2 Jan 2000 02:12:34.000,113.361,58.186,12656.461423
2 Jan 2000 02:12:44.000,113.724,58.087,12660.491356
2 Jan 2000 02:12:54.000,114.084,57.986,12664.571880
2 Jan 2000 02:13:04.000,114.441,57.885,12668.702953
2 Jan 2000 02:13:14.000,114.797,57.783,12672.884532
2 Jan 2000 02:13:24.000,115.151,57.680,12677.116575
2 Jan 2000 02:13:34.000,115.503,57.576,12681.399035
2 Jan 2000 02:13:44.000,115.853,57.471,12685.731868
2 Jan 2000 02:13:54.000,116.200,57.366,12690.115028
2 Jan 2000 02:14:04.000,116.546,57.260,12694.548466
2 Jan 2000 02:14:14.000,116.890,57.152,12699.032136
2 Jan 2000 02:14:24.000,117.231,57.044,12703.565988
2 Jan 2000 02:14:34.000,117.571,56.935,12708.149972
2 Jan 2000 02:14:44.000,117.908,56.826,12712.784036
2 Jan 2000 02:14:54.000,118.244,56.715,12717.468131
2 Jan 2000 02:15:04.000,118.577,56.604,12722.202202
2 Jan 2000 02:15:14.000,118.909,56.492,12726.986196
2 Jan 2000 02:15:24.000,119.238,56.379,12731.820060
2 Jan 2000 02:15:34.000,119.566,56.266,12736.703737
2 Jan 2000 02:15:44.000,119.891,56.152,12741.637172
2 Jan 2000 02:15:54.000,120.215,56.037,12746.620307
2 Jan 2000 02:16:04.000,120.536,55.921,12751.653086
2 Jan 2000 02:16:14.000,120.856,55.805,12756.735448
2 Jan 2000 02:16:24.000,121.173,55.687,12761.867335
2 Jan 2000 02:16:34.000,121.489,55.570,12767.048686
2 Jan 2000 02:16:44.000,121.802,55.451,12772.279440
2 Jan 2000 02:16:54.000,122.114,55.332,12777.559534
2 Jan 2000 02:17:04.000,122.424,55.212,12782.888907
2 Jan 2000 02:17:14.000,122.731,55.091,12788.267493
2 Jan 2000 02:17:24.000,123.037,54.970,12793.695229
2 Jan 2000 02:17:34.000,123.341,54.848,12799.172049
2 Jan 2000 02:17:44.000,123.643,54.726,12804.697886
2 Jan 2000 02:17:54.000,123.944,54.603,12810.272674
2 Jan 2000 02:18:04.000,124.242,54.479,12815.896345
2 Jan 2000 02:18:14.000,124.538,54.355,12821.568830
2 Jan 2000 02:18:24.000,124.833,54.230,12827.290059
2 Jan 2000 02:18:34.000,125.126,54.104,12833.059962
2 Jan 2000 02:18:44.000,125.416,53.978,12838.878467
2 Jan 2000 02:18:54.000,125.706,53.851,12844.745504
2 Jan 2000 02:19:04.000,125.993,53.724,12850.660999
2 Jan 2000 02:19:14.000,126.278,53.596,12856.624879
2 Jan 2000 02:19:24.000,126.562,53.467,12862.637069
2 Jan 2000 02:19:34.000,126.844,53.339,12868.697494
2 Jan 2000 02:19:44.000,127.124,53.209,12874.806079
2 Jan 2000 02:19:54.000,127.402,53.079,12880.962746
2 Jan 2000 02:20:04.000,127.678,52.948,12887.167419
2 Jan 2000 02:20:14.000,127.953,52.817,12893.420019
2 Jan 2000 02:20:24.000,128.226,52.686,12899.720467
2 Jan 2000 02:20:34.000,128.497,52.553,12906.068683
2 Jan 2000 02:20:44.000,128.767,52.421,12912.464588
2 Jan 2000 02:20:54.000,129.035,52.288,12918.908100
2 Jan 2000 02:21:04.000,129.301,52.154,12925.399136
2 Jan 2000 02:21:14.000,129.565,52.020,12931.937615
2 Jan 2000 02:21:24.000,129.828,51.885,12938.523453
2 Jan 2000 02:21:34.000,130.089,51.750,12945.156565
2 Jan 2000 02:21:44.000,130.349,51.615,12951.836868
2 Jan 2000 02:21:54.000,130.607,51.479,12958.564275
2 Jan 2000 02:22:04.000,130.863,51.343,12965.338700
2 Jan 2000 02:22:14.000,131.118,51.206,12972.160057
2 Jan 2000 02:22:24.000,131.371,51.069,12979.028256
2 Jan 2000 02:22:34.000,131.622,50.931,12985.943211
2 Jan 2000 02:22:44.000,131.872,50.793,12992.904832
2 Jan 2000 02:22:54.000,132.120,50.654,12999.913029
2 Jan 2000 02:23:04.000,132.367,50.516,13006.967713
2 Jan 2000 02:23:14.000,132.612,50.376,13014.068790
2 Jan 2000 02:23:24.000,132.856,50.237,13021.216171
2 Jan 2000 02:23:34.000,133.098,50.097,13028.409762
2 Jan 2000 02:23:44.000,133.338,49.956,13035.649471
2 Jan 2000 02:23:54.000,133.577,49.815,13042.935203
2 Jan 2000 02:24:04.000,133.815,49.674,13050.266864
2 Jan 2000 02:24:14.000,134.051,49.533,13057.644359
2 Jan 2000 02:24:24.000,134.286,49.391,13065.067592
2 Jan 2000 02:24:34.000,134.519,49.249,13072.536467
2 Jan 2000 02:24:44.000,134.751,49.106,13080.050887
2 Jan 2000 02:24:54.000,134.981,48.963,13087.610754
2 Jan 2000 02:25:04.000,135.210,48.820,13095.215970
2 Jan 2000 02:25:14.000,135.437,48.676,13102.866435
2 Jan 2000 02:25:24.000,135.663,48.532,13110.562052
2 Jan 2000 02:25:34.000,135.888,48.388,13118.302719
2 Jan 2000 02:25:44.000,136.111,48.244,13126.088335
2 Jan 2000 02:25:54.000,136.333,48.099,13133.918800
2 Jan 2000 02:26:04.000,136.554,47.954,13141.794011
2 Jan 2000 02:26:14.000,136.773,47.808,13149.713866
2 Jan 2000 02:26:24.000,136.991,47.662,13157.678262
2 Jan 2000 02:26:34.000,137.208,47.516,13165.687095
2 Jan 2000 02:26:44.000,137.423,47.370,13173.740261
2 Jan 2000 02:26:54.000,137.637,47.224,13181.837656
2 Jan 2000 02:27:04.000,137.849,47.077,13189.979172
2 Jan 2000 02:27:14.000,138.061,46.930,13198.164706
2 Jan 2000 02:27:24.000,138.271,46.782,13206.394150
2 Jan 2000 02:27:34.000,138.480,46.635,13214.667397
2 Jan 2000 02:27:44.000,138.687,46.487,13222.984340
2 Jan 2000 02:27:54.000,138.894,46.339,13231.344870
2 Jan 2000 02:28:04.000,139.099,46.190,13239.748880
2 Jan 2000 02:28:14.000,139.302,46.042,13248.196259
2 Jan 2000 02:28:24.000,139.505,45.893,13256.686898
2 Jan 2000 02:28:34.000,139.707,45.744,13265.220686
2 Jan 2000 02:28:44.000,139.907,45.594,13273.797514
2 Jan 2000 02:28:54.000,140.106,45.445,13282.417270
2 Jan 2000 02:29:04.000,140.304,45.295,13291.079841
2 Jan 2000 02:29:14.000,140.500,45.145,13299.785117
2 Jan 2000 02:29:24.000,140.696,44.995,13308.532983
2 Jan 2000 02:29:34.000,140.890,44.845,13317.323327
2 Jan 2000 02:29:44.000,141.084,44.694,13326.156036
2 Jan 2000 02:29:54.000,141.276,44.544,13335.030994
2 Jan 2000 02:30:04.000,141.467,44.393,13343.948088
2 Jan 2000 02:30:14.000,141.657,44.241,13352.907201
2 Jan 2000 02:30:24.000,141.846,44.090,13361.908220
2 Jan 2000 02:30:34.000,142.033,43.939,13370.951027
2 Jan 2000 02:30:44.000,142.220,43.787,13380.035505
2 Jan 2000 02:30:54.000,142.406,43.635,13389.161539
2 Jan 2000 02:31:04.000,142.590,43.483,13398.329011
2 Jan 2000 02:31:14.000,142.774,43.331,13407.537802
2 Jan 2000 02:31:24.000,142.956,43.179,13416.787795
2 Jan 2000 02:31:34.000,143.137,43.026,13426.078871
2 Jan 2000 02:31:44.000,143.318,42.873,13435.410911
2 Jan 2000 02:31:54.000,143.497,42.721,13444.783796
2 Jan 2000 02:32:04.000,143.675,42.568,13454.197404
2 Jan 2000 02:32:14.000,143.853,42.415,13463.651617
2 Jan 2000 02:32:24.000,144.029,42.261,13473.146313
2 Jan 2000 02:32:34.000,144.204,42.108,13482.681371
2 Jan 2000 02:32:44.000,144.379,41.954,13492.256670
2 Jan 2000 02:32:54.000,144.552,41.801,13501.872087
2 Jan 2000 02:33:04.000,144.724,41.647,13511.527502
2 Jan 2000 02:33:14.000,144.896,41.493,13521.222789
2 Jan 2000 02:33:24.000,145.066,41.339,13530.957828
2 Jan 2000 02:33:34.000,145.236,41.185,13540.732494
2 Jan 2000 02:33:44.000,145.404,41.031,13550.546664
2 Jan 2000 02:33:54.000,145.572,40.876,13560.400213
2 Jan 2000 02:34:04.000,145.739,40.722,13570.293017
2 Jan 2000 02:34:14.000,145.905,40.567,13580.224951
2 Jan 2000 02:34:24.000,146.070,40.413,13590.195891
2 Jan 2000 02:34:34.000,146.234,40.258,13600.205709
2 Jan 2000 02:34:44.000,146.397,40.103,13610.254282
2 Jan 2000 02:34:54.000,146.559,39.948,13620.341482
2 Jan 2000 02:35:04.000,146.721,39.793,13630.467183
2 Jan 2000 02:35:14.000,146.881,39.638,13640.631258
2 Jan 2000 02:35:24.000,147.041,39.482,13650.833581
2 Jan 2000 02:35:34.000,147.200,39.327,13661.074023
2 Jan 2000 02:35:44.000,147.358,39.172,13671.352457
2 Jan 2000 02:35:54.000,147.515,39.016,13681.668755
2 Jan 2000 02:36:04.000,147.671,38.861,13692.022788
2 Jan 2000 02:36:14.000,147.827,38.705,13702.414429
2 Jan 2000 02:36:24.000,147.981,38.549,13712.843548
2 Jan 2000 02:36:34.000,148.135,38.393,13723.310015
2 Jan 2000 02:36:44.000,148.288,38.238,13733.813702
2 Jan 2000 02:36:54.000,148.441,38.082,13744.354479
2 Jan 2000 02:37:04.000,148.592,37.926,13754.932216
2 Jan 2000 02:37:14.000,148.743,37.770,13765.546782
2 Jan 2000 02:37:24.000,148.893,37.613,13776.198047
2 Jan 2000 02:37:34.000,149.042,37.457,13786.885880
2 Jan 2000 02:37:44.000,149.190,37.301,13797.610150
2 Jan 2000 02:37:54.000,149.338,37.145,13808.370727
2 Jan 2000 02:38:04.000,149.485,36.988,13819.167478
2 Jan 2000 02:38:14.000,149.631,36.832,13830.000271
2 Jan 2000 02:38:24.000,149.776,36.676,13840.868976
2 Jan 2000 02:38:34.000,149.921,36.519,13851.773458
2 Jan 2000 02:38:44.000,150.065,36.363,13862.713588
2 Jan 2000 02:38:54.000,150.208,36.206,13873.689230
2 Jan 2000 02:39:04.000,150.350,36.050,13884.700253
2 Jan 2000 02:39:14.000,150.492,35.893,13895.746524
2 Jan 2000 02:39:24.000,150.633,35.736,13906.827910
2 Jan 2000 02:39:34.000,150.773,35.580,13917.944276
2 Jan 2000 02:39:44.000,150.913,35.423,13929.095490
2 Jan 2000 02:39:54.000,151.052,35.266,13940.281416
2 Jan 2000 02:40:04.000,151.190,35.109,13951.501923
2 Jan 2000 02:40:10.930,151.285,35.001,13959.298185

Interval Statistics
"Min Elevation",2 Jan 2000 02:40:10.930,151.285,35.001,13959.298185
"Max Elevation",2 Jan 2000 01:59:21.709,79.282,62.393,12499.878261
"Mean Elevation",,,54.199,
"Min Range",2 Jan 2000 01:59:32.405,79.784,62.393,12499.849179
"Max Range",2 Jan 2000 02:40:10.930,151.285,35.001,13959.298185
"Mean Range",,,,12875.443266

"Time (UTCG)","Azimuth (deg)","Elevation (deg)","Range (km)"
2 Jan 2000 13:59:07.031,108.454,56.138,12743.754362
2 Jan 2000 13:59:17.000,108.209,56.300,12736.728979
2 Jan 2000 13:59:27.000,107.961,56.462,12729.740742
2 Jan 2000 13:59:37.000,107.710,56.623,12722.811875
2 Jan 2000 13:59:47.000,107.456,56.784,12715.942529
2 Jan 2000 13:59:57.000,107.199,56.944,12709.132852
2 Jan 2000 14:00:07.000,106.940,57.104,12702.382991
2 Jan 2000 14:00:17.000,106.678,57.263,12695.693093
2 Jan 2000 14:00:27.000,106.413,57.421,12689.063303
2 Jan 2000 14:00:37.000,106.146,57.579,12682.493765
2 Jan 2000 14:00:47.000,105.875,57.736,12675.984624
2 Jan 2000 14:00:57.000,105.602,57.893,12669.536020
2 Jan 2000 14:01:07.000,105.326,58.048,12663.148094
2 Jan 2000 14:01:17.000,105.047,58.203,12656.820988
2 Jan 2000 14:01:27.000,104.765,58.358,12650.554838
2 Jan 2000 14:01:37.000,104.480,58.511,12644.349784
2 Jan 2000 14:01:47.000,104.191,58.664,12638.205961
2 Jan 2000 14:01:57.000,103.900,58.816,12632.123504
2 Jan 2000 14:02:07.000,103.606,58.967,12626.102549
2 Jan 2000 14:02:17.000,103.309,59.118,12620.143227
2 Jan 2000 14:02:27.000,103.008,59.268,12614.245670
2 Jan 2000 14:02:37.000,102.704,59.417,12608.410010
2 Jan 2000 14:02:47.000,102.397,59.565,12602.636375
2 Jan 2000 14:02:57.000,102.087,59.712,12596.924893
2 Jan 2000 14:03:07.000,101.774,59.858,12591.275692
2 Jan 2000 14:03:17.000,101.457,60.004,12585.688897
2 Jan 2000 14:03:27.000,101.137,60.148,12580.164632
2 Jan 2000 14:03:37.000,100.814,60.292,12574.703022
2 Jan 2000 14:03:47.000,100.487,60.435,12569.304186
2 Jan 2000 14:03:57.000,100.157,60.577,12563.968248
2 Jan 2000 14:04:07.000,99.823,60.718,12558.695325
2 Jan 2000 14:04:17.000,99.486,60.857,12553.485535
2 Jan 2000 14:04:27.000,99.145,60.996,12548.338997
2 Jan 2000 14:04:37.000,98.801,61.134,12543.255824
2 Jan 2000 14:04:47.000,98.454,61.271,12538.236132
2 Jan 2000 14:04:57.000,98.103,61.407,12533.280032
2 Jan 2000 14:05:07.000,97.748,61.541,12528.387638
2 Jan 2000 14:05:17.000,97.390,61.675,12523.559058
2 Jan 2000 14:05:27.000,97.028,61.807,12518.794401
2 Jan 2000 14:05:37.000,96.662,61.939,12514.093776
2 Jan 2000 14:05:47.000,96.293,62.069,12509.457288
2 Jan 2000 14:05:57.000,95.920,62.198,12504.885042
2 Jan 2000 14:06:07.000,95.543,62.325,12500.377141
2 Jan 2000 14:06:17.000,95.163,62.452,12495.933687
2 Jan 2000 14:06:27.000,94.779,62.577,12491.554782
2 Jan 2000 14:06:37.000,94.391,62.701,12487.240523
2 Jan 2000 14:06:47.000,93.999,62.824,12482.991009
2 Jan 2000 14:06:57.000,93.604,62.946,12478.806336
2 Jan 2000 14:07:07.000,93.205,63.066,12474.686599
2 Jan 2000 14:07:17.000,92.802,63.185,12470.631891
2 Jan 2000 14:07:27.000,92.395,63.302,12466.642305
2 Jan 2000 14:07:37.000,91.985,63.419,12462.717931
2 Jan 2000 14:07:47.000,91.571,63.533,12458.858859
2 Jan 2000 14:07:57.000,91.153,63.647,12455.065175
2 Jan 2000 14:08:07.000,90.731,63.758,12451.336966
2 Jan 2000 14:08:17.000,90.305,63.869,12447.674317
2 Jan 2000 14:08:27.000,89.875,63.978,12444.077311
2 Jan 2000 14:08:37.000,89.442,64.085,12440.546029
2 Jan 2000 14:08:47.000,89.005,64.191,12437.080553
2 Jan 2000 14:08:57.000,88.564,64.295,12433.680960
2 Jan 2000 14:09:07.000,88.119,64.398,12430.347328
2 Jan 2000 14:09:17.000,87.671,64.499,12427.079733
2 Jan 2000 14:09:27.000,87.219,64.599,12423.878249
2 Jan 2000 14:09:37.000,86.763,64.697,12420.742948
2 Jan 2000 14:09:47.000,86.303,64.793,12417.673901
2 Jan 2000 14:09:57.000,85.840,64.888,12414.671179
2 Jan 2000 14:10:07.000,85.373,64.980,12411.734849
2 Jan 2000 14:10:17.000,84.903,65.072,12408.864978
2 Jan 2000 14:10:27.000,84.428,65.161,12406.061631
2 Jan 2000 14:10:37.000,83.951,65.249,12403.324870
2 Jan 2000 14:10:47.000,83.469,65.334,12400.654759
2 Jan 2000 14:10:57.000,82.985,65.418,12398.051356
2 Jan 2000 14:11:07.000,82.496,65.501,12395.514721
2 Jan 2000 14:11:17.000,82.005,65.581,12393.044911
2 Jan 2000 14:11:27.000,81.510,65.659,12390.641982
2 Jan 2000 14:11:37.000,81.012,65.736,12388.305986
2 Jan 2000 14:11:47.000,80.510,65.810,12386.036977
2 Jan 2000 14:11:57.000,80.005,65.883,12383.835006
2 Jan 2000 14:12:07.000,79.497,65.954,12381.700120
2 Jan 2000 14:12:17.000,78.986,66.023,12379.632368
2 Jan 2000 14:12:27.000,78.472,66.090,12377.631796
2 Jan 2000 14:12:37.000,77.955,66.154,12375.698448
2 Jan 2000 14:12:47.000,77.435,66.217,12373.832367
2 Jan 2000 14:12:57.000,76.912,66.278,12372.033593
2 Jan 2000 14:13:07.000,76.387,66.336,12370.302166
2 Jan 2000 14:13:17.000,75.859,66.393,12368.638124
2 Jan 2000 14:13:27.000,75.328,66.447,12367.041503
2 Jan 2000 14:13:37.000,74.795,66.500,12365.512337
2 Jan 2000 14:13:47.000,74.259,66.550,12364.050660
2 Jan 2000 14:13:57.000,73.721,66.598,12362.656502
2 Jan 2000 14:14:07.000,73.181,66.644,12361.329893
2 Jan 2000 14:14:17.000,72.638,66.688,12360.070861
2 Jan 2000 14:14:27.000,72.094,66.729,12358.879433
2 Jan 2000 14:14:37.000,71.548,66.769,12357.755632
2 Jan 2000 14:14:47.000,70.999,66.806,12356.699483
2 Jan 2000 14:14:57.000,70.449,66.841,12355.711005
2 Jan 2000 14:15:07.000,69.898,66.874,12354.790220
2 Jan 2000 14:15:17.000,69.344,66.904,12353.937144
2 Jan 2000 14:15:27.000,68.790,66.932,12353.151795
2 Jan 2000 14:15:37.000,68.234,66.958,12352.434187
2 Jan 2000 14:15:47.000,67.677,66.982,12351.784332
2 Jan 2000 14:15:57.000,67.118,67.003,12351.202244
2 Jan 2000 14:16:07.000,66.559,67.022,12350.687930
2 Jan 2000 14:16:17.000,65.999,67.039,12350.241399
2 Jan 2000 14:16:27.000,65.438,67.054,12349.862658
2 Jan 2000 14:16:37.000,64.876,67.066,12349.551712
2 Jan 2000 14:16:47.000,64.314,67.076,12349.308562
2 Jan 2000 14:16:57.000,63.752,67.084,12349.133211
2 Jan 2000 14:17:07.000,63.189,67.089,12349.025659
2 Jan 2000 14:17:17.000,62.626,67.092,12348.985903
2 Jan 2000 14:17:27.000,62.063,67.093,12349.013940
2 Jan 2000 14:17:37.000,61.500,67.091,12349.109764
2 Jan 2000 14:17:47.000,60.938,67.087,12349.273369
2 Jan 2000 14:17:57.000,60.375,67.081,12349.504746
2 Jan 2000 14:18:07.000,59.813,67.072,12349.803885
2 Jan 2000 14:18:17.000,59.252,67.062,12350.170773
2 Jan 2000 14:18:27.000,58.691,67.048,12350.605398
2 Jan 2000 14:18:37.000,58.132,67.033,12351.107744
2 Jan 2000 14:18:47.000,57.573,67.015,12351.677793
2 Jan 2000 14:18:57.000,57.015,66.995,12352.315529
2 Jan 2000 14:19:07.000,56.458,66.973,12353.020929
2 Jan 2000 14:19:17.000,55.902,66.948,12353.793973
2 Jan 2000 14:19:27.000,55.348,66.922,12354.634636
2 Jan 2000 14:19:37.000,54.796,66.892,12355.542895
2 Jan 2000 14:19:47.000,54.245,66.861,12356.518721
2 Jan 2000 14:19:57.000,53.695,66.828,12357.562086
2 Jan 2000 14:20:07.000,53.148,66.792,12358.672961
2 Jan 2000 14:20:17.000,52.602,66.754,12359.851313
2 Jan 2000 14:20:27.000,52.058,66.714,12361.097109
2 Jan 2000 14:20:37.000,51.517,66.671,12362.410314
2 Jan 2000 14:20:47.000,50.977,66.627,12363.790892
2 Jan 2000 14:20:57.000,50.440,66.580,12365.238803
2 Jan 2000 14:21:07.000,49.906,66.531,12366.754009
2 Jan 2000 14:21:17.000,49.374,66.480,12368.336468
2 Jan 2000 14:21:27.000,48.844,66.427,12369.986136
2 Jan 2000 14:21:37.000,48.317,66.372,12371.702969
2 Jan 2000 14:21:47.000,47.793,66.315,12373.486920
2 Jan 2000 14:21:57.000,47.271,66.255,12375.337942
2 Jan 2000 14:22:07.000,46.753,66.194,12377.255984
2 Jan 2000 14:22:17.000,46.237,66.131,12379.240996
2 Jan 2000 14:22:27.000,45.724,66.065,12381.292925
2 Jan 2000 14:22:37.000,45.215,65.998,12383.411716
2 Jan 2000 14:22:47.000,44.709,65.928,12385.597314
2 Jan 2000 14:22:57.000,44.206,65.857,12387.849661
2 Jan 2000 14:23:07.000,43.706,65.784,12390.168698
2 Jan 2000 14:23:17.000,43.209,65.709,12392.554364
2 Jan 2000 14:23:27.000,42.716,65.631,12395.006597
2 Jan 2000 14:23:37.000,42.226,65.553,12397.525333
2 Jan 2000 14:23:47.000,41.740,65.472,12400.110507
2 Jan 2000 14:23:57.000,41.257,65.389,12402.762052
2 Jan 2000 14:24:07.000,40.778,65.305,12405.479899
2 Jan 2000 14:24:17.000,40.303,65.218,12408.263979
2 Jan 2000 14:24:27.000,39.831,65.130,12411.114220
2 Jan 2000 14:24:37.000,39.363,65.041,12414.030549
2 Jan 2000 14:24:47.000,38.898,64.949,12417.012891
2 Jan 2000 14:24:57.000,38.437,64.856,12420.061171
2 Jan 2000 14:25:07.000,37.980,64.761,12423.175310
2 Jan 2000 14:25:17.000,37.527,64.664,12426.355230
2 Jan 2000 14:25:27.000,37.077,64.566,12429.600850
2 Jan 2000 14:25:37.000,36.632,64.466,12432.912088
2 Jan 2000 14:25:47.000,36.190,64.365,12436.288860
2 Jan 2000 14:25:57.000,35.752,64.262,12439.731082
2 Jan 2000 14:26:07.000,35.318,64.158,12443.238666
2 Jan 2000 14:26:17.000,34.888,64.052,12446.811526
2 Jan 2000 14:26:27.000,34.461,63.944,12450.449571
2 Jan 2000 14:26:37.000,34.039,63.835,12454.152711
2 Jan 2000 14:26:47.000,33.620,63.724,12457.920854
2 Jan 2000 14:26:57.000,33.206,63.612,12461.753905
2 Jan 2000 14:27:07.000,32.795,63.499,12465.651770
2 Jan 2000 14:27:17.000,32.388,63.384,12469.614351
2 Jan 2000 14:27:27.000,31.985,63.268,12473.641552
2 Jan 2000 14:27:37.000,31.586,63.151,12477.733273
2 Jan 2000 14:27:47.000,31.191,63.032,12481.889412
2 Jan 2000 14:27:57.000,30.799,62.912,12486.109868
2 Jan 2000 14:28:07.000,30.412,62.790,12490.394537
2 Jan 2000 14:28:17.000,30.028,62.667,12494.743315
2 Jan 2000 14:28:27.000,29.648,62.544,12499.156095
2 Jan 2000 14:28:37.000,29.272,62.418,12503.632769
2 Jan 2000 14:28:47.000,28.900,62.292,12508.173229
2 Jan 2000 14:28:57.000,28.532,62.164,12512.777364
2 Jan 2000 14:29:07.000,28.167,62.035,12517.445063
2 Jan 2000 14:29:17.000,27.806,61.906,12522.176212
2 Jan 2000 14:29:27.000,27.449,61.774,12526.970698
2 Jan 2000 14:29:37.000,27.095,61.642,12531.828405
2 Jan 2000 14:29:47.000,26.745,61.509,12536.749215
2 Jan 2000 14:29:57.000,26.399,61.375,12541.733012
2 Jan 2000 14:30:07.000,26.057,61.239,12546.779676
2 Jan 2000 14:30:17.000,25.718,61.103,12551.889085
2 Jan 2000 14:30:27.000,25.383,60.965,12557.061118
2 Jan 2000 14:30:37.000,25.051,60.827,12562.295652
2 Jan 2000 14:30:47.000,24.723,60.687,12567.592563
2 Jan 2000 14:30:57.000,24.398,60.547,12572.951725
2 Jan 2000 14:31:07.000,24.077,60.406,12578.373010
2 Jan 2000 14:31:17.000,23.760,60.263,12583.856291
2 Jan 2000 14:31:27.000,23.445,60.120,12589.401439
2 Jan 2000 14:31:37.000,23.135,59.976,12595.008324
2 Jan 2000 14:31:47.000,22.827,59.831,12600.676813
2 Jan 2000 14:31:57.000,22.523,59.685,12606.406774
2 Jan 2000 14:32:07.000,22.222,59.539,12612.198072
2 Jan 2000 14:32:17.000,21.925,59.391,12618.050574
2 Jan 2000 14:32:27.000,21.631,59.243,12623.964142
2 Jan 2000 14:32:37.000,21.340,59.094,12629.938639
2 Jan 2000 14:32:47.000,21.052,58.944,12635.973927
2 Jan 2000 14:32:57.000,20.768,58.793,12642.069866
2 Jan 2000 14:33:07.000,20.486,58.642,12648.226315
2 Jan 2000 14:33:17.000,20.208,58.489,12654.443133
2 Jan 2000 14:33:27.000,19.933,58.337,12660.720176
2 Jan 2000 14:33:37.000,19.661,58.183,12667.057301
2 Jan 2000 14:33:47.000,19.392,58.029,12673.454363
2 Jan 2000 14:33:57.000,19.126,57.874,12679.911215
2 Jan 2000 14:34:07.000,18.863,57.718,12686.427711
2 Jan 2000 14:34:17.000,18.603,57.562,12693.003702
2 Jan 2000 14:34:27.000,18.346,57.405,12699.639039
2 Jan 2000 14:34:37.000,18.091,57.247,12706.333573
2 Jan 2000 14:34:47.000,17.840,57.089,12713.087151
2 Jan 2000 14:34:57.000,17.591,56.930,12719.899621
2 Jan 2000 14:35:07.000,17.345,56.771,12726.770831
2 Jan 2000 14:35:17.000,17.102,56.611,12733.700627
2 Jan 2000 14:35:27.000,16.862,56.451,12740.688852
2 Jan 2000 14:35:37.000,16.624,56.290,12747.735352
2 Jan 2000 14:35:47.000,16.389,56.128,12754.839970
2 Jan 2000 14:35:57.000,16.157,55.966,12762.002546
2 Jan 2000 14:36:07.000,15.927,55.803,12769.222924
2 Jan 2000 14:36:17.000,15.700,55.640,12776.500942
2 Jan 2000 14:36:27.000,15.476,55.476,12783.836440
2 Jan 2000 14:36:37.000,15.254,55.312,12791.229257
2 Jan 2000 14:36:47.000,15.034,55.148,12798.679231
2 Jan 2000 14:36:57.000,14.817,54.983,12806.186197
2 Jan 2000 14:37:07.000,14.602,54.817,12813.749993
2 Jan 2000 14:37:17.000,14.390,54.651,12821.370453
2 Jan 2000 14:37:27.000,14.180,54.485,12829.047411
2 Jan 2000 14:37:37.000,13.973,54.318,12836.780701
2 Jan 2000 14:37:47.000,13.768,54.151,12844.570155
2 Jan 2000 14:37:57.000,13.565,53.983,12852.415606
2 Jan 2000 14:38:07.000,13.365,53.815,12860.316883
2 Jan 2000 14:38:17.000,13.167,53.647,12868.273818
2 Jan 2000 14:38:27.000,12.971,53.478,12876.286239
2 Jan 2000 14:38:37.000,12.777,53.309,12884.353977
2 Jan 2000 14:38:47.000,12.585,53.140,12892.476857
2 Jan 2000 14:38:57.000,12.396,52.970,12900.654708
2 Jan 2000 14:39:07.000,12.208,52.800,12908.887356
2 Jan 2000 14:39:17.000,12.023,52.630,12917.174627
2 Jan 2000 14:39:27.000,11.840,52.459,12925.516346
2 Jan 2000 14:39:37.000,11.659,52.288,12933.912337
2 Jan 2000 14:39:47.000,11.480,52.116,12942.362424
2 Jan 2000 14:39:57.000,11.303,51.945,12950.866429
2 Jan 2000 14:40:07.000,11.128,51.773,12959.424176
2 Jan 2000 14:40:17.000,10.955,51.600,12968.035486
2 Jan 2000 14:40:27.000,10.784,51.428,12976.700179
2 Jan 2000 14:40:37.000,10.615,51.255,12985.418077
2 Jan 2000 14:40:47.000,10.447,51.082,12994.188999
2 Jan 2000 14:40:57.000,10.282,50.909,13003.012763
2 Jan 2000 14:41:07.000,10.118,50.735,13011.889190
2 Jan 2000 14:41:17.000,9.957,50.562,13020.818096
2 Jan 2000 14:41:27.000,9.797,50.388,13029.799298
2 Jan 2000 14:41:37.000,9.639,50.213,13038.832615
2 Jan 2000 14:41:47.000,9.482,50.039,13047.917861
2 Jan 2000 14:41:57.000,9.328,49.864,13057.054853
2 Jan 2000 14:42:07.000,9.175,49.690,13066.243405
2 Jan 2000 14:42:17.000,9.023,49.515,13075.483333
2 Jan 2000 14:42:27.000,8.874,49.339,13084.774450
2 Jan 2000 14:42:37.000,8.726,49.164,13094.116570
2 Jan 2000 14:42:47.000,8.580,48.988,13103.509505
2 Jan 2000 14:42:57.000,8.435,48.813,13112.953069
2 Jan 2000 14:43:07.000,8.292,48.637,13122.447074
2 Jan 2000 14:43:17.000,8.151,48.461,13131.991330
2 Jan 2000 14:43:27.000,8.011,48.284,13141.585650
2 Jan 2000 14:43:37.000,7.873,48.108,13151.229844
2 Jan 2000 14:43:47.000,7.736,47.932,13160.923721
2 Jan 2000 14:43:57.000,7.601,47.755,13170.667092
2 Jan 2000 14:44:07.000,7.468,47.578,13180.459767
2 Jan 2000 14:44:17.000,7.335,47.401,13190.301553
2 Jan 2000 14:44:27.000,7.205,47.224,13200.192261
2 Jan 2000 14:44:37.000,7.075,47.047,13210.131697
2 Jan 2000 14:44:47.000,6.948,46.870,13220.119669
2 Jan 2000 14:44:57.000,6.821,46.692,13230.155985
2 Jan 2000 14:45:07.000,6.696,46.515,13240.240452
2 Jan 2000 14:45:17.000,6.572,46.337,13250.372877
2 Jan 2000 14:45:27.000,6.450,46.160,13260.553065
2 Jan 2000 14:45:37.000,6.329,45.982,13270.780824
2 Jan 2000 14:45:47.000,6.210,45.804,13281.055957
2 Jan 2000 14:45:57.000,6.091,45.626,13291.378271
2 Jan 2000 14:46:07.000,5.975,45.448,13301.747570
2 Jan 2000 14:46:17.000,5.859,45.270,13312.163660
2 Jan 2000 14:46:27.000,5.745,45.092,13322.626344
2 Jan 2000 14:46:37.000,5.631,44.914,13333.135427
2 Jan 2000 14:46:47.000,5.520,44.736,13343.690713
2 Jan 2000 14:46:57.000,5.409,44.557,13354.292004
2 Jan 2000 14:47:07.000,5.300,44.379,13364.939104
2 Jan 2000 14:47:17.000,5.191,44.201,13375.631817
2 Jan 2000 14:47:27.000,5.084,44.022,13386.369945
2 Jan 2000 14:47:37.000,4.979,43.844,13397.153290
2 Jan 2000 14:47:47.000,4.874,43.665,13407.981656
2 Jan 2000 14:47:57.000,4.771,43.487,13418.854843
2 Jan 2000 14:48:07.000,4.668,43.308,13429.772654
2 Jan 2000 14:48:17.000,4.567,43.130,13440.734890
2 Jan 2000 14:48:27.000,4.467,42.951,13451.741353
2 Jan 2000 14:48:37.000,4.368,42.772,13462.791845
2 Jan 2000 14:48:47.000,4.270,42.594,13473.886166
2 Jan 2000 14:48:57.000,4.173,42.415,13485.024117
2 Jan 2000 14:49:07.000,4.078,42.236,13496.205499
2 Jan 2000 14:49:17.000,3.983,42.058,13507.430113
2 Jan 2000 14:49:27.000,3.889,41.879,13518.697759
2 Jan 2000 14:49:37.000,3.797,41.701,13530.008238
2 Jan 2000 14:49:47.000,3.705,41.522,13541.361349
2 Jan 2000 14:49:57.000,3.615,41.343,13552.756894
2 Jan 2000 14:50:07.000,3.525,41.165,13564.194671
2 Jan 2000 14:50:17.000,3.437,40.986,13575.674481
2 Jan 2000 14:50:27.000,3.349,40.807,13587.196123
2 Jan 2000 14:50:37.000,3.263,40.629,13598.759397
2 Jan 2000 14:50:47.000,3.177,40.450,13610.364104
2 Jan 2000 14:50:57.000,3.092,40.272,13622.010041
2 Jan 2000 14:51:07.000,3.009,40.093,13633.697010
2 Jan 2000 14:51:17.000,2.926,39.915,13645.424808
2 Jan 2000 14:51:27.000,2.844,39.736,13657.193236
2 Jan 2000 14:51:37.000,2.763,39.558,13669.002093
2 Jan 2000 14:51:47.000,2.683,39.380,13680.851178
2 Jan 2000 14:51:57.000,2.604,39.201,13692.740290
2 Jan 2000 14:52:07.000,2.525,39.023,13704.669228
2 Jan 2000 14:52:17.000,2.448,38.845,13716.637792
2 Jan 2000 14:52:27.000,2.371,38.667,13728.645781
2 Jan 2000 14:52:37.000,2.296,38.488,13740.692993
2 Jan 2000 14:52:47.000,2.221,38.310,13752.779229
2 Jan 2000 14:52:57.000,2.147,38.132,13764.904287
2 Jan 2000 14:53:07.000,2.074,37.954,13777.067966
2 Jan 2000 14:53:17.000,2.002,37.776,13789.270066
2 Jan 2000 14:53:27.000,1.930,37.599,13801.510386
2 Jan 2000 14:53:37.000,1.859,37.421,13813.788725
2 Jan 2000 14:53:47.000,1.789,37.243,13826.104882
2 Jan 2000 14:53:57.000,1.720,37.065,13838.458657
2 Jan 2000 14:54:07.000,1.652,36.888,13850.849849
2 Jan 2000 14:54:17.000,1.584,36.710,13863.278258
2 Jan 2000 14:54:27.000,1.518,36.533,13875.743682
2 Jan 2000 14:54:37.000,1.452,36.356,13888.245923
2 Jan 2000 14:54:47.000,1.386,36.178,13900.784778
2 Jan 2000 14:54:57.000,1.322,36.001,13913.360049
2 Jan 2000 14:55:07.000,1.258,35.824,13925.971535
2 Jan 2000 14:55:17.000,1.195,35.647,13938.619035
2 Jan 2000 14:55:27.000,1.132,35.470,13951.302350
2 Jan 2000 14:55:37.000,1.071,35.293,13964.021281
2 Jan 2000 14:55:47.000,1.010,35.116,13976.775626
2 Jan 2000 14:55:53.524,0.971,35.001,13985.116168

Interval Statistics
"Min Elevation",2 Jan 2000 14:55:53.524,0.971,35.001,13985.116168
"Max Elevation",2 Jan 2000 14:17:25.031,62.174,67.093,12349.003060
"Mean Elevation",,,56.882,
"Min Range",2 Jan 2000 14:17:17.864,62.577,67.092,12348.985650
"Max Range",2 Jan 2000 14:55:53.524,0.971,35.001,13985.116168
"Mean Range",,,,12780.375965

"Time (UTCG)","Azimuth (deg)","Elevation (deg)","Range (km)"
3 Jan 2000 05:04:06.447,348.062,51.254,12985.456676
3 Jan 2000 05:04:16.000,347.886,51.413,12977.403101
3 Jan 2000 05:04:26.000,347.700,51.580,12969.025745
3 Jan 2000 05:04:36.000,347.512,51.746,12960.702790
3 Jan 2000 05:04:46.000,347.322,51.912,12952.434411
3 Jan 2000 05:04:56.000,347.130,52.078,12944.220782
3 Jan 2000 05:05:06.000,346.935,52.243,12936.062076
3 Jan 2000 05:05:16.000,346.739,52.408,12927.958466
3 Jan 2000 05:05:26.000,346.541,52.572,12919.910122
3 Jan 2000 05:05:36.000,346.340,52.736,12911.917217
3 Jan 2000 05:05:46.000,346.137,52.900,12903.979921
3 Jan 2000 05:05:56.000,345.933,53.063,12896.098402
3 Jan 2000 05:06:06.000,345.725,53.226,12888.272830
3 Jan 2000 05:06:16.000,345.516,53.389,12880.503373
3 Jan 2000 05:06:26.000,345.305,53.551,12872.790197
3 Jan 2000 05:06:36.000,345.091,53.712,12865.133470
3 Jan 2000 05:06:46.000,344.875,53.873,12857.533355
3 Jan 2000 05:06:56.000,344.656,54.034,12849.990020
3 Jan 2000 05:07:06.000,344.435,54.194,12842.503626
3 Jan 2000 05:07:16.000,344.212,54.353,12835.074337
3 Jan 2000 05:07:26.000,343.987,54.513,12827.702315
3 Jan 2000 05:07:36.000,343.759,54.671,12820.387721
3 Jan 2000 05:07:46.000,343.528,54.829,12813.130715
3 Jan 2000 05:07:56.000,343.295,54.987,12805.931458
3 Jan 2000 05:08:06.000,343.060,55.144,12798.790107
3 Jan 2000 05:08:16.000,342.822,55.300,12791.706820
3 Jan 2000 05:08:26.000,342.581,55.456,12784.681754
3 Jan 2000 05:08:36.000,342.338,55.611,12777.715065
3 Jan 2000 05:08:46.000,342.093,55.766,12770.806907
