cemeouhf_ael/Place-CEMID-Sensor-Sensor1-To-Satellite-POLMEO14_AER.csv

"Time (UTCG)","Azimuth (deg)","Elevation (deg)","Range (km)"
1 Jan 2000 15:58:12.688,182.844,57.909,12663.088454
1 Jan 2000 15:58:22.000,182.952,58.100,12655.254964
1 Jan 2000 15:58:32.000,183.069,58.305,12646.893235
1 Jan 2000 15:58:42.000,183.188,58.511,12638.584058
1 Jan 2000 15:58:52.000,183.308,58.716,12630.327578
1 Jan 2000 15:59:02.000,183.430,58.921,12622.123938
1 Jan 2000 15:59:12.000,183.552,59.127,12613.973281
1 Jan 2000 15:59:22.000,183.676,59.332,12605.875750
1 Jan 2000 15:59:32.000,183.802,59.538,12597.831485
1 Jan 2000 15:59:42.000,183.929,59.744,12589.840628
1 Jan 2000 15:59:52.000,184.057,59.949,12581.903318
1 Jan 2000 16:00:02.000,184.187,60.155,12574.019694
1 Jan 2000 16:00:12.000,184.318,60.361,12566.189895
1 Jan 2000 16:00:22.000,184.451,60.567,12558.414057
1 Jan 2000 16:00:32.000,184.585,60.773,12550.692318
1 Jan 2000 16:00:42.000,184.721,60.979,12543.024813
1 Jan 2000 16:00:52.000,184.858,61.185,12535.411677
1 Jan 2000 16:01:02.000,184.998,61.391,12527.853044
1 Jan 2000 16:01:12.000,185.138,61.597,12520.349048
1 Jan 2000 16:01:22.000,185.281,61.803,12512.899820
1 Jan 2000 16:01:32.000,185.426,62.010,12505.505493
1 Jan 2000 16:01:42.000,185.572,62.216,12498.166196
1 Jan 2000 16:01:52.000,185.720,62.422,12490.882059
1 Jan 2000 16:02:02.000,185.870,62.628,12483.653212
1 Jan 2000 16:02:12.000,186.022,62.835,12476.479782
1 Jan 2000 16:02:22.000,186.175,63.041,12469.361896
1 Jan 2000 16:02:32.000,186.331,63.247,12462.299680
1 Jan 2000 16:02:42.000,186.489,63.454,12455.293260
1 Jan 2000 16:02:52.000,186.649,63.660,12448.342759
1 Jan 2000 16:03:02.000,186.811,63.866,12441.448300
1 Jan 2000 16:03:12.000,186.976,64.073,12434.610007
1 Jan 2000 16:03:22.000,187.143,64.279,12427.828000
1 Jan 2000 16:03:32.000,187.312,64.485,12421.102399
1 Jan 2000 16:03:42.000,187.483,64.691,12414.433325
1 Jan 2000 16:03:52.000,187.657,64.898,12407.820894
1 Jan 2000 16:04:02.000,187.833,65.104,12401.265226
1 Jan 2000 16:04:12.000,188.012,65.310,12394.766435
1 Jan 2000 16:04:22.000,188.193,65.516,12388.324638
1 Jan 2000 16:04:32.000,188.377,65.722,12381.939949
1 Jan 2000 16:04:42.000,188.564,65.928,12375.612481
1 Jan 2000 16:04:52.000,188.754,66.134,12369.342347
1 Jan 2000 16:05:02.000,188.946,66.340,12363.129656
1 Jan 2000 16:05:12.000,189.142,66.546,12356.974521
1 Jan 2000 16:05:22.000,189.340,66.751,12350.877050
1 Jan 2000 16:05:32.000,189.542,66.957,12344.837350
1 Jan 2000 16:05:42.000,189.747,67.163,12338.855530
1 Jan 2000 16:05:52.000,189.955,67.368,12332.931694
1 Jan 2000 16:06:02.000,190.166,67.573,12327.065948
1 Jan 2000 16:06:12.000,190.381,67.779,12321.258396
1 Jan 2000 16:06:22.000,190.600,67.984,12315.509139
1 Jan 2000 16:06:32.000,190.822,68.189,12309.818280
1 Jan 2000 16:06:42.000,191.048,68.394,12304.185918
1 Jan 2000 16:06:52.000,191.277,68.598,12298.612154
1 Jan 2000 16:07:02.000,191.511,68.803,12293.097085
1 Jan 2000 16:07:12.000,191.748,69.007,12287.640808
1 Jan 2000 16:07:22.000,191.990,69.211,12282.243419
1 Jan 2000 16:07:32.000,192.236,69.415,12276.905012
1 Jan 2000 16:07:42.000,192.487,69.619,12271.625682
1 Jan 2000 16:07:52.000,192.742,69.823,12266.405521
1 Jan 2000 16:08:02.000,193.002,70.026,12261.244619
1 Jan 2000 16:08:12.000,193.266,70.229,12256.143067
1 Jan 2000 16:08:22.000,193.536,70.432,12251.100953
1 Jan 2000 16:08:32.000,193.811,70.635,12246.118365
1 Jan 2000 16:08:42.000,194.090,70.837,12241.195390
1 Jan 2000 16:08:52.000,194.376,71.039,12236.332113
1 Jan 2000 16:09:02.000,194.667,71.241,12231.528617
1 Jan 2000 16:09:12.000,194.963,71.442,12226.784986
1 Jan 2000 16:09:22.000,195.266,71.644,12222.101301
1 Jan 2000 16:09:32.000,195.574,71.845,12217.477642
1 Jan 2000 16:09:42.000,195.889,72.045,12212.914088
1 Jan 2000 16:09:52.000,196.211,72.245,12208.410717
1 Jan 2000 16:10:02.000,196.539,72.445,12203.967607
1 Jan 2000 16:10:12.000,196.874,72.644,12199.584831
1 Jan 2000 16:10:22.000,197.217,72.843,12195.262464
1 Jan 2000 16:10:32.000,197.566,73.042,12191.000579
1 Jan 2000 16:10:42.000,197.924,73.240,12186.799248
1 Jan 2000 16:10:52.000,198.289,73.437,12182.658540
1 Jan 2000 16:11:02.000,198.662,73.634,12178.578524
1 Jan 2000 16:11:12.000,199.044,73.831,12174.559269
1 Jan 2000 16:11:22.000,199.434,74.027,12170.600840
1 Jan 2000 16:11:32.000,199.834,74.222,12166.703302
1 Jan 2000 16:11:42.000,200.243,74.417,12162.866720
1 Jan 2000 16:11:52.000,200.661,74.611,12159.091156
1 Jan 2000 16:12:02.000,201.090,74.805,12155.376670
1 Jan 2000 16:12:12.000,201.528,74.998,12151.723323
1 Jan 2000 16:12:22.000,201.978,75.190,12148.131173
1 Jan 2000 16:12:32.000,202.438,75.381,12144.600277
1 Jan 2000 16:12:42.000,202.910,75.572,12141.130692
1 Jan 2000 16:12:52.000,203.394,75.762,12137.722470
1 Jan 2000 16:13:02.000,203.890,75.951,12134.375667
1 Jan 2000 16:13:12.000,204.399,76.139,12131.090332
1 Jan 2000 16:13:22.000,204.920,76.326,12127.866517
1 Jan 2000 16:13:32.000,205.456,76.512,12124.704272
1 Jan 2000 16:13:42.000,206.006,76.697,12121.603642
1 Jan 2000 16:13:52.000,206.570,76.882,12118.564676
1 Jan 2000 16:14:02.000,207.150,77.065,12115.587417
1 Jan 2000 16:14:12.000,207.745,77.246,12112.671910
1 Jan 2000 16:14:22.000,208.357,77.427,12109.818196
1 Jan 2000 16:14:32.000,208.985,77.606,12107.026317
1 Jan 2000 16:14:42.000,209.631,77.784,12104.296312
1 Jan 2000 16:14:52.000,210.296,77.961,12101.628218
1 Jan 2000 16:15:02.000,210.979,78.136,12099.022074
1 Jan 2000 16:15:12.000,211.681,78.310,12096.477913
1 Jan 2000 16:15:22.000,212.404,78.482,12093.995770
1 Jan 2000 16:15:32.000,213.148,78.652,12091.575677
1 Jan 2000 16:15:42.000,213.913,78.820,12089.217666
1 Jan 2000 16:15:52.000,214.700,78.987,12086.921766
1 Jan 2000 16:16:02.000,215.511,79.152,12084.688005
1 Jan 2000 16:16:12.000,216.346,79.315,12082.516411
1 Jan 2000 16:16:22.000,217.205,79.475,12080.407008
1 Jan 2000 16:16:32.000,218.090,79.634,12078.359822
1 Jan 2000 16:16:42.000,219.001,79.790,12076.374873
1 Jan 2000 16:16:52.000,219.939,79.943,12074.452184
1 Jan 2000 16:17:02.000,220.905,80.094,12072.591775
1 Jan 2000 16:17:12.000,221.900,80.243,12070.793664
1 Jan 2000 16:17:22.000,222.924,80.388,12069.057867
1 Jan 2000 16:17:32.000,223.979,80.531,12067.384400
1 Jan 2000 16:17:42.000,225.064,80.670,12065.773278
1 Jan 2000 16:17:52.000,226.181,80.807,12064.224514
1 Jan 2000 16:18:02.000,227.330,80.940,12062.738117
1 Jan 2000 16:18:12.000,228.512,81.069,12061.314099
1 Jan 2000 16:18:22.000,229.728,81.195,12059.952467
1 Jan 2000 16:18:32.000,230.977,81.317,12058.653229
1 Jan 2000 16:18:42.000,232.260,81.435,12057.416390
1 Jan 2000 16:18:52.000,233.577,81.549,12056.241955
1 Jan 2000 16:19:02.000,234.929,81.658,12055.129925
1 Jan 2000 16:19:12.000,236.315,81.763,12054.080302
1 Jan 2000 16:19:22.000,237.735,81.863,12053.093086
1 Jan 2000 16:19:32.000,239.188,81.959,12052.168276
1 Jan 2000 16:19:42.000,240.675,82.049,12051.305867
1 Jan 2000 16:19:52.000,242.194,82.134,12050.505857
1 Jan 2000 16:20:02.000,243.745,82.214,12049.768238
1 Jan 2000 16:20:12.000,245.326,82.288,12049.093004
1 Jan 2000 16:20:22.000,246.935,82.357,12048.480145
1 Jan 2000 16:20:32.000,248.572,82.419,12047.929652
1 Jan 2000 16:20:42.000,250.234,82.476,12047.441513
1 Jan 2000 16:20:52.000,251.919,82.526,12047.015714
1 Jan 2000 16:21:02.000,253.625,82.571,12046.652241
1 Jan 2000 16:21:12.000,255.350,82.608,12046.351079
1 Jan 2000 16:21:22.000,257.090,82.640,12046.112209
1 Jan 2000 16:21:32.000,258.844,82.665,12045.935614
1 Jan 2000 16:21:42.000,260.607,82.683,12045.821272
1 Jan 2000 16:21:52.000,262.377,82.694,12045.769163
1 Jan 2000 16:22:02.000,264.150,82.699,12045.779262
1 Jan 2000 16:22:12.000,265.925,82.697,12045.851547
1 Jan 2000 16:22:22.000,267.696,82.688,12045.985990
1 Jan 2000 16:22:32.000,269.462,82.673,12046.182564
1 Jan 2000 16:22:42.000,271.218,82.651,12046.441241
1 Jan 2000 16:22:52.000,272.963,82.623,12046.761990
1 Jan 2000 16:23:02.000,274.693,82.588,12047.144780
1 Jan 2000 16:23:12.000,276.405,82.546,12047.589578
1 Jan 2000 16:23:22.000,278.097,82.499,12048.096350
1 Jan 2000 16:23:32.000,279.766,82.445,12048.665059
1 Jan 2000 16:23:42.000,281.411,82.385,12049.295669
1 Jan 2000 16:23:52.000,283.029,82.319,12049.988141
1 Jan 2000 16:24:02.000,284.619,82.248,12050.742435
1 Jan 2000 16:24:12.000,286.180,82.171,12051.558510
1 Jan 2000 16:24:22.000,287.709,82.088,12052.436322
1 Jan 2000 16:24:32.000,289.206,82.001,12053.375829
1 Jan 2000 16:24:42.000,290.671,81.908,12054.376983
1 Jan 2000 16:24:52.000,292.102,81.810,12055.439739
1 Jan 2000 16:25:02.000,293.499,81.708,12056.564048
1 Jan 2000 16:25:12.000,294.862,81.601,12057.749860
1 Jan 2000 16:25:22.000,296.191,81.490,12058.997124
1 Jan 2000 16:25:32.000,297.485,81.375,12060.305789
1 Jan 2000 16:25:42.000,298.746,81.255,12061.675799
1 Jan 2000 16:25:52.000,299.972,81.132,12063.107101
1 Jan 2000 16:26:02.000,301.166,81.005,12064.599637
1 Jan 2000 16:26:12.000,302.326,80.875,12066.153351
1 Jan 2000 16:26:22.000,303.455,80.741,12067.768182
1 Jan 2000 16:26:32.000,304.551,80.604,12069.444070
1 Jan 2000 16:26:42.000,305.617,80.464,12071.180954
1 Jan 2000 16:26:52.000,306.652,80.321,12072.978770
1 Jan 2000 16:27:02.000,307.658,80.176,12074.837453
1 Jan 2000 16:27:12.000,308.635,80.027,12076.756939
1 Jan 2000 16:27:22.000,309.584,79.876,12078.737160
1 Jan 2000 16:27:32.000,310.505,79.723,12080.778047
1 Jan 2000 16:27:42.000,311.401,79.568,12082.879531
1 Jan 2000 16:27:52.000,312.270,79.410,12085.041541
1 Jan 2000 16:28:02.000,313.115,79.250,12087.264004
1 Jan 2000 16:28:12.000,313.936,79.088,12089.546847
1 Jan 2000 16:28:22.000,314.733,78.924,12091.889995
1 Jan 2000 16:28:32.000,315.508,78.758,12094.293371
1 Jan 2000 16:28:42.000,316.262,78.591,12096.756899
1 Jan 2000 16:28:52.000,316.994,78.422,12099.280500
1 Jan 2000 16:29:02.000,317.706,78.251,12101.864093
1 Jan 2000 16:29:12.000,318.398,78.079,12104.507598
1 Jan 2000 16:29:22.000,319.072,77.905,12107.210931
1 Jan 2000 16:29:32.000,319.727,77.731,12109.974010
1 Jan 2000 16:29:42.000,320.365,77.554,12112.796750
1 Jan 2000 16:29:52.000,320.986,77.377,12115.679063
1 Jan 2000 16:30:02.000,321.590,77.198,12118.620863
1 Jan 2000 16:30:12.000,322.178,77.019,12121.622061
1 Jan 2000 16:30:22.000,322.752,76.838,12124.682568
1 Jan 2000 16:30:32.000,323.310,76.656,12127.802291
1 Jan 2000 16:30:42.000,323.855,76.473,12130.981140
1 Jan 2000 16:30:52.000,324.385,76.289,12134.219020
1 Jan 2000 16:31:02.000,324.903,76.105,12137.515838
1 Jan 2000 16:31:12.000,325.408,75.919,12140.871496
1 Jan 2000 16:31:22.000,325.900,75.733,12144.285899
1 Jan 2000 16:31:32.000,326.380,75.546,12147.758947
1 Jan 2000 16:31:42.000,326.850,75.358,12151.290543
1 Jan 2000 16:31:52.000,327.308,75.169,12154.880585
1 Jan 2000 16:32:02.000,327.755,74.980,12158.528972
1 Jan 2000 16:32:12.000,328.192,74.790,12162.235601
1 Jan 2000 16:32:22.000,328.619,74.600,12166.000368
1 Jan 2000 16:32:32.000,329.036,74.409,12169.823168
1 Jan 2000 16:32:42.000,329.444,74.218,12173.703896
1 Jan 2000 16:32:52.000,329.843,74.026,12177.642444
1 Jan 2000 16:33:02.000,330.234,73.833,12181.638704
1 Jan 2000 16:33:12.000,330.616,73.640,12185.692566
1 Jan 2000 16:33:22.000,330.990,73.446,12189.803921
1 Jan 2000 16:33:32.000,331.356,73.253,12193.972655
1 Jan 2000 16:33:42.000,331.714,73.058,12198.198658
1 Jan 2000 16:33:52.000,332.065,72.863,12202.481815
1 Jan 2000 16:34:02.000,332.409,72.668,12206.822012
1 Jan 2000 16:34:12.000,332.746,72.473,12211.219133
1 Jan 2000 16:34:22.000,333.076,72.277,12215.673060
1 Jan 2000 16:34:32.000,333.400,72.081,12220.183677
1 Jan 2000 16:34:42.000,333.718,71.885,12224.750865
1 Jan 2000 16:34:52.000,334.029,71.688,12229.374503
1 Jan 2000 16:35:02.000,334.335,71.491,12234.054471
1 Jan 2000 16:35:12.000,334.635,71.294,12238.790647
1 Jan 2000 16:35:22.000,334.929,71.096,12243.582909
1 Jan 2000 16:35:32.000,335.218,70.899,12248.431132
1 Jan 2000 16:35:42.000,335.502,70.701,12253.335191
1 Jan 2000 16:35:52.000,335.781,70.503,12258.294962
1 Jan 2000 16:36:02.000,336.055,70.304,12263.310316
1 Jan 2000 16:36:12.000,336.324,70.106,12268.381128
1 Jan 2000 16:36:22.000,336.589,69.907,12273.507267
1 Jan 2000 16:36:32.000,336.849,69.709,12278.688605
1 Jan 2000 16:36:42.000,337.104,69.510,12283.925012
1 Jan 2000 16:36:52.000,337.356,69.311,12289.216355
1 Jan 2000 16:37:02.000,337.603,69.111,12294.562503
1 Jan 2000 16:37:12.000,337.847,68.912,12299.963323
1 Jan 2000 16:37:22.000,338.086,68.713,12305.418680
1 Jan 2000 16:37:32.000,338.322,68.513,12310.928441
1 Jan 2000 16:37:42.000,338.554,68.313,12316.492468
1 Jan 2000 16:37:52.000,338.782,68.114,12322.110626
1 Jan 2000 16:38:02.000,339.007,67.914,12327.782776
1 Jan 2000 16:38:12.000,339.229,67.714,12333.508782
1 Jan 2000 16:38:22.000,339.447,67.514,12339.288503
1 Jan 2000 16:38:32.000,339.662,67.314,12345.121800
1 Jan 2000 16:38:42.000,339.874,67.114,12351.008532
1 Jan 2000 16:38:52.000,340.083,66.914,12356.948557
1 Jan 2000 16:39:02.000,340.289,66.714,12362.941733
1 Jan 2000 16:39:12.000,340.492,66.514,12368.987917
1 Jan 2000 16:39:22.000,340.693,66.314,12375.086965
1 Jan 2000 16:39:32.000,340.890,66.114,12381.238733
1 Jan 2000 16:39:42.000,341.085,65.914,12387.443074
1 Jan 2000 16:39:52.000,341.278,65.713,12393.699843
1 Jan 2000 16:40:02.000,341.468,65.513,12400.008893
1 Jan 2000 16:40:12.000,341.655,65.313,12406.370076
1 Jan 2000 16:40:22.000,341.840,65.113,12412.783244
1 Jan 2000 16:40:32.000,342.022,64.913,12419.248247
1 Jan 2000 16:40:42.000,342.203,64.713,12425.764935
1 Jan 2000 16:40:52.000,342.381,64.513,12432.333159
1 Jan 2000 16:41:02.000,342.557,64.313,12438.952767
1 Jan 2000 16:41:12.000,342.731,64.113,12445.623607
1 Jan 2000 16:41:22.000,342.902,63.913,12452.345526
1 Jan 2000 16:41:32.000,343.072,63.713,12459.118372
1 Jan 2000 16:41:42.000,343.240,63.513,12465.941990
1 Jan 2000 16:41:52.000,343.405,63.313,12472.816226
1 Jan 2000 16:42:02.000,343.569,63.113,12479.740924
1 Jan 2000 16:42:12.000,343.731,62.914,12486.715929
1 Jan 2000 16:42:22.000,343.892,62.714,12493.741085
1 Jan 2000 16:42:32.000,344.050,62.514,12500.816234
1 Jan 2000 16:42:42.000,344.207,62.315,12507.941219
1 Jan 2000 16:42:52.000,344.362,62.115,12515.115882
1 Jan 2000 16:43:02.000,344.515,61.916,12522.340063
1 Jan 2000 16:43:12.000,344.667,61.717,12529.613603
1 Jan 2000 16:43:22.000,344.817,61.518,12536.936343
1 Jan 2000 16:43:32.000,344.966,61.318,12544.308122
1 Jan 2000 16:43:42.000,345.113,61.119,12551.728779
1 Jan 2000 16:43:52.000,345.259,60.921,12559.198152
1 Jan 2000 16:44:02.000,345.403,60.722,12566.716080
1 Jan 2000 16:44:12.000,345.546,60.523,12574.282399
1 Jan 2000 16:44:22.000,345.688,60.324,12581.896946
1 Jan 2000 16:44:32.000,345.828,60.126,12589.559558
1 Jan 2000 16:44:42.000,345.967,59.928,12597.270070
1 Jan 2000 16:44:52.000,346.104,59.729,12605.028319
1 Jan 2000 16:45:02.000,346.241,59.531,12612.834138
1 Jan 2000 16:45:12.000,346.376,59.333,12620.687362
1 Jan 2000 16:45:22.000,346.509,59.135,12628.587826
1 Jan 2000 16:45:32.000,346.642,58.937,12636.535362
1 Jan 2000 16:45:42.000,346.774,58.740,12644.529804
1 Jan 2000 16:45:52.000,346.904,58.542,12652.570984
1 Jan 2000 16:46:02.000,347.033,58.345,12660.658735
1 Jan 2000 16:46:12.000,347.161,58.147,12668.792888
1 Jan 2000 16:46:22.000,347.288,57.950,12676.973275
1 Jan 2000 16:46:32.000,347.414,57.753,12685.199726
1 Jan 2000 16:46:42.000,347.539,57.556,12693.472072
1 Jan 2000 16:46:52.000,347.663,57.359,12701.790144
1 Jan 2000 16:47:02.000,347.786,57.163,12710.153771
1 Jan 2000 16:47:12.000,347.908,56.966,12718.562782
1 Jan 2000 16:47:22.000,348.029,56.770,12727.017007
1 Jan 2000 16:47:32.000,348.150,56.574,12735.516275
1 Jan 2000 16:47:42.000,348.269,56.377,12744.060413
1 Jan 2000 16:47:52.000,348.387,56.182,12752.649249
1 Jan 2000 16:48:02.000,348.505,55.986,12761.282613
1 Jan 2000 16:48:12.000,348.621,55.790,12769.960330
1 Jan 2000 16:48:22.000,348.737,55.595,12778.682228
1 Jan 2000 16:48:32.000,348.852,55.399,12787.448133
1 Jan 2000 16:48:42.000,348.966,55.204,12796.257873
1 Jan 2000 16:48:52.000,349.079,55.009,12805.111273
1 Jan 2000 16:49:02.000,349.192,54.814,12814.008159
1 Jan 2000 16:49:12.000,349.304,54.620,12822.948358
1 Jan 2000 16:49:22.000,349.415,54.425,12831.931693
1 Jan 2000 16:49:32.000,349.525,54.231,12840.957991
1 Jan 2000 16:49:42.000,349.634,54.037,12850.027076
1 Jan 2000 16:49:52.000,349.743,53.843,12859.138773
1 Jan 2000 16:50:02.000,349.851,53.649,12868.292906
1 Jan 2000 16:50:12.000,349.959,53.455,12877.489299
1 Jan 2000 16:50:22.000,350.066,53.262,12886.727777
1 Jan 2000 16:50:32.000,350.172,53.068,12896.008163
1 Jan 2000 16:50:42.000,350.277,52.875,12905.330280
1 Jan 2000 16:50:52.000,350.382,52.682,12914.693952
1 Jan 2000 16:51:02.000,350.486,52.489,12924.099003
1 Jan 2000 16:51:12.000,350.590,52.297,12933.545254
1 Jan 2000 16:51:22.000,350.693,52.104,12943.032529
1 Jan 2000 16:51:32.000,350.795,51.912,12952.560650
1 Jan 2000 16:51:42.000,350.897,51.720,12962.129440
1 Jan 2000 16:51:52.000,350.998,51.528,12971.738722
1 Jan 2000 16:52:02.000,351.099,51.336,12981.388316
1 Jan 2000 16:52:12.000,351.199,51.144,12991.078046
1 Jan 2000 16:52:22.000,351.298,50.953,13000.807733
1 Jan 2000 16:52:32.000,351.397,50.762,13010.577199
1 Jan 2000 16:52:42.000,351.496,50.571,13020.386265
1 Jan 2000 16:52:52.000,351.594,50.380,13030.234753
1 Jan 2000 16:53:02.000,351.691,50.189,13040.122485
1 Jan 2000 16:53:12.000,351.788,49.999,13050.049282
1 Jan 2000 16:53:22.000,351.885,49.809,13060.014965
1 Jan 2000 16:53:32.000,351.981,49.618,13070.019354
1 Jan 2000 16:53:42.000,352.076,49.429,13080.062272
1 Jan 2000 16:53:52.000,352.171,49.239,13090.143540
1 Jan 2000 16:54:02.000,352.266,49.049,13100.262977
1 Jan 2000 16:54:12.000,352.360,48.860,13110.420406
1 Jan 2000 16:54:22.000,352.454,48.671,13120.615646
1 Jan 2000 16:54:32.000,352.547,48.482,13130.848519
1 Jan 2000 16:54:42.000,352.640,48.293,13141.118845
1 Jan 2000 16:54:52.000,352.732,48.105,13151.426445
1 Jan 2000 16:55:02.000,352.824,47.916,13161.771140
1 Jan 2000 16:55:12.000,352.916,47.728,13172.152750
1 Jan 2000 16:55:22.000,353.007,47.540,13182.571096
1 Jan 2000 16:55:32.000,353.098,47.353,13193.025999
1 Jan 2000 16:55:42.000,353.188,47.165,13203.517279
1 Jan 2000 16:55:52.000,353.278,46.978,13214.044757
1 Jan 2000 16:56:02.000,353.368,46.790,13224.608253
1 Jan 2000 16:56:12.000,353.457,46.603,13235.207589
1 Jan 2000 16:56:22.000,353.546,46.417,13245.842584
1 Jan 2000 16:56:32.000,353.635,46.230,13256.513059
1 Jan 2000 16:56:42.000,353.723,46.044,13267.218836
1 Jan 2000 16:56:52.000,353.811,45.858,13277.959735
1 Jan 2000 16:57:02.000,353.898,45.672,13288.735576
1 Jan 2000 16:57:12.000,353.985,45.486,13299.546181
1 Jan 2000 16:57:22.000,354.072,45.300,13310.391371
1 Jan 2000 16:57:32.000,354.159,45.115,13321.270966
1 Jan 2000 16:57:42.000,354.245,44.930,13332.184788
1 Jan 2000 16:57:52.000,354.331,44.745,13343.132657
1 Jan 2000 16:58:02.000,354.417,44.560,13354.114395
1 Jan 2000 16:58:12.000,354.502,44.376,13365.129823
1 Jan 2000 16:58:22.000,354.587,44.191,13376.178762
1 Jan 2000 16:58:32.000,354.672,44.007,13387.261035
1 Jan 2000 16:58:42.000,354.756,43.824,13398.376461
1 Jan 2000 16:58:52.000,354.840,43.640,13409.524864
1 Jan 2000 16:59:02.000,354.924,43.456,13420.706064
1 Jan 2000 16:59:12.000,355.008,43.273,13431.919884
1 Jan 2000 16:59:22.000,355.091,43.090,13443.166145
1 Jan 2000 16:59:32.000,355.174,42.907,13454.444670
1 Jan 2000 16:59:42.000,355.257,42.725,13465.755280
1 Jan 2000 16:59:52.000,355.339,42.542,13477.097799
1 Jan 2000 17:00:02.000,355.422,42.360,13488.472048
1 Jan 2000 17:00:12.000,355.504,42.178,13499.877851
1 Jan 2000 17:00:22.000,355.585,41.996,13511.315030
1 Jan 2000 17:00:32.000,355.667,41.814,13522.783407
1 Jan 2000 17:00:42.000,355.748,41.633,13534.282806
1 Jan 2000 17:00:52.000,355.829,41.452,13545.813051
1 Jan 2000 17:01:02.000,355.910,41.271,13557.373964
1 Jan 2000 17:01:12.000,355.991,41.090,13568.965369
1 Jan 2000 17:01:22.000,356.071,40.910,13580.587089
1 Jan 2000 17:01:32.000,356.151,40.729,13592.238950
1 Jan 2000 17:01:42.000,356.231,40.549,13603.920774
1 Jan 2000 17:01:52.000,356.311,40.369,13615.632386
1 Jan 2000 17:02:02.000,356.390,40.190,13627.373610
1 Jan 2000 17:02:12.000,356.470,40.010,13639.144272
1 Jan 2000 17:02:22.000,356.549,39.831,13650.944195
1 Jan 2000 17:02:32.000,356.628,39.652,13662.773205
1 Jan 2000 17:02:42.000,356.707,39.473,13674.631127
1 Jan 2000 17:02:52.000,356.785,39.294,13686.517786
1 Jan 2000 17:03:02.000,356.863,39.116,13698.433009
1 Jan 2000 17:03:12.000,356.942,38.938,13710.376620
1 Jan 2000 17:03:22.000,357.019,38.760,13722.348447
1 Jan 2000 17:03:32.000,357.097,38.582,13734.348314
1 Jan 2000 17:03:42.000,357.175,38.405,13746.376050
1 Jan 2000 17:03:52.000,357.252,38.227,13758.431480
1 Jan 2000 17:04:02.000,357.329,38.050,13770.514432
1 Jan 2000 17:04:12.000,357.407,37.873,13782.624732
1 Jan 2000 17:04:22.000,357.483,37.697,13794.762208
1 Jan 2000 17:04:32.000,357.560,37.520,13806.926689
1 Jan 2000 17:04:42.000,357.637,37.344,13819.118000
1 Jan 2000 17:04:52.000,357.713,37.168,13831.335972
1 Jan 2000 17:05:02.000,357.789,36.992,13843.580433
1 Jan 2000 17:05:12.000,357.866,36.816,13855.851210
1 Jan 2000 17:05:22.000,357.941,36.641,13868.148133
1 Jan 2000 17:05:32.000,358.017,36.466,13880.471032
1 Jan 2000 17:05:42.000,358.093,36.291,13892.819735
1 Jan 2000 17:05:52.000,358.168,36.116,13905.194072
1 Jan 2000 17:06:02.000,358.244,35.941,13917.593874
1 Jan 2000 17:06:12.000,358.319,35.767,13930.018971
1 Jan 2000 17:06:22.000,358.394,35.593,13942.469193
1 Jan 2000 17:06:32.000,358.469,35.419,13954.944371
1 Jan 2000 17:06:42.000,358.544,35.245,13967.444336
1 Jan 2000 17:06:52.000,358.619,35.072,13979.968919
1 Jan 2000 17:06:56.104,358.649,35.001,13985.116101

Interval Statistics
"Min Elevation",1 Jan 2000 17:06:56.104,358.649,35.001,13985.116101
"Max Elevation",1 Jan 2000 16:22:04.131,264.529,82.699,12045.789452
"Mean Elevation",,,64.174,
"Min Range",1 Jan 2000 16:21:55.377,262.975,82.697,12045.765618
"Max Range",1 Jan 2000 17:06:56.104,358.649,35.001,13985.116101
"Mean Range",,,,12569.049446

"Time (UTCG)","Azimuth (deg)","Elevation (deg)","Range (km)"
2 Jan 2000 00:33:53.220,42.788,45.959,13269.246934
2 Jan 2000 00:34:03.000,43.067,46.000,13266.872616
2 Jan 2000 00:34:13.000,43.352,46.041,13264.479362
2 Jan 2000 00:34:23.000,43.638,46.081,13262.121001
2 Jan 2000 00:34:33.000,43.925,46.121,13259.797597
2 Jan 2000 00:34:43.000,44.212,46.160,13257.509218
2 Jan 2000 00:34:53.000,44.499,46.199,13255.255930
2 Jan 2000 00:35:03.000,44.787,46.237,13253.037799
2 Jan 2000 00:35:13.000,45.076,46.274,13250.854889
2 Jan 2000 00:35:23.000,45.365,46.311,13248.707267
2 Jan 2000 00:35:33.000,45.654,46.348,13246.594996
2 Jan 2000 00:35:43.000,45.944,46.383,13244.518141
2 Jan 2000 00:35:53.000,46.234,46.418,13242.476766
2 Jan 2000 00:36:03.000,46.524,46.453,13240.470933
2 Jan 2000 00:36:13.000,46.815,46.487,13238.500706
2 Jan 2000 00:36:23.000,47.106,46.520,13236.566148
2 Jan 2000 00:36:33.000,47.398,46.553,13234.667321
2 Jan 2000 00:36:43.000,47.690,46.585,13232.804286
2 Jan 2000 00:36:53.000,47.983,46.616,13230.977104
2 Jan 2000 00:37:03.000,48.276,46.647,13229.185838
2 Jan 2000 00:37:13.000,48.569,46.678,13227.430547
2 Jan 2000 00:37:23.000,48.863,46.707,13225.711291
2 Jan 2000 00:37:33.000,49.157,46.736,13224.028130
2 Jan 2000 00:37:43.000,49.451,46.765,13222.381124
2 Jan 2000 00:37:53.000,49.746,46.792,13220.770330
2 Jan 2000 00:38:03.000,50.041,46.820,13219.195809
2 Jan 2000 00:38:13.000,50.336,46.846,13217.657616
2 Jan 2000 00:38:23.000,50.632,46.872,13216.155811
2 Jan 2000 00:38:33.000,50.928,46.897,13214.690450
2 Jan 2000 00:38:43.000,51.224,46.922,13213.261589
2 Jan 2000 00:38:53.000,51.521,46.946,13211.869285
2 Jan 2000 00:39:03.000,51.818,46.969,13210.513595
2 Jan 2000 00:39:13.000,52.116,46.992,13209.194572
2 Jan 2000 00:39:23.000,52.413,47.014,13207.912272
2 Jan 2000 00:39:33.000,52.711,47.035,13206.666749
2 Jan 2000 00:39:43.000,53.009,47.056,13205.458057
2 Jan 2000 00:39:53.000,53.308,47.076,13204.286250
2 Jan 2000 00:40:03.000,53.606,47.096,13203.151381
2 Jan 2000 00:40:13.000,53.905,47.114,13202.053502
2 Jan 2000 00:40:23.000,54.205,47.132,13200.992665
2 Jan 2000 00:40:33.000,54.504,47.150,13199.968922
2 Jan 2000 00:40:43.000,54.804,47.167,13198.982325
2 Jan 2000 00:40:53.000,55.104,47.183,13198.032923
2 Jan 2000 00:41:03.000,55.404,47.198,13197.120767
2 Jan 2000 00:41:13.000,55.704,47.213,13196.245907
2 Jan 2000 00:41:23.000,56.005,47.227,13195.408392
2 Jan 2000 00:41:33.000,56.305,47.241,13194.608271
2 Jan 2000 00:41:43.000,56.606,47.254,13193.845592
2 Jan 2000 00:41:53.000,56.907,47.266,13193.120403
2 Jan 2000 00:42:03.000,57.209,47.277,13192.432751
2 Jan 2000 00:42:13.000,57.510,47.288,13191.782683
2 Jan 2000 00:42:23.000,57.812,47.298,13191.170245
2 Jan 2000 00:42:33.000,58.113,47.308,13190.595484
2 Jan 2000 00:42:43.000,58.415,47.317,13190.058444
2 Jan 2000 00:42:53.000,58.717,47.325,13189.559171
2 Jan 2000 00:43:03.000,59.020,47.332,13189.097708
2 Jan 2000 00:43:13.000,59.322,47.339,13188.674100
2 Jan 2000 00:43:23.000,59.624,47.345,13188.288390
2 Jan 2000 00:43:33.000,59.927,47.350,13187.940621
2 Jan 2000 00:43:43.000,60.229,47.355,13187.630834
2 Jan 2000 00:43:53.000,60.532,47.359,13187.359073
2 Jan 2000 00:44:03.000,60.835,47.362,13187.125378
2 Jan 2000 00:44:13.000,61.137,47.365,13186.929790
2 Jan 2000 00:44:23.000,61.440,47.367,13186.772349
2 Jan 2000 00:44:33.000,61.743,47.368,13186.653095
2 Jan 2000 00:44:43.000,62.046,47.369,13186.572067
2 Jan 2000 00:44:53.000,62.349,47.369,13186.529304
2 Jan 2000 00:45:03.000,62.652,47.368,13186.524844
2 Jan 2000 00:45:13.000,62.955,47.366,13186.558725
2 Jan 2000 00:45:23.000,63.258,47.364,13186.630984
2 Jan 2000 00:45:33.000,63.561,47.361,13186.741658
2 Jan 2000 00:45:43.000,63.864,47.358,13186.890782
2 Jan 2000 00:45:53.000,64.167,47.353,13187.078392
2 Jan 2000 00:46:03.000,64.470,47.348,13187.304524
2 Jan 2000 00:46:13.000,64.773,47.343,13187.569211
2 Jan 2000 00:46:23.000,65.076,47.336,13187.872487
2 Jan 2000 00:46:33.000,65.379,47.329,13188.214387
2 Jan 2000 00:46:43.000,65.682,47.322,13188.594942
2 Jan 2000 00:46:53.000,65.985,47.313,13189.014186
2 Jan 2000 00:47:03.000,66.287,47.304,13189.472149
2 Jan 2000 00:47:13.000,66.590,47.294,13189.968863
2 Jan 2000 00:47:23.000,66.892,47.284,13190.504360
2 Jan 2000 00:47:33.000,67.195,47.272,13191.078668
2 Jan 2000 00:47:43.000,67.497,47.260,13191.691817
2 Jan 2000 00:47:53.000,67.799,47.248,13192.343838
2 Jan 2000 00:48:03.000,68.101,47.234,13193.034757
2 Jan 2000 00:48:13.000,68.403,47.220,13193.764603
2 Jan 2000 00:48:23.000,68.705,47.206,13194.533404
2 Jan 2000 00:48:33.000,69.006,47.190,13195.341185
2 Jan 2000 00:48:43.000,69.308,47.174,13196.187975
2 Jan 2000 00:48:53.000,69.609,47.157,13197.073797
2 Jan 2000 00:49:03.000,69.910,47.140,13197.998677
2 Jan 2000 00:49:13.000,70.211,47.122,13198.962641
2 Jan 2000 00:49:23.000,70.511,47.103,13199.965711
2 Jan 2000 00:49:33.000,70.812,47.083,13201.007911
2 Jan 2000 00:49:43.000,71.112,47.063,13202.089265
2 Jan 2000 00:49:53.000,71.412,47.042,13203.209794
2 Jan 2000 00:50:03.000,71.712,47.021,13204.369521
2 Jan 2000 00:50:13.000,72.012,46.998,13205.568466
2 Jan 2000 00:50:23.000,72.311,46.975,13206.806650
2 Jan 2000 00:50:33.000,72.610,46.952,13208.084093
2 Jan 2000 00:50:43.000,72.909,46.927,13209.400815
2 Jan 2000 00:50:53.000,73.208,46.902,13210.756834
2 Jan 2000 00:51:03.000,73.506,46.876,13212.152170
2 Jan 2000 00:51:13.000,73.804,46.850,13213.586839
2 Jan 2000 00:51:23.000,74.102,46.823,13215.060859
2 Jan 2000 00:51:33.000,74.399,46.795,13216.574246
2 Jan 2000 00:51:43.000,74.696,46.766,13218.127017
2 Jan 2000 00:51:53.000,74.993,46.737,13219.719187
2 Jan 2000 00:52:03.000,75.289,46.707,13221.350771
2 Jan 2000 00:52:13.000,75.586,46.677,13223.021783
2 Jan 2000 00:52:23.000,75.881,46.646,13224.732237
2 Jan 2000 00:52:33.000,76.177,46.614,13226.482146
2 Jan 2000 00:52:43.000,76.472,46.581,13228.271523
2 Jan 2000 00:52:53.000,76.767,46.548,13230.100379
2 Jan 2000 00:53:03.000,77.061,46.514,13231.968727
2 Jan 2000 00:53:13.000,77.355,46.480,13233.876577
2 Jan 2000 00:53:23.000,77.649,46.444,13235.823938
2 Jan 2000 00:53:33.000,77.942,46.408,13237.810822
2 Jan 2000 00:53:43.000,78.235,46.372,13239.837237
2 Jan 2000 00:53:53.000,78.527,46.335,13241.903191
2 Jan 2000 00:54:03.000,78.820,46.297,13244.008692
2 Jan 2000 00:54:13.000,79.111,46.258,13246.153748
2 Jan 2000 00:54:23.000,79.402,46.219,13248.338366
2 Jan 2000 00:54:33.000,79.693,46.179,13250.562551
2 Jan 2000 00:54:43.000,79.984,46.139,13252.826309
2 Jan 2000 00:54:53.000,80.274,46.097,13255.129646
2 Jan 2000 00:55:03.000,80.563,46.056,13257.472565
2 Jan 2000 00:55:13.000,80.852,46.013,13259.855071
2 Jan 2000 00:55:23.000,81.141,45.970,13262.277167
2 Jan 2000 00:55:33.000,81.429,45.926,13264.738854
2 Jan 2000 00:55:43.000,81.716,45.882,13267.240137
2 Jan 2000 00:55:53.000,82.003,45.837,13269.781015
2 Jan 2000 00:56:03.000,82.290,45.791,13272.361490
2 Jan 2000 00:56:13.000,82.576,45.745,13274.981562
2 Jan 2000 00:56:23.000,82.862,45.698,13277.641231
2 Jan 2000 00:56:33.000,83.147,45.650,13280.340496
2 Jan 2000 00:56:43.000,83.432,45.602,13283.079356
2 Jan 2000 00:56:53.000,83.716,45.553,13285.857808
2 Jan 2000 00:57:03.000,84.000,45.503,13288.675849
2 Jan 2000 00:57:13.000,84.283,45.453,13291.533478
2 Jan 2000 00:57:23.000,84.565,45.403,13294.430689
2 Jan 2000 00:57:33.000,84.847,45.351,13297.367479
2 Jan 2000 00:57:43.000,85.129,45.299,13300.343843
2 Jan 2000 00:57:53.000,85.410,45.247,13303.359774
2 Jan 2000 00:58:03.000,85.690,45.193,13306.415268
2 Jan 2000 00:58:13.000,85.970,45.140,13309.510316
2 Jan 2000 00:58:23.000,86.249,45.085,13312.644913
2 Jan 2000 00:58:33.000,86.528,45.030,13315.819049
2 Jan 2000 00:58:43.000,86.806,44.974,13319.032717
2 Jan 2000 00:58:53.000,87.084,44.918,13322.285907
2 Jan 2000 00:59:03.000,87.361,44.861,13325.578610
2 Jan 2000 00:59:13.000,87.637,44.804,13328.910816
2 Jan 2000 00:59:23.000,87.913,44.746,13332.282513
2 Jan 2000 00:59:33.000,88.189,44.687,13335.693691
2 Jan 2000 00:59:43.000,88.463,44.628,13339.144337
2 Jan 2000 00:59:53.000,88.737,44.568,13342.634439
2 Jan 2000 01:00:03.000,89.011,44.508,13346.163984
2 Jan 2000 01:00:13.000,89.284,44.447,13349.732958
2 Jan 2000 01:00:23.000,89.556,44.385,13353.341347
2 Jan 2000 01:00:33.000,89.828,44.323,13356.989136
2 Jan 2000 01:00:43.000,90.099,44.261,13360.676309
2 Jan 2000 01:00:53.000,90.369,44.197,13364.402850
2 Jan 2000 01:01:03.000,90.639,44.133,13368.168744
2 Jan 2000 01:01:13.000,90.908,44.069,13371.973972
2 Jan 2000 01:01:23.000,91.176,44.004,13375.818517
2 Jan 2000 01:01:33.000,91.444,43.939,13379.702361
2 Jan 2000 01:01:43.000,91.712,43.873,13383.625485
2 Jan 2000 01:01:53.000,91.978,43.806,13387.587869
2 Jan 2000 01:02:03.000,92.244,43.739,13391.589493
2 Jan 2000 01:02:13.000,92.509,43.671,13395.630337
2 Jan 2000 01:02:23.000,92.774,43.603,13399.710380
2 Jan 2000 01:02:33.000,93.038,43.534,13403.829600
2 Jan 2000 01:02:43.000,93.302,43.465,13407.987974
2 Jan 2000 01:02:53.000,93.564,43.395,13412.185479
2 Jan 2000 01:03:03.000,93.826,43.324,13416.422093
2 Jan 2000 01:03:13.000,94.088,43.253,13420.697791
2 Jan 2000 01:03:23.000,94.348,43.182,13425.012549
2 Jan 2000 01:03:33.000,94.608,43.110,13429.366341
2 Jan 2000 01:03:43.000,94.868,43.037,13433.759142
2 Jan 2000 01:03:53.000,95.126,42.964,13438.190926
2 Jan 2000 01:04:03.000,95.385,42.891,13442.661666
2 Jan 2000 01:04:13.000,95.642,42.817,13447.171334
2 Jan 2000 01:04:23.000,95.899,42.742,13451.719903
2 Jan 2000 01:04:33.000,96.155,42.667,13456.307344
2 Jan 2000 01:04:43.000,96.410,42.591,13460.933628
2 Jan 2000 01:04:53.000,96.664,42.515,13465.598726
2 Jan 2000 01:05:03.000,96.918,42.439,13470.302607
2 Jan 2000 01:05:13.000,97.172,42.362,13475.045241
2 Jan 2000 01:05:23.000,97.424,42.284,13479.826596
2 Jan 2000 01:05:33.000,97.676,42.206,13484.646641
2 Jan 2000 01:05:43.000,97.927,42.127,13489.505343
2 Jan 2000 01:05:53.000,98.178,42.048,13494.402671
2 Jan 2000 01:06:03.000,98.428,41.969,13499.338589
2 Jan 2000 01:06:13.000,98.677,41.889,13504.313065
2 Jan 2000 01:06:23.000,98.925,41.808,13509.326063
2 Jan 2000 01:06:33.000,99.173,41.727,13514.377549
2 Jan 2000 01:06:43.000,99.420,41.646,13519.467488
2 Jan 2000 01:06:53.000,99.666,41.564,13524.595843
2 Jan 2000 01:07:03.000,99.912,41.482,13529.762577
2 Jan 2000 01:07:13.000,100.157,41.399,13534.967653
2 Jan 2000 01:07:23.000,100.401,41.316,13540.211035
2 Jan 2000 01:07:33.000,100.645,41.232,13545.492683
2 Jan 2000 01:07:43.000,100.887,41.148,13550.812558
2 Jan 2000 01:07:53.000,101.130,41.063,13556.170623
2 Jan 2000 01:08:03.000,101.371,40.978,13561.566836
2 Jan 2000 01:08:13.000,101.612,40.893,13567.001157
2 Jan 2000 01:08:23.000,101.852,40.807,13572.473546
2 Jan 2000 01:08:33.000,102.091,40.720,13577.983962
2 Jan 2000 01:08:43.000,102.330,40.633,13583.532361
2 Jan 2000 01:08:53.000,102.568,40.546,13589.118703
2 Jan 2000 01:09:03.000,102.805,40.458,13594.742944
2 Jan 2000 01:09:13.000,103.041,40.370,13600.405041
2 Jan 2000 01:09:23.000,103.277,40.282,13606.104950
2 Jan 2000 01:09:33.000,103.512,40.193,13611.842626
2 Jan 2000 01:09:43.000,103.747,40.104,13617.618025
2 Jan 2000 01:09:53.000,103.980,40.014,13623.431101
2 Jan 2000 01:10:03.000,104.213,39.924,13629.281808
2 Jan 2000 01:10:13.000,104.445,39.833,13635.170100
2 Jan 2000 01:10:23.000,104.677,39.742,13641.095929
2 Jan 2000 01:10:33.000,104.908,39.651,13647.059250
2 Jan 2000 01:10:43.000,105.138,39.559,13653.060012
2 Jan 2000 01:10:53.000,105.368,39.467,13659.098169
2 Jan 2000 01:11:03.000,105.596,39.374,13665.173671
2 Jan 2000 01:11:13.000,105.824,39.281,13671.286469
2 Jan 2000 01:11:23.000,106.052,39.188,13677.436514
2 Jan 2000 01:11:33.000,106.278,39.094,13683.623753
2 Jan 2000 01:11:43.000,106.504,39.000,13689.848138
2 Jan 2000 01:11:53.000,106.730,38.906,13696.109616
2 Jan 2000 01:12:03.000,106.954,38.811,13702.408136
2 Jan 2000 01:12:13.000,107.178,38.716,13708.743645
2 Jan 2000 01:12:23.000,107.401,38.620,13715.116091
2 Jan 2000 01:12:33.000,107.624,38.524,13721.525421
2 Jan 2000 01:12:43.000,107.846,38.428,13727.971581
2 Jan 2000 01:12:53.000,108.067,38.331,13734.454516
2 Jan 2000 01:13:03.000,108.287,38.234,13740.974172
2 Jan 2000 01:13:13.000,108.507,38.137,13747.530495
2 Jan 2000 01:13:23.000,108.726,38.039,13754.123428
2 Jan 2000 01:13:33.000,108.944,37.941,13760.752915
2 Jan 2000 01:13:43.000,109.162,37.843,13767.418901
2 Jan 2000 01:13:53.000,109.379,37.744,13774.121328
2 Jan 2000 01:14:03.000,109.595,37.645,13780.860138
2 Jan 2000 01:14:13.000,109.811,37.545,13787.635275
2 Jan 2000 01:14:23.000,110.026,37.446,13794.446679
2 Jan 2000 01:14:33.000,110.240,37.345,13801.294293
2 Jan 2000 01:14:43.000,110.453,37.245,13808.178056
2 Jan 2000 01:14:53.000,110.666,37.144,13815.097910
2 Jan 2000 01:15:03.000,110.878,37.043,13822.053795
2 Jan 2000 01:15:13.000,111.090,36.942,13829.045649
2 Jan 2000 01:15:23.000,111.301,36.840,13836.073412
2 Jan 2000 01:15:33.000,111.511,36.738,13843.137023
2 Jan 2000 01:15:43.000,111.721,36.636,13850.236420
2 Jan 2000 01:15:53.000,111.929,36.533,13857.371541
2 Jan 2000 01:16:03.000,112.138,36.430,13864.542324
2 Jan 2000 01:16:13.000,112.345,36.327,13871.748704
2 Jan 2000 01:16:23.000,112.552,36.223,13878.990619
2 Jan 2000 01:16:33.000,112.758,36.119,13886.268006
2 Jan 2000 01:16:43.000,112.963,36.015,13893.580799
2 Jan 2000 01:16:53.000,113.168,35.911,13900.928934
2 Jan 2000 01:17:03.000,113.373,35.806,13908.312346
2 Jan 2000 01:17:13.000,113.576,35.701,13915.730969
2 Jan 2000 01:17:23.000,113.779,35.596,13923.184738
2 Jan 2000 01:17:33.000,113.981,35.490,13930.673587
2 Jan 2000 01:17:43.000,114.183,35.384,13938.197448
2 Jan 2000 01:17:53.000,114.384,35.278,13945.756254
2 Jan 2000 01:18:03.000,114.584,35.172,13953.349938
2 Jan 2000 01:18:13.000,114.783,35.065,13960.978433
2 Jan 2000 01:18:19.006,114.903,35.001,13965.576811

Interval Statistics
"Min Elevation",2 Jan 2000 01:18:19.006,114.903,35.001,13965.576811
"Max Elevation",2 Jan 2000 00:44:46.237,62.144,47.369,13186.554036
"Mean Elevation",,,43.938,
"Min Range",2 Jan 2000 00:44:59.164,62.536,47.368,13186.522024
"Max Range",2 Jan 2000 01:18:19.006,114.903,35.001,13965.576811
"Mean Range",,,,13390.609812

"Time (UTCG)","Azimuth (deg)","Elevation (deg)","Range (km)"
2 Jan 2000 07:42:18.808,294.653,37.493,13801.148262
2 Jan 2000 07:42:28.000,294.459,37.402,13807.381546
2 Jan 2000 07:42:38.000,294.249,37.303,13814.215181
2 Jan 2000 07:42:48.000,294.039,37.203,13821.103342
2 Jan 2000 07:42:58.000,293.831,37.102,13828.045880
2 Jan 2000 07:43:08.000,293.624,37.001,13835.042651
2 Jan 2000 07:43:18.000,293.417,36.899,13842.093504
2 Jan 2000 07:43:28.000,293.212,36.796,13849.198293
2 Jan 2000 07:43:38.000,293.007,36.693,13856.356867
2 Jan 2000 07:43:48.000,292.803,36.590,13863.569076
2 Jan 2000 07:43:58.000,292.600,36.486,13870.834768
2 Jan 2000 07:44:08.000,292.398,36.381,13878.153793
2 Jan 2000 07:44:18.000,292.197,36.276,13885.525996
2 Jan 2000 07:44:28.000,291.996,36.170,13892.951225
2 Jan 2000 07:44:38.000,291.797,36.064,13900.429325
2 Jan 2000 07:44:48.000,291.598,35.957,13907.960141
2 Jan 2000 07:44:58.000,291.401,35.849,13915.543517
2 Jan 2000 07:45:08.000,291.204,35.742,13923.179296
2 Jan 2000 07:45:18.000,291.008,35.633,13930.867322
2 Jan 2000 07:45:28.000,290.813,35.524,13938.607436
2 Jan 2000 07:45:38.000,290.619,35.415,13946.399479
2 Jan 2000 07:45:48.000,290.425,35.305,13954.243291
2 Jan 2000 07:45:58.000,290.233,35.195,13962.138714
2 Jan 2000 07:46:08.000,290.041,35.084,13970.085584
2 Jan 2000 07:46:15.489,289.899,35.000,13976.070413

Interval Statistics
"Min Elevation",2 Jan 2000 07:46:15.489,289.899,35.000,13976.070413
"Max Elevation",2 Jan 2000 07:42:18.808,294.653,37.493,13801.148262
"Mean Elevation",,,36.262,
"Min Range",2 Jan 2000 07:42:18.808,294.653,37.493,13801.148262
"Max Range",2 Jan 2000 07:46:15.489,289.899,35.000,13976.070413
"Mean Range",,,,13886.845796

"Time (UTCG)","Azimuth (deg)","Elevation (deg)","Range (km)"
2 Jan 2000 13:09:18.623,61.690,52.771,12905.651215
2 Jan 2000 13:09:28.000,61.373,52.815,12903.587494
2 Jan 2000 13:09:38.000,61.035,52.860,12901.449903
2 Jan 2000 13:09:48.000,60.696,52.904,12899.377688
2 Jan 2000 13:09:58.000,60.356,52.947,12897.370900
2 Jan 2000 13:10:08.000,60.015,52.988,12895.429587
2 Jan 2000 13:10:18.000,59.673,53.028,12893.553799
2 Jan 2000 13:10:28.000,59.330,53.067,12891.743582
2 Jan 2000 13:10:38.000,58.987,53.104,12889.998981
2 Jan 2000 13:10:48.000,58.643,53.140,12888.320040
2 Jan 2000 13:10:58.000,58.298,53.175,12886.706801
2 Jan 2000 13:11:08.000,57.953,53.208,12885.159305
2 Jan 2000 13:11:18.000,57.607,53.240,12883.677590
2 Jan 2000 13:11:28.000,57.261,53.271,12882.261693
2 Jan 2000 13:11:38.000,56.913,53.300,12880.911652
2 Jan 2000 13:11:48.000,56.566,53.328,12879.627500
2 Jan 2000 13:11:58.000,56.217,53.354,12878.409270
2 Jan 2000 13:12:08.000,55.869,53.379,12877.256993
2 Jan 2000 13:12:18.000,55.519,53.403,12876.170699
2 Jan 2000 13:12:28.000,55.170,53.426,12875.150416
2 Jan 2000 13:12:38.000,54.819,53.447,12874.196170
2 Jan 2000 13:12:48.000,54.469,53.466,12873.307987
2 Jan 2000 13:12:58.000,54.118,53.485,12872.485890
2 Jan 2000 13:13:08.000,53.767,53.502,12871.729902
2 Jan 2000 13:13:18.000,53.415,53.517,12871.040041
2 Jan 2000 13:13:28.000,53.063,53.531,12870.416327
2 Jan 2000 13:13:38.000,52.711,53.544,12869.858777
2 Jan 2000 13:13:48.000,52.359,53.555,12869.367407
2 Jan 2000 13:13:58.000,52.006,53.565,12868.942231
2 Jan 2000 13:14:08.000,51.654,53.573,12868.583261
2 Jan 2000 13:14:18.000,51.301,53.581,12868.290507
2 Jan 2000 13:14:28.000,50.948,53.586,12868.063980
2 Jan 2000 13:14:38.000,50.595,53.591,12867.903687
2 Jan 2000 13:14:48.000,50.242,53.593,12867.809634
2 Jan 2000 13:14:58.000,49.889,53.595,12867.781825
2 Jan 2000 13:15:08.000,49.536,53.595,12867.820264
2 Jan 2000 13:15:18.000,49.183,53.594,12867.924952
2 Jan 2000 13:15:28.000,48.830,53.591,12868.095889
2 Jan 2000 13:15:38.000,48.477,53.587,12868.333073
2 Jan 2000 13:15:48.000,48.125,53.581,12868.636500
2 Jan 2000 13:15:58.000,47.772,53.574,12869.006166
2 Jan 2000 13:16:08.000,47.420,53.566,12869.442064
2 Jan 2000 13:16:18.000,47.068,53.556,12869.944186
2 Jan 2000 13:16:28.000,46.716,53.545,12870.512523
2 Jan 2000 13:16:38.000,46.364,53.533,12871.147063
2 Jan 2000 13:16:48.000,46.013,53.519,12871.847793
2 Jan 2000 13:16:58.000,45.662,53.503,12872.614699
2 Jan 2000 13:17:08.000,45.312,53.487,12873.447766
2 Jan 2000 13:17:18.000,44.962,53.469,12874.346974
2 Jan 2000 13:17:28.000,44.612,53.449,12875.312307
2 Jan 2000 13:17:38.000,44.263,53.428,12876.343742
2 Jan 2000 13:17:48.000,43.914,53.406,12877.441258
2 Jan 2000 13:17:58.000,43.566,53.382,12878.604830
2 Jan 2000 13:18:08.000,43.218,53.357,12879.834434
2 Jan 2000 13:18:18.000,42.871,53.331,12881.130043
2 Jan 2000 13:18:28.000,42.525,53.303,12882.491627
2 Jan 2000 13:18:38.000,42.179,53.274,12883.919158
2 Jan 2000 13:18:48.000,41.834,53.243,12885.412603
2 Jan 2000 13:18:58.000,41.489,53.212,12886.971929
2 Jan 2000 13:19:08.000,41.145,53.178,12888.597102
2 Jan 2000 13:19:18.000,40.802,53.144,12890.288086
2 Jan 2000 13:19:28.000,40.460,53.108,12892.044842
2 Jan 2000 13:19:38.000,40.118,53.071,12893.867332
2 Jan 2000 13:19:48.000,39.778,53.032,12895.755515
2 Jan 2000 13:19:58.000,39.438,52.992,12897.709348
2 Jan 2000 13:20:08.000,39.099,52.951,12899.728787
2 Jan 2000 13:20:18.000,38.761,52.909,12901.813788
2 Jan 2000 13:20:28.000,38.423,52.865,12903.964302
2 Jan 2000 13:20:38.000,38.087,52.820,12906.180282
2 Jan 2000 13:20:48.000,37.752,52.773,12908.461678
2 Jan 2000 13:20:58.000,37.417,52.726,12910.808439
2 Jan 2000 13:21:08.000,37.084,52.677,12913.220510
2 Jan 2000 13:21:18.000,36.751,52.626,12915.697839
2 Jan 2000 13:21:28.000,36.420,52.575,12918.240368
2 Jan 2000 13:21:38.000,36.090,52.522,12920.848041
2 Jan 2000 13:21:48.000,35.761,52.468,12923.520799
2 Jan 2000 13:21:58.000,35.433,52.413,12926.258580
2 Jan 2000 13:22:08.000,35.106,52.356,12929.061324
2 Jan 2000 13:22:18.000,34.780,52.298,12931.928967
2 Jan 2000 13:22:28.000,34.455,52.239,12934.861445
2 Jan 2000 13:22:38.000,34.132,52.179,12937.858690
2 Jan 2000 13:22:48.000,33.809,52.117,12940.920635
2 Jan 2000 13:22:58.000,33.488,52.055,12944.047211
2 Jan 2000 13:23:08.000,33.168,51.991,12947.238347
2 Jan 2000 13:23:18.000,32.850,51.926,12950.493972
2 Jan 2000 13:23:28.000,32.532,51.859,12953.814011
2 Jan 2000 13:23:38.000,32.216,51.792,12957.198390
2 Jan 2000 13:23:48.000,31.901,51.723,12960.647033
2 Jan 2000 13:23:58.000,31.588,51.653,12964.159861
2 Jan 2000 13:24:08.000,31.276,51.582,12967.736796
2 Jan 2000 13:24:18.000,30.965,51.510,12971.377756
2 Jan 2000 13:24:28.000,30.656,51.437,12975.082661
2 Jan 2000 13:24:38.000,30.347,51.363,12978.851426
2 Jan 2000 13:24:48.000,30.041,51.287,12982.683968
2 Jan 2000 13:24:58.000,29.735,51.210,12986.580198
2 Jan 2000 13:25:08.000,29.431,51.133,12990.540031
2 Jan 2000 13:25:18.000,29.129,51.054,12994.563378
2 Jan 2000 13:25:28.000,28.828,50.974,12998.650147
2 Jan 2000 13:25:38.000,28.528,50.893,13002.800249
2 Jan 2000 13:25:48.000,28.230,50.811,13007.013588
2 Jan 2000 13:25:58.000,27.933,50.728,13011.290072
2 Jan 2000 13:26:08.000,27.637,50.644,13015.629605
2 Jan 2000 13:26:18.000,27.344,50.559,13020.032090
2 Jan 2000 13:26:28.000,27.051,50.472,13024.497429
2 Jan 2000 13:26:38.000,26.760,50.385,13029.025521
2 Jan 2000 13:26:48.000,26.471,50.297,13033.616267
2 Jan 2000 13:26:58.000,26.183,50.207,13038.269564
2 Jan 2000 13:27:08.000,25.896,50.117,13042.985309
2 Jan 2000 13:27:18.000,25.611,50.026,13047.763397
2 Jan 2000 13:27:28.000,25.328,49.934,13052.603722
2 Jan 2000 13:27:38.000,25.046,49.840,13057.506177
2 Jan 2000 13:27:48.000,24.766,49.746,13062.470654
2 Jan 2000 13:27:58.000,24.487,49.651,13067.497042
2 Jan 2000 13:28:08.000,24.209,49.555,13072.585231
2 Jan 2000 13:28:18.000,23.934,49.458,13077.735108
2 Jan 2000 13:28:28.000,23.659,49.360,13082.946561
2 Jan 2000 13:28:38.000,23.387,49.261,13088.219474
2 Jan 2000 13:28:48.000,23.116,49.161,13093.553733
2 Jan 2000 13:28:58.000,22.846,49.061,13098.949218
2 Jan 2000 13:29:08.000,22.578,48.959,13104.405813
2 Jan 2000 13:29:18.000,22.311,48.857,13109.923399
2 Jan 2000 13:29:28.000,22.046,48.753,13115.501854
2 Jan 2000 13:29:38.000,21.783,48.649,13121.141056
2 Jan 2000 13:29:48.000,21.521,48.544,13126.840884
2 Jan 2000 13:29:58.000,21.261,48.438,13132.601212
2 Jan 2000 13:30:08.000,21.002,48.332,13138.421916
2 Jan 2000 13:30:18.000,20.745,48.224,13144.302870
2 Jan 2000 13:30:28.000,20.489,48.116,13150.243946
2 Jan 2000 13:30:38.000,20.235,48.007,13156.245015
2 Jan 2000 13:30:48.000,19.983,47.897,13162.305948
2 Jan 2000 13:30:58.000,19.732,47.786,13168.426614
2 Jan 2000 13:31:08.000,19.482,47.674,13174.606881
2 Jan 2000 13:31:18.000,19.235,47.562,13180.846617
2 Jan 2000 13:31:28.000,18.988,47.449,13187.145687
2 Jan 2000 13:31:38.000,18.744,47.335,13193.503957
2 Jan 2000 13:31:48.000,18.500,47.221,13199.921290
2 Jan 2000 13:31:58.000,18.259,47.105,13206.397550
2 Jan 2000 13:32:08.000,18.019,46.989,13212.932597
2 Jan 2000 13:32:18.000,17.780,46.873,13219.526294
2 Jan 2000 13:32:28.000,17.543,46.755,13226.178500
2 Jan 2000 13:32:38.000,17.308,46.637,13232.889074
2 Jan 2000 13:32:48.000,17.074,46.518,13239.657873
2 Jan 2000 13:32:58.000,16.841,46.399,13246.484755
2 Jan 2000 13:33:08.000,16.610,46.278,13253.369575
2 Jan 2000 13:33:18.000,16.381,46.157,13260.312188
2 Jan 2000 13:33:28.000,16.153,46.036,13267.312449
2 Jan 2000 13:33:38.000,15.927,45.914,13274.370210
2 Jan 2000 13:33:48.000,15.702,45.791,13281.485323
2 Jan 2000 13:33:58.000,15.478,45.667,13288.657640
2 Jan 2000 13:34:08.000,15.257,45.543,13295.887011
2 Jan 2000 13:34:18.000,15.036,45.418,13303.173285
2 Jan 2000 13:34:28.000,14.817,45.293,13310.516311
2 Jan 2000 13:34:38.000,14.600,45.167,13317.915936
2 Jan 2000 13:34:48.000,14.384,45.040,13325.372007
2 Jan 2000 13:34:58.000,14.169,44.913,13332.884370
2 Jan 2000 13:35:08.000,13.956,44.786,13340.452869
2 Jan 2000 13:35:18.000,13.745,44.657,13348.077349
2 Jan 2000 13:35:28.000,13.535,44.528,13355.757652
2 Jan 2000 13:35:38.000,13.326,44.399,13363.493623
2 Jan 2000 13:35:48.000,13.119,44.269,13371.285101
2 Jan 2000 13:35:58.000,12.913,44.138,13379.131928
2 Jan 2000 13:36:08.000,12.709,44.007,13387.033944
2 Jan 2000 13:36:18.000,12.506,43.876,13394.990988
2 Jan 2000 13:36:28.000,12.304,43.744,13403.002898
2 Jan 2000 13:36:38.000,12.104,43.611,13411.069512
2 Jan 2000 13:36:48.000,11.905,43.478,13419.190668
2 Jan 2000 13:36:58.000,11.708,43.344,13427.366200
2 Jan 2000 13:37:08.000,11.512,43.210,13435.595945
2 Jan 2000 13:37:18.000,11.318,43.075,13443.879736
2 Jan 2000 13:37:28.000,11.124,42.940,13452.217409
2 Jan 2000 13:37:38.000,10.933,42.805,13460.608796
2 Jan 2000 13:37:48.000,10.742,42.669,13469.053730
2 Jan 2000 13:37:58.000,10.553,42.532,13477.552042
2 Jan 2000 13:38:08.000,10.365,42.395,13486.103564
2 Jan 2000 13:38:18.000,10.179,42.258,13494.708125
2 Jan 2000 13:38:28.000,9.994,42.120,13503.365557
2 Jan 2000 13:38:38.000,9.810,41.982,13512.075687
2 Jan 2000 13:38:48.000,9.627,41.843,13520.838345
2 Jan 2000 13:38:58.000,9.446,41.704,13529.653358
2 Jan 2000 13:39:08.000,9.266,41.564,13538.520553
2 Jan 2000 13:39:18.000,9.088,41.425,13547.439757
2 Jan 2000 13:39:28.000,8.911,41.284,13556.410796
2 Jan 2000 13:39:38.000,8.735,41.143,13565.433495
2 Jan 2000 13:39:48.000,8.560,41.002,13574.507679
2 Jan 2000 13:39:58.000,8.386,40.861,13583.633172
2 Jan 2000 13:40:08.000,8.214,40.719,13592.809798
2 Jan 2000 13:40:18.000,8.043,40.577,13602.037379
2 Jan 2000 13:40:28.000,7.874,40.434,13611.315739
2 Jan 2000 13:40:38.000,7.705,40.291,13620.644699
2 Jan 2000 13:40:48.000,7.538,40.148,13630.024081
2 Jan 2000 13:40:58.000,7.372,40.004,13639.453705
2 Jan 2000 13:41:08.000,7.207,39.860,13648.933392
2 Jan 2000 13:41:18.000,7.043,39.716,13658.462961
2 Jan 2000 13:41:28.000,6.881,39.571,13668.042232
2 Jan 2000 13:41:38.000,6.720,39.426,13677.671024
2 Jan 2000 13:41:48.000,6.560,39.281,13687.349156
2 Jan 2000 13:41:58.000,6.401,39.135,13697.076444
2 Jan 2000 13:42:08.000,6.243,38.989,13706.852707
2 Jan 2000 13:42:18.000,6.087,38.843,13716.677761
2 Jan 2000 13:42:28.000,5.931,38.697,13726.551423
2 Jan 2000 13:42:38.000,5.777,38.550,13736.473509
2 Jan 2000 13:42:48.000,5.624,38.403,13746.443835
2 Jan 2000 13:42:58.000,5.472,38.256,13756.462215
2 Jan 2000 13:43:08.000,5.321,38.108,13766.528466
2 Jan 2000 13:43:18.000,5.171,37.960,13776.642401
2 Jan 2000 13:43:28.000,5.023,37.812,13786.803833
2 Jan 2000 13:43:38.000,4.875,37.663,13797.012578
2 Jan 2000 13:43:48.000,4.729,37.515,13807.268448
2 Jan 2000 13:43:58.000,4.583,37.366,13817.571256
2 Jan 2000 13:44:08.000,4.439,37.216,13827.920814
2 Jan 2000 13:44:18.000,4.296,37.067,13838.316935
2 Jan 2000 13:44:28.000,4.154,36.917,13848.759431
2 Jan 2000 13:44:38.000,4.013,36.767,13859.248113
2 Jan 2000 13:44:48.000,3.873,36.617,13869.782792
2 Jan 2000 13:44:58.000,3.734,36.467,13880.363279
2 Jan 2000 13:45:08.000,3.596,36.316,13890.989385
2 Jan 2000 13:45:18.000,3.459,36.166,13901.660920
2 Jan 2000 13:45:28.000,3.323,36.015,13912.377694
2 Jan 2000 13:45:38.000,3.188,35.863,13923.139516
2 Jan 2000 13:45:48.000,3.054,35.712,13933.946196
2 Jan 2000 13:45:58.000,2.921,35.560,13944.797544
2 Jan 2000 13:46:08.000,2.789,35.409,13955.693368
2 Jan 2000 13:46:18.000,2.658,35.257,13966.633476
2 Jan 2000 13:46:28.000,2.529,35.104,13977.617677
2 Jan 2000 13:46:34.802,2.441,35.001,13985.113714

Interval Statistics
"Min Elevation",2 Jan 2000 13:46:34.802,2.441,35.001,13985.113714
"Max Elevation",2 Jan 2000 13:15:03.577,49.692,53.595,12867.795094
"Mean Elevation",,,47.682,
"Min Range",2 Jan 2000 13:14:57.198,49.917,53.595,12867.781612
"Max Range",2 Jan 2000 13:46:34.802,2.441,35.001,13985.113714
"Mean Range",,,,13196.222643

"Time (UTCG)","Azimuth (deg)","Elevation (deg)","Range (km)"
3 Jan 2000 03:59:00.924,357.419,57.722,12686.659525
3 Jan 2000 03:59:10.000,357.353,57.908,12678.919501
3 Jan 2000 03:59:20.000,357.278,58.112,12670.441069
3 Jan 2000 03:59:30.000,357.202,58.316,12662.014327
3 Jan 2000 03:59:40.000,357.124,58.521,12653.639454
3 Jan 2000 03:59:50.000,357.045,58.725,12645.316630
3 Jan 2000 04:00:00.000,356.964,58.929,12637.046032
3 Jan 2000 04:00:10.000,356.881,59.134,12628.827839
3 Jan 2000 04:00:20.000,356.797,59.339,12620.662228
3 Jan 2000 04:00:30.000,356.711,59.543,12612.549374
3 Jan 2000 04:00:40.000,356.624,59.748,12604.489455
3 Jan 2000 04:00:50.000,356.535,59.953,12596.482644
3 Jan 2000 04:01:00.000,356.443,60.158,12588.529118
3 Jan 2000 04:01:10.000,356.350,60.363,12580.629049
3 Jan 2000 04:01:20.000,356.256,60.568,12572.782612
3 Jan 2000 04:01:30.000,356.159,60.773,12564.989978
3 Jan 2000 04:01:40.000,356.060,60.978,12557.251320
3 Jan 2000 04:01:50.000,355.959,61.183,12549.566809
3 Jan 2000 04:02:00.000,355.857,61.388,12541.936615
3 Jan 2000 04:02:10.000,355.752,61.594,12534.360908
3 Jan 2000 04:02:20.000,355.645,61.799,12526.839858
3 Jan 2000 04:02:30.000,355.536,62.004,12519.373632
3 Jan 2000 04:02:40.000,355.424,62.209,12511.962399
3 Jan 2000 04:02:50.000,355.311,62.415,12504.606324
3 Jan 2000 04:03:00.000,355.195,62.620,12497.305575
3 Jan 2000 04:03:10.000,355.077,62.825,12490.060316
3 Jan 2000 04:03:20.000,354.956,63.030,12482.870711
3 Jan 2000 04:03:30.000,354.833,63.236,12475.736925
3 Jan 2000 04:03:40.000,354.707,63.441,12468.659121
3 Jan 2000 04:03:50.000,354.579,63.646,12461.637460
3 Jan 2000 04:04:00.000,354.448,63.851,12454.672104
3 Jan 2000 04:04:10.000,354.314,64.056,12447.763212
3 Jan 2000 04:04:20.000,354.178,64.261,12440.910946
3 Jan 2000 04:04:30.000,354.038,64.466,12434.115462
3 Jan 2000 04:04:40.000,353.896,64.671,12427.376919
3 Jan 2000 04:04:50.000,353.751,64.876,12420.695475
3 Jan 2000 04:05:00.000,353.603,65.081,12414.071284
3 Jan 2000 04:05:10.000,353.451,65.286,12407.504502
3 Jan 2000 04:05:20.000,353.297,65.491,12400.995283
3 Jan 2000 04:05:30.000,353.139,65.695,12394.543781
3 Jan 2000 04:05:40.000,352.978,65.900,12388.150148
3 Jan 2000 04:05:50.000,352.813,66.104,12381.814534
3 Jan 2000 04:06:00.000,352.645,66.308,12375.537092
3 Jan 2000 04:06:10.000,352.473,66.512,12369.317969
3 Jan 2000 04:06:20.000,352.298,66.716,12363.157314
3 Jan 2000 04:06:30.000,352.119,66.920,12357.055276
3 Jan 2000 04:06:40.000,351.935,67.124,12351.012000
3 Jan 2000 04:06:50.000,351.748,67.327,12345.027632
3 Jan 2000 04:07:00.000,351.557,67.531,12339.102316
3 Jan 2000 04:07:10.000,351.362,67.734,12333.236196
3 Jan 2000 04:07:20.000,351.162,67.937,12327.429414
3 Jan 2000 04:07:30.000,350.958,68.139,12321.682112
3 Jan 2000 04:07:40.000,350.749,68.342,12315.994430
3 Jan 2000 04:07:50.000,350.535,68.544,12310.366507
3 Jan 2000 04:08:00.000,350.317,68.746,12304.798481
3 Jan 2000 04:08:10.000,350.094,68.948,12299.290489
3 Jan 2000 04:08:20.000,349.865,69.149,12293.842668
3 Jan 2000 04:08:30.000,349.632,69.351,12288.455151
3 Jan 2000 04:08:40.000,349.393,69.552,12283.128073
3 Jan 2000 04:08:50.000,349.149,69.752,12277.861567
3 Jan 2000 04:09:00.000,348.899,69.952,12272.655764
3 Jan 2000 04:09:10.000,348.643,70.152,12267.510794
3 Jan 2000 04:09:20.000,348.381,70.352,12262.426786
3 Jan 2000 04:09:30.000,348.113,70.551,12257.403869
3 Jan 2000 04:09:40.000,347.839,70.750,12252.442169
3 Jan 2000 04:09:50.000,347.558,70.948,12247.541812
3 Jan 2000 04:10:00.000,347.270,71.146,12242.702922
3 Jan 2000 04:10:10.000,346.976,71.343,12237.925623
3 Jan 2000 04:10:20.000,346.674,71.540,12233.210036
3 Jan 2000 04:10:30.000,346.365,71.736,12228.556283
3 Jan 2000 04:10:40.000,346.048,71.932,12223.964482
3 Jan 2000 04:10:50.000,345.724,72.128,12219.434754
3 Jan 2000 04:11:00.000,345.392,72.323,12214.967213
3 Jan 2000 04:11:10.000,345.051,72.517,12210.561977
3 Jan 2000 04:11:20.000,344.702,72.710,12206.219160
3 Jan 2000 04:11:30.000,344.345,72.903,12201.938875
3 Jan 2000 04:11:40.000,343.978,73.095,12197.721234
3 Jan 2000 04:11:50.000,343.602,73.287,12193.566348
3 Jan 2000 04:12:00.000,343.216,73.478,12189.474326
3 Jan 2000 04:12:10.000,342.821,73.668,12185.445277
3 Jan 2000 04:12:20.000,342.415,73.857,12181.479307
3 Jan 2000 04:12:30.000,341.999,74.045,12177.576521
3 Jan 2000 04:12:40.000,341.572,74.232,12173.737025
3 Jan 2000 04:12:50.000,341.133,74.419,12169.960920
3 Jan 2000 04:13:00.000,340.684,74.605,12166.248308
3 Jan 2000 04:13:10.000,340.222,74.789,12162.599290
3 Jan 2000 04:13:20.000,339.748,74.973,12159.013963
3 Jan 2000 04:13:30.000,339.262,75.155,12155.492426
3 Jan 2000 04:13:40.000,338.762,75.336,12152.034774
3 Jan 2000 04:13:50.000,338.250,75.517,12148.641101
3 Jan 2000 04:14:00.000,337.723,75.695,12145.311502
3 Jan 2000 04:14:10.000,337.182,75.873,12142.046067
3 Jan 2000 04:14:20.000,336.626,76.049,12138.844888
3 Jan 2000 04:14:30.000,336.056,76.224,12135.708052
3 Jan 2000 04:14:40.000,335.470,76.398,12132.635648
3 Jan 2000 04:14:50.000,334.867,76.569,12129.627762
3 Jan 2000 04:15:00.000,334.248,76.740,12126.684478
3 Jan 2000 04:15:10.000,333.613,76.908,12123.805879
3 Jan 2000 04:15:20.000,332.959,77.075,12120.992048
3 Jan 2000 04:15:30.000,332.288,77.240,12118.243064
3 Jan 2000 04:15:40.000,331.598,77.404,12115.559007
3 Jan 2000 04:15:50.000,330.889,77.565,12112.939953
3 Jan 2000 04:16:00.000,330.161,77.724,12110.385979
3 Jan 2000 04:16:10.000,329.413,77.881,12107.897159
3 Jan 2000 04:16:20.000,328.644,78.036,12105.473566
3 Jan 2000 04:16:30.000,327.854,78.189,12103.115271
3 Jan 2000 04:16:40.000,327.043,78.339,12100.822344
3 Jan 2000 04:16:50.000,326.210,78.487,12098.594853
3 Jan 2000 04:17:00.000,325.354,78.632,12096.432866
3 Jan 2000 04:17:10.000,324.476,78.774,12094.336448
3 Jan 2000 04:17:20.000,323.574,78.914,12092.305662
3 Jan 2000 04:17:30.000,322.648,79.050,12090.340571
3 Jan 2000 04:17:40.000,321.699,79.184,12088.441236
3 Jan 2000 04:17:50.000,320.724,79.314,12086.607715
3 Jan 2000 04:18:00.000,319.726,79.441,12084.840067
3 Jan 2000 04:18:10.000,318.702,79.565,12083.138347
3 Jan 2000 04:18:20.000,317.653,79.685,12081.502611
3 Jan 2000 04:18:30.000,316.579,79.802,12079.932910
3 Jan 2000 04:18:40.000,315.480,79.914,12078.429298
3 Jan 2000 04:18:50.000,314.355,80.023,12076.991822
3 Jan 2000 04:19:00.000,313.206,80.128,12075.620533
3 Jan 2000 04:19:10.000,312.031,80.228,12074.315476
3 Jan 2000 04:19:20.000,310.832,80.324,12073.076696
3 Jan 2000 04:19:30.000,309.608,80.416,12071.904238
3 Jan 2000 04:19:40.000,308.361,80.503,12070.798142
3 Jan 2000 04:19:50.000,307.090,80.585,12069.758450
3 Jan 2000 04:20:00.000,305.797,80.662,12068.785201
3 Jan 2000 04:20:10.000,304.483,80.735,12067.878431
3 Jan 2000 04:20:20.000,303.148,80.802,12067.038175
3 Jan 2000 04:20:30.000,301.793,80.864,12066.264469
3 Jan 2000 04:20:40.000,300.420,80.921,12065.557344
3 Jan 2000 04:20:50.000,299.030,80.972,12064.916832
3 Jan 2000 04:21:00.000,297.625,81.017,12064.342960
3 Jan 2000 04:21:10.000,296.206,81.057,12063.835758
3 Jan 2000 04:21:20.000,294.774,81.092,12063.395250
3 Jan 2000 04:21:30.000,293.332,81.120,12063.021461
3 Jan 2000 04:21:40.000,291.882,81.143,12062.714413
3 Jan 2000 04:21:50.000,290.424,81.160,12062.474129
3 Jan 2000 04:22:00.000,288.962,81.170,12062.300626
3 Jan 2000 04:22:10.000,287.497,81.175,12062.193924
3 Jan 2000 04:22:20.000,286.032,81.174,12062.154037
3 Jan 2000 04:22:30.000,284.567,81.167,12062.180982
3 Jan 2000 04:22:40.000,283.106,81.154,12062.274769
3 Jan 2000 04:22:50.000,281.650,81.135,12062.435412
3 Jan 2000 04:23:00.000,280.201,81.110,12062.662919
3 Jan 2000 04:23:10.000,278.761,81.080,12062.957299
3 Jan 2000 04:23:20.000,277.332,81.043,12063.318557
3 Jan 2000 04:23:30.000,275.915,81.001,12063.746700
3 Jan 2000 04:23:40.000,274.513,80.953,12064.241729
3 Jan 2000 04:23:50.000,273.127,80.900,12064.803646
3 Jan 2000 04:24:00.000,271.758,80.841,12065.432451
3 Jan 2000 04:24:10.000,270.407,80.777,12066.128142
3 Jan 2000 04:24:20.000,269.076,80.708,12066.890717
3 Jan 2000 04:24:30.000,267.766,80.633,12067.720169
3 Jan 2000 04:24:40.000,266.478,80.554,12068.616492
3 Jan 2000 04:24:50.000,265.212,80.470,12069.579678
3 Jan 2000 04:25:00.000,263.969,80.381,12070.609717
3 Jan 2000 04:25:10.000,262.750,80.287,12071.706597
3 Jan 2000 04:25:20.000,261.556,80.189,12072.870305
3 Jan 2000 04:25:30.000,260.386,80.087,12074.100826
3 Jan 2000 04:25:40.000,259.241,79.980,12075.398144
3 Jan 2000 04:25:50.000,258.121,79.869,12076.762240
3 Jan 2000 04:26:00.000,257.026,79.755,12078.193095
3 Jan 2000 04:26:10.000,255.957,79.636,12079.690688
3 Jan 2000 04:26:20.000,254.913,79.514,12081.254995
3 Jan 2000 04:26:30.000,253.893,79.389,12082.885992
3 Jan 2000 04:26:40.000,252.899,79.260,12084.583653
3 Jan 2000 04:26:50.000,251.928,79.127,12086.347949
3 Jan 2000 04:27:00.000,250.983,78.992,12088.178852
3 Jan 2000 04:27:10.000,250.061,78.853,12090.076331
3 Jan 2000 04:27:20.000,249.162,78.712,12092.040352
3 Jan 2000 04:27:30.000,248.287,78.568,12094.070881
3 Jan 2000 04:27:40.000,247.434,78.421,12096.167884
3 Jan 2000 04:27:50.000,246.604,78.271,12098.331321
3 Jan 2000 04:28:00.000,245.795,78.119,12100.561155
3 Jan 2000 04:28:10.000,245.008,77.965,12102.857344
3 Jan 2000 04:28:20.000,244.241,77.808,12105.219846
3 Jan 2000 04:28:30.000,243.495,77.649,12107.648618
3 Jan 2000 04:28:40.000,242.768,77.488,12110.143614
3 Jan 2000 04:28:50.000,242.061,77.324,12112.704787
3 Jan 2000 04:29:00.000,241.373,77.159,12115.332089
3 Jan 2000 04:29:10.000,240.702,76.992,12118.025469
3 Jan 2000 04:29:20.000,240.050,76.823,12120.784875
3 Jan 2000 04:29:30.000,239.415,76.653,12123.610256
3 Jan 2000 04:29:40.000,238.796,76.481,12126.501555
3 Jan 2000 04:29:50.000,238.194,76.307,12129.458716
3 Jan 2000 04:30:00.000,237.608,76.131,12132.481682
3 Jan 2000 04:30:10.000,237.037,75.955,12135.570393
3 Jan 2000 04:30:20.000,236.481,75.776,12138.724788
3 Jan 2000 04:30:30.000,235.939,75.597,12141.944805
3 Jan 2000 04:30:40.000,235.412,75.416,12145.230379
3 Jan 2000 04:30:50.000,234.898,75.234,12148.581446
3 Jan 2000 04:31:00.000,234.397,75.050,12151.997937
3 Jan 2000 04:31:10.000,233.909,74.866,12155.479785
3 Jan 2000 04:31:20.000,233.434,74.680,12159.026920
3 Jan 2000 04:31:30.000,232.970,74.493,12162.639269
3 Jan 2000 04:31:40.000,232.519,74.306,12166.316760
3 Jan 2000 04:31:50.000,232.078,74.117,12170.059318
