cemeouhf_ael/Place-CEMID-Sensor-Sensor1-To-Satellite-POLMEO22_AER.csv

"Time (UTCG)","Azimuth (deg)","Elevation (deg)","Range (km)"
1 Jan 2000 12:29:37.148,320.902,52.047,12943.879033
1 Jan 2000 12:29:47.000,320.574,52.083,12942.053968
1 Jan 2000 12:29:57.000,320.241,52.119,12940.266586
1 Jan 2000 12:30:07.000,319.908,52.153,12938.544765
1 Jan 2000 12:30:17.000,319.573,52.186,12936.888544
1 Jan 2000 12:30:27.000,319.238,52.217,12935.297958
1 Jan 2000 12:30:37.000,318.902,52.248,12933.773042
1 Jan 2000 12:30:47.000,318.566,52.277,12932.313830
1 Jan 2000 12:30:57.000,318.229,52.304,12930.920354
1 Jan 2000 12:31:07.000,317.892,52.331,12929.592644
1 Jan 2000 12:31:17.000,317.553,52.356,12928.330728
1 Jan 2000 12:31:27.000,317.215,52.379,12927.134634
1 Jan 2000 12:31:37.000,316.876,52.402,12926.004387
1 Jan 2000 12:31:47.000,316.536,52.423,12924.940012
1 Jan 2000 12:31:57.000,316.196,52.442,12923.941530
1 Jan 2000 12:32:07.000,315.856,52.460,12923.008963
1 Jan 2000 12:32:17.000,315.515,52.477,12922.142331
1 Jan 2000 12:32:27.000,315.174,52.493,12921.341650
1 Jan 2000 12:32:37.000,314.832,52.507,12920.606938
1 Jan 2000 12:32:47.000,314.491,52.520,12919.938208
1 Jan 2000 12:32:57.000,314.149,52.532,12919.335475
1 Jan 2000 12:33:07.000,313.806,52.542,12918.798750
1 Jan 2000 12:33:17.000,313.464,52.551,12918.328042
1 Jan 2000 12:33:27.000,313.121,52.558,12917.923360
1 Jan 2000 12:33:37.000,312.778,52.564,12917.584712
1 Jan 2000 12:33:47.000,312.435,52.569,12917.312102
1 Jan 2000 12:33:57.000,312.092,52.573,12917.105535
1 Jan 2000 12:34:07.000,311.749,52.575,12916.965011
1 Jan 2000 12:34:17.000,311.405,52.575,12916.890533
1 Jan 2000 12:34:27.000,311.062,52.575,12916.882099
1 Jan 2000 12:34:37.000,310.719,52.573,12916.939707
1 Jan 2000 12:34:47.000,310.375,52.569,12917.063352
1 Jan 2000 12:34:57.000,310.032,52.564,12917.253029
1 Jan 2000 12:35:07.000,309.689,52.558,12917.508730
1 Jan 2000 12:35:17.000,309.346,52.551,12917.830447
1 Jan 2000 12:35:27.000,309.003,52.542,12918.218170
1 Jan 2000 12:35:37.000,308.660,52.532,12918.671887
1 Jan 2000 12:35:47.000,308.318,52.520,12919.191583
1 Jan 2000 12:35:57.000,307.975,52.507,12919.777245
1 Jan 2000 12:36:07.000,307.633,52.493,12920.428855
1 Jan 2000 12:36:17.000,307.291,52.477,12921.146395
1 Jan 2000 12:36:27.000,306.950,52.460,12921.929846
1 Jan 2000 12:36:37.000,306.608,52.442,12922.779186
1 Jan 2000 12:36:47.000,306.267,52.422,12923.694392
1 Jan 2000 12:36:57.000,305.927,52.402,12924.675441
1 Jan 2000 12:37:07.000,305.587,52.379,12925.722305
1 Jan 2000 12:37:17.000,305.247,52.356,12926.834958
1 Jan 2000 12:37:27.000,304.908,52.331,12928.013370
1 Jan 2000 12:37:37.000,304.569,52.304,12929.257511
1 Jan 2000 12:37:47.000,304.231,52.277,12930.567349
1 Jan 2000 12:37:57.000,303.893,52.248,12931.942850
1 Jan 2000 12:38:07.000,303.556,52.217,12933.383978
1 Jan 2000 12:38:17.000,303.219,52.186,12934.890697
1 Jan 2000 12:38:27.000,302.883,52.153,12936.462969
1 Jan 2000 12:38:37.000,302.548,52.119,12938.100754
1 Jan 2000 12:38:47.000,302.213,52.083,12939.804010
1 Jan 2000 12:38:57.000,301.879,52.046,12941.572694
1 Jan 2000 12:39:07.000,301.546,52.008,12943.406763
1 Jan 2000 12:39:17.000,301.213,51.969,12945.306169
1 Jan 2000 12:39:27.000,300.881,51.928,12947.270866
1 Jan 2000 12:39:37.000,300.550,51.886,12949.300804
1 Jan 2000 12:39:47.000,300.219,51.843,12951.395934
1 Jan 2000 12:39:57.000,299.890,51.799,12953.556203
1 Jan 2000 12:40:07.000,299.561,51.753,12955.781557
1 Jan 2000 12:40:17.000,299.233,51.706,12958.071942
1 Jan 2000 12:40:27.000,298.906,51.658,12960.427301
1 Jan 2000 12:40:37.000,298.580,51.609,12962.847576
1 Jan 2000 12:40:47.000,298.255,51.558,12965.332707
1 Jan 2000 12:40:57.000,297.931,51.506,12967.882634
1 Jan 2000 12:41:07.000,297.607,51.453,12970.497295
1 Jan 2000 12:41:17.000,297.285,51.398,12973.176624
1 Jan 2000 12:41:27.000,296.963,51.343,12975.920558
1 Jan 2000 12:41:37.000,296.643,51.286,12978.729029
1 Jan 2000 12:41:47.000,296.324,51.228,12981.601969
1 Jan 2000 12:41:57.000,296.005,51.169,12984.539307
1 Jan 2000 12:42:07.000,295.688,51.109,12987.540974
1 Jan 2000 12:42:17.000,295.372,51.047,12990.606896
1 Jan 2000 12:42:27.000,295.057,50.985,12993.736999
1 Jan 2000 12:42:37.000,294.743,50.921,12996.931208
1 Jan 2000 12:42:47.000,294.430,50.856,13000.189446
1 Jan 2000 12:42:57.000,294.118,50.790,13003.511634
1 Jan 2000 12:43:07.000,293.807,50.722,13006.897693
1 Jan 2000 12:43:17.000,293.498,50.654,13010.347541
1 Jan 2000 12:43:27.000,293.189,50.585,13013.861097
1 Jan 2000 12:43:37.000,292.882,50.514,13017.438275
1 Jan 2000 12:43:47.000,292.576,50.442,13021.078992
1 Jan 2000 12:43:57.000,292.271,50.369,13024.783159
1 Jan 2000 12:44:07.000,291.968,50.296,13028.550689
1 Jan 2000 12:44:17.000,291.666,50.221,13032.381492
1 Jan 2000 12:44:27.000,291.365,50.145,13036.275479
1 Jan 2000 12:44:37.000,291.065,50.067,13040.232555
1 Jan 2000 12:44:47.000,290.766,49.989,13044.252629
1 Jan 2000 12:44:57.000,290.469,49.910,13048.335604
1 Jan 2000 12:45:07.000,290.173,49.830,13052.481385
1 Jan 2000 12:45:17.000,289.878,49.748,13056.689874
1 Jan 2000 12:45:27.000,289.585,49.666,13060.960973
1 Jan 2000 12:45:37.000,289.293,49.583,13065.294580
1 Jan 2000 12:45:47.000,289.002,49.498,13069.690596
1 Jan 2000 12:45:57.000,288.712,49.413,13074.148916
1 Jan 2000 12:46:07.000,288.424,49.327,13078.669437
1 Jan 2000 12:46:17.000,288.137,49.239,13083.252053
1 Jan 2000 12:46:27.000,287.852,49.151,13087.896658
1 Jan 2000 12:46:37.000,287.568,49.062,13092.603143
1 Jan 2000 12:46:47.000,287.285,48.972,13097.371401
1 Jan 2000 12:46:57.000,287.004,48.880,13102.201319
1 Jan 2000 12:47:07.000,286.724,48.788,13107.092787
1 Jan 2000 12:47:17.000,286.445,48.695,13112.045691
1 Jan 2000 12:47:27.000,286.168,48.601,13117.059918
1 Jan 2000 12:47:37.000,285.892,48.506,13122.135351
1 Jan 2000 12:47:47.000,285.617,48.411,13127.271875
1 Jan 2000 12:47:57.000,285.344,48.314,13132.469371
1 Jan 2000 12:48:07.000,285.072,48.216,13137.727721
1 Jan 2000 12:48:17.000,284.802,48.118,13143.046804
1 Jan 2000 12:48:27.000,284.533,48.019,13148.426499
1 Jan 2000 12:48:37.000,284.265,47.918,13153.866683
1 Jan 2000 12:48:47.000,283.999,47.817,13159.367233
1 Jan 2000 12:48:57.000,283.734,47.715,13164.928024
1 Jan 2000 12:49:07.000,283.471,47.613,13170.548929
1 Jan 2000 12:49:17.000,283.209,47.509,13176.229822
1 Jan 2000 12:49:27.000,282.948,47.405,13181.970573
1 Jan 2000 12:49:37.000,282.689,47.300,13187.771055
1 Jan 2000 12:49:47.000,282.432,47.194,13193.631135
1 Jan 2000 12:49:57.000,282.175,47.087,13199.550683
1 Jan 2000 12:50:07.000,281.920,46.979,13205.529566
1 Jan 2000 12:50:17.000,281.667,46.871,13211.567650
1 Jan 2000 12:50:27.000,281.414,46.762,13217.664799
1 Jan 2000 12:50:37.000,281.164,46.652,13223.820878
1 Jan 2000 12:50:47.000,280.914,46.542,13230.035751
1 Jan 2000 12:50:57.000,280.666,46.430,13236.309278
1 Jan 2000 12:51:07.000,280.420,46.318,13242.641320
1 Jan 2000 12:51:17.000,280.175,46.205,13249.031738
1 Jan 2000 12:51:27.000,279.931,46.092,13255.480390
1 Jan 2000 12:51:37.000,279.688,45.978,13261.987134
1 Jan 2000 12:51:47.000,279.447,45.863,13268.551826
1 Jan 2000 12:51:57.000,279.208,45.747,13275.174323
1 Jan 2000 12:52:07.000,278.969,45.631,13281.854479
1 Jan 2000 12:52:17.000,278.733,45.514,13288.592148
1 Jan 2000 12:52:27.000,278.497,45.396,13295.387183
1 Jan 2000 12:52:37.000,278.263,45.278,13302.239435
1 Jan 2000 12:52:47.000,278.030,45.159,13309.148755
1 Jan 2000 12:52:57.000,277.799,45.039,13316.114994
1 Jan 2000 12:53:07.000,277.569,44.919,13323.138001
1 Jan 2000 12:53:17.000,277.340,44.798,13330.217622
1 Jan 2000 12:53:27.000,277.113,44.677,13337.353707
1 Jan 2000 12:53:37.000,276.887,44.555,13344.546100
1 Jan 2000 12:53:47.000,276.662,44.432,13351.794648
1 Jan 2000 12:53:57.000,276.439,44.309,13359.099194
1 Jan 2000 12:54:07.000,276.217,44.185,13366.459583
1 Jan 2000 12:54:17.000,275.996,44.060,13373.875657
1 Jan 2000 12:54:27.000,275.777,43.935,13381.347258
1 Jan 2000 12:54:37.000,275.559,43.810,13388.874226
1 Jan 2000 12:54:47.000,275.342,43.683,13396.456403
1 Jan 2000 12:54:57.000,275.127,43.557,13404.093628
1 Jan 2000 12:55:07.000,274.913,43.429,13411.785738
1 Jan 2000 12:55:17.000,274.700,43.302,13419.532572
1 Jan 2000 12:55:27.000,274.489,43.173,13427.333967
1 Jan 2000 12:55:37.000,274.278,43.044,13435.189759
1 Jan 2000 12:55:47.000,274.069,42.915,13443.099782
1 Jan 2000 12:55:57.000,273.862,42.785,13451.063873
1 Jan 2000 12:56:07.000,273.655,42.655,13459.081864
1 Jan 2000 12:56:17.000,273.450,42.524,13467.153588
1 Jan 2000 12:56:27.000,273.247,42.392,13475.278878
1 Jan 2000 12:56:37.000,273.044,42.260,13483.457566
1 Jan 2000 12:56:47.000,272.843,42.128,13491.689481
1 Jan 2000 12:56:57.000,272.642,41.995,13499.974455
1 Jan 2000 12:57:07.000,272.444,41.862,13508.312317
1 Jan 2000 12:57:17.000,272.246,41.728,13516.702895
1 Jan 2000 12:57:27.000,272.050,41.594,13525.146018
1 Jan 2000 12:57:37.000,271.854,41.460,13533.641512
1 Jan 2000 12:57:47.000,271.660,41.324,13542.189205
1 Jan 2000 12:57:57.000,271.467,41.189,13550.788923
1 Jan 2000 12:58:07.000,271.276,41.053,13559.440490
1 Jan 2000 12:58:17.000,271.085,40.917,13568.143732
1 Jan 2000 12:58:27.000,270.896,40.780,13576.898472
1 Jan 2000 12:58:37.000,270.708,40.643,13585.704534
1 Jan 2000 12:58:47.000,270.521,40.505,13594.561741
1 Jan 2000 12:58:57.000,270.335,40.367,13603.469916
1 Jan 2000 12:59:07.000,270.151,40.229,13612.428879
1 Jan 2000 12:59:17.000,269.967,40.090,13621.438452
1 Jan 2000 12:59:27.000,269.785,39.951,13630.498455
1 Jan 2000 12:59:37.000,269.604,39.812,13639.608708
1 Jan 2000 12:59:47.000,269.424,39.672,13648.769031
1 Jan 2000 12:59:57.000,269.245,39.532,13657.979243
1 Jan 2000 13:00:07.000,269.067,39.391,13667.239161
1 Jan 2000 13:00:17.000,268.890,39.250,13676.548603
1 Jan 2000 13:00:27.000,268.715,39.109,13685.907387
1 Jan 2000 13:00:37.000,268.540,38.968,13695.315329
1 Jan 2000 13:00:47.000,268.367,38.826,13704.772245
1 Jan 2000 13:00:57.000,268.194,38.684,13714.277951
1 Jan 2000 13:01:07.000,268.023,38.541,13723.832263
1 Jan 2000 13:01:17.000,267.853,38.398,13733.434995
1 Jan 2000 13:01:27.000,267.683,38.255,13743.085960
1 Jan 2000 13:01:37.000,267.515,38.112,13752.784974
1 Jan 2000 13:01:47.000,267.348,37.968,13762.531850
1 Jan 2000 13:01:57.000,267.182,37.824,13772.326399
1 Jan 2000 13:02:07.000,267.017,37.680,13782.168435
1 Jan 2000 13:02:17.000,266.853,37.535,13792.057770
1 Jan 2000 13:02:27.000,266.690,37.390,13801.994215
1 Jan 2000 13:02:37.000,266.528,37.245,13811.977582
1 Jan 2000 13:02:47.000,266.367,37.100,13822.007681
1 Jan 2000 13:02:57.000,266.207,36.954,13832.084324
1 Jan 2000 13:03:07.000,266.048,36.808,13842.207318
1 Jan 2000 13:03:17.000,265.890,36.662,13852.376476
1 Jan 2000 13:03:27.000,265.733,36.516,13862.591605
1 Jan 2000 13:03:37.000,265.576,36.369,13872.852515
1 Jan 2000 13:03:47.000,265.421,36.222,13883.159014
1 Jan 2000 13:03:57.000,265.267,36.075,13893.510910
1 Jan 2000 13:04:07.000,265.114,35.928,13903.908013
1 Jan 2000 13:04:17.000,264.961,35.780,13914.350128
1 Jan 2000 13:04:27.000,264.810,35.632,13924.837063
1 Jan 2000 13:04:37.000,264.660,35.484,13935.368626
1 Jan 2000 13:04:47.000,264.510,35.336,13945.944623
1 Jan 2000 13:04:57.000,264.361,35.187,13956.564860
1 Jan 2000 13:05:07.000,264.214,35.039,13967.229144
1 Jan 2000 13:05:09.573,264.176,35.001,13969.979882

Interval Statistics
"Min Elevation",1 Jan 2000 13:05:09.573,264.176,35.001,13969.979882
"Max Elevation",1 Jan 2000 12:34:16.981,311.406,52.575,12916.890611
"Mean Elevation",,,46.859,
"Min Range",1 Jan 2000 12:34:23.277,311.190,52.575,12916.877522
"Max Range",1 Jan 2000 13:05:09.573,264.176,35.001,13969.979882
"Mean Range",,,,13233.572486

"Time (UTCG)","Azimuth (deg)","Elevation (deg)","Range (km)"
1 Jan 2000 18:15:16.518,55.079,42.312,13486.414616
1 Jan 2000 18:15:26.000,54.835,42.371,13482.787978
1 Jan 2000 18:15:36.000,54.578,42.432,13479.022835
1 Jan 2000 18:15:46.000,54.320,42.492,13475.318853
1 Jan 2000 18:15:56.000,54.061,42.551,13471.676118
1 Jan 2000 18:16:06.000,53.801,42.610,13468.094718
1 Jan 2000 18:16:16.000,53.541,42.667,13464.574736
1 Jan 2000 18:16:26.000,53.280,42.724,13461.116258
1 Jan 2000 18:16:36.000,53.018,42.779,13457.719364
1 Jan 2000 18:16:46.000,52.756,42.834,13454.384136
1 Jan 2000 18:16:56.000,52.493,42.887,13451.110654
1 Jan 2000 18:17:06.000,52.230,42.940,13447.898995
1 Jan 2000 18:17:16.000,51.965,42.992,13444.749238
1 Jan 2000 18:17:26.000,51.700,43.043,13441.661458
1 Jan 2000 18:17:36.000,51.435,43.093,13438.635729
1 Jan 2000 18:17:46.000,51.169,43.142,13435.672124
1 Jan 2000 18:17:56.000,50.902,43.190,13432.770715
1 Jan 2000 18:18:06.000,50.635,43.237,13429.931572
1 Jan 2000 18:18:16.000,50.367,43.283,13427.154765
1 Jan 2000 18:18:26.000,50.099,43.328,13424.440361
1 Jan 2000 18:18:36.000,49.830,43.372,13421.788426
1 Jan 2000 18:18:46.000,49.560,43.415,13419.199026
1 Jan 2000 18:18:56.000,49.290,43.457,13416.672223
1 Jan 2000 18:19:06.000,49.019,43.498,13414.208081
1 Jan 2000 18:19:16.000,48.748,43.538,13411.806659
1 Jan 2000 18:19:26.000,48.477,43.577,13409.468018
1 Jan 2000 18:19:36.000,48.204,43.616,13407.192216
1 Jan 2000 18:19:46.000,47.932,43.653,13404.979308
1 Jan 2000 18:19:56.000,47.659,43.689,13402.829351
1 Jan 2000 18:20:06.000,47.385,43.724,13400.742398
1 Jan 2000 18:20:16.000,47.111,43.758,13398.718502
1 Jan 2000 18:20:26.000,46.837,43.791,13396.757714
1 Jan 2000 18:20:36.000,46.562,43.823,13394.860084
1 Jan 2000 18:20:46.000,46.287,43.854,13393.025659
1 Jan 2000 18:20:56.000,46.012,43.884,13391.254487
1 Jan 2000 18:21:06.000,45.736,43.913,13389.546613
1 Jan 2000 18:21:16.000,45.459,43.941,13387.902081
1 Jan 2000 18:21:26.000,45.183,43.968,13386.320933
1 Jan 2000 18:21:36.000,44.906,43.994,13384.803211
1 Jan 2000 18:21:46.000,44.628,44.018,13383.348955
1 Jan 2000 18:21:56.000,44.351,44.042,13381.958202
1 Jan 2000 18:22:06.000,44.073,44.065,13380.630990
1 Jan 2000 18:22:16.000,43.795,44.086,13379.367354
1 Jan 2000 18:22:26.000,43.516,44.107,13378.167328
1 Jan 2000 18:22:36.000,43.237,44.127,13377.030944
1 Jan 2000 18:22:46.000,42.959,44.145,13375.958234
1 Jan 2000 18:22:56.000,42.679,44.162,13374.949227
1 Jan 2000 18:23:06.000,42.400,44.179,13374.003951
1 Jan 2000 18:23:16.000,42.120,44.194,13373.122433
1 Jan 2000 18:23:26.000,41.841,44.208,13372.304699
1 Jan 2000 18:23:36.000,41.561,44.222,13371.550771
1 Jan 2000 18:23:46.000,41.281,44.234,13370.860673
1 Jan 2000 18:23:56.000,41.000,44.245,13370.234425
1 Jan 2000 18:24:06.000,40.720,44.255,13369.672047
1 Jan 2000 18:24:16.000,40.440,44.264,13369.173557
1 Jan 2000 18:24:26.000,40.159,44.272,13368.738970
1 Jan 2000 18:24:36.000,39.879,44.278,13368.368303
1 Jan 2000 18:24:46.000,39.598,44.284,13368.061569
1 Jan 2000 18:24:56.000,39.317,44.289,13367.818780
1 Jan 2000 18:25:06.000,39.036,44.292,13367.639946
1 Jan 2000 18:25:16.000,38.756,44.295,13367.525076
1 Jan 2000 18:25:26.000,38.475,44.296,13367.474179
1 Jan 2000 18:25:36.000,38.194,44.297,13367.487261
1 Jan 2000 18:25:46.000,37.913,44.296,13367.564326
1 Jan 2000 18:25:56.000,37.633,44.294,13367.705378
1 Jan 2000 18:26:06.000,37.352,44.291,13367.910418
1 Jan 2000 18:26:16.000,37.071,44.287,13368.179447
1 Jan 2000 18:26:26.000,36.791,44.282,13368.512464
1 Jan 2000 18:26:36.000,36.510,44.276,13368.909466
1 Jan 2000 18:26:46.000,36.230,44.269,13369.370449
1 Jan 2000 18:26:56.000,35.950,44.261,13369.895407
1 Jan 2000 18:27:06.000,35.670,44.252,13370.484334
1 Jan 2000 18:27:16.000,35.390,44.241,13371.137221
1 Jan 2000 18:27:26.000,35.110,44.230,13371.854059
1 Jan 2000 18:27:36.000,34.831,44.217,13372.634835
1 Jan 2000 18:27:46.000,34.552,44.204,13373.479537
1 Jan 2000 18:27:56.000,34.273,44.189,13374.388151
1 Jan 2000 18:28:06.000,33.994,44.173,13375.360661
1 Jan 2000 18:28:16.000,33.715,44.157,13376.397049
1 Jan 2000 18:28:26.000,33.437,44.139,13377.497297
1 Jan 2000 18:28:36.000,33.159,44.120,13378.661385
1 Jan 2000 18:28:46.000,32.881,44.100,13379.889291
1 Jan 2000 18:28:56.000,32.603,44.079,13381.180993
1 Jan 2000 18:29:06.000,32.326,44.057,13382.536464
1 Jan 2000 18:29:16.000,32.050,44.034,13383.955681
1 Jan 2000 18:29:26.000,31.773,44.010,13385.438615
1 Jan 2000 18:29:36.000,31.497,43.985,13386.985237
1 Jan 2000 18:29:46.000,31.221,43.959,13388.595517
1 Jan 2000 18:29:56.000,30.946,43.931,13390.269424
1 Jan 2000 18:30:06.000,30.671,43.903,13392.006923
1 Jan 2000 18:30:16.000,30.396,43.874,13393.807982
1 Jan 2000 18:30:26.000,30.122,43.843,13395.672562
1 Jan 2000 18:30:36.000,29.849,43.812,13397.600628
1 Jan 2000 18:30:46.000,29.575,43.779,13399.592140
1 Jan 2000 18:30:56.000,29.303,43.746,13401.647057
1 Jan 2000 18:31:06.000,29.030,43.712,13403.765339
1 Jan 2000 18:31:16.000,28.758,43.676,13405.946941
1 Jan 2000 18:31:26.000,28.487,43.639,13408.191820
1 Jan 2000 18:31:36.000,28.216,43.602,13410.499929
1 Jan 2000 18:31:46.000,27.946,43.563,13412.871221
1 Jan 2000 18:31:56.000,27.676,43.524,13415.305647
1 Jan 2000 18:32:06.000,27.407,43.483,13417.803156
1 Jan 2000 18:32:16.000,27.139,43.442,13420.363698
1 Jan 2000 18:32:26.000,26.871,43.399,13422.987219
1 Jan 2000 18:32:36.000,26.603,43.356,13425.673665
1 Jan 2000 18:32:46.000,26.336,43.311,13428.422981
1 Jan 2000 18:32:56.000,26.070,43.266,13431.235108
1 Jan 2000 18:33:06.000,25.805,43.219,13434.109988
1 Jan 2000 18:33:16.000,25.540,43.172,13437.047562
1 Jan 2000 18:33:26.000,25.275,43.123,13440.047768
1 Jan 2000 18:33:36.000,25.012,43.074,13443.110544
1 Jan 2000 18:33:46.000,24.749,43.023,13446.235826
1 Jan 2000 18:33:56.000,24.486,42.972,13449.423547
1 Jan 2000 18:34:06.000,24.225,42.920,13452.673643
1 Jan 2000 18:34:16.000,23.964,42.867,13455.986044
1 Jan 2000 18:34:26.000,23.703,42.812,13459.360681
1 Jan 2000 18:34:36.000,23.444,42.757,13462.797484
1 Jan 2000 18:34:46.000,23.185,42.701,13466.296380
1 Jan 2000 18:34:56.000,22.927,42.644,13469.857297
1 Jan 2000 18:35:06.000,22.670,42.586,13473.480158
1 Jan 2000 18:35:16.000,22.413,42.527,13477.164890
1 Jan 2000 18:35:26.000,22.157,42.467,13480.911413
1 Jan 2000 18:35:36.000,21.902,42.407,13484.719651
1 Jan 2000 18:35:46.000,21.648,42.345,13488.589522
1 Jan 2000 18:35:56.000,21.394,42.283,13492.520945
1 Jan 2000 18:36:06.000,21.142,42.219,13496.513839
1 Jan 2000 18:36:16.000,20.890,42.155,13500.568119
1 Jan 2000 18:36:26.000,20.639,42.090,13504.683701
1 Jan 2000 18:36:36.000,20.388,42.024,13508.860498
1 Jan 2000 18:36:46.000,20.139,41.957,13513.098422
1 Jan 2000 18:36:56.000,19.890,41.889,13517.397386
1 Jan 2000 18:37:06.000,19.642,41.820,13521.757298
1 Jan 2000 18:37:16.000,19.395,41.751,13526.178068
1 Jan 2000 18:37:26.000,19.149,41.680,13530.659603
1 Jan 2000 18:37:36.000,18.904,41.609,13535.201809
1 Jan 2000 18:37:46.000,18.660,41.537,13539.804592
1 Jan 2000 18:37:56.000,18.416,41.464,13544.467855
1 Jan 2000 18:38:06.000,18.173,41.390,13549.191501
1 Jan 2000 18:38:16.000,17.932,41.315,13553.975431
1 Jan 2000 18:38:26.000,17.691,41.240,13558.819546
1 Jan 2000 18:38:36.000,17.451,41.164,13563.723744
1 Jan 2000 18:38:46.000,17.211,41.086,13568.687925
1 Jan 2000 18:38:56.000,16.973,41.009,13573.711983
1 Jan 2000 18:39:06.000,16.736,40.930,13578.795815
1 Jan 2000 18:39:16.000,16.500,40.850,13583.939316
1 Jan 2000 18:39:26.000,16.264,40.770,13589.142378
1 Jan 2000 18:39:36.000,16.030,40.689,13594.404893
1 Jan 2000 18:39:46.000,15.796,40.607,13599.726753
1 Jan 2000 18:39:56.000,15.563,40.524,13605.107847
1 Jan 2000 18:40:06.000,15.331,40.441,13610.548065
1 Jan 2000 18:40:16.000,15.101,40.357,13616.047293
1 Jan 2000 18:40:26.000,14.871,40.272,13621.605418
1 Jan 2000 18:40:36.000,14.642,40.186,13627.222325
1 Jan 2000 18:40:46.000,14.414,40.100,13632.897900
1 Jan 2000 18:40:56.000,14.187,40.013,13638.632024
1 Jan 2000 18:41:06.000,13.960,39.925,13644.424580
1 Jan 2000 18:41:16.000,13.735,39.836,13650.275450
1 Jan 2000 18:41:26.000,13.511,39.747,13656.184513
1 Jan 2000 18:41:36.000,13.288,39.657,13662.151648
1 Jan 2000 18:41:46.000,13.065,39.566,13668.176733
1 Jan 2000 18:41:56.000,12.844,39.474,13674.259645
1 Jan 2000 18:42:06.000,12.624,39.382,13680.400260
1 Jan 2000 18:42:16.000,12.404,39.289,13686.598452
1 Jan 2000 18:42:26.000,12.186,39.195,13692.854096
1 Jan 2000 18:42:36.000,11.968,39.101,13699.167065
1 Jan 2000 18:42:46.000,11.752,39.006,13705.537229
1 Jan 2000 18:42:56.000,11.536,38.911,13711.964460
1 Jan 2000 18:43:06.000,11.322,38.814,13718.448628
1 Jan 2000 18:43:16.000,11.108,38.717,13724.989602
1 Jan 2000 18:43:26.000,10.896,38.620,13731.587249
1 Jan 2000 18:43:36.000,10.684,38.522,13738.241436
1 Jan 2000 18:43:46.000,10.474,38.423,13744.952030
1 Jan 2000 18:43:56.000,10.264,38.323,13751.718896
1 Jan 2000 18:44:06.000,10.055,38.223,13758.541898
1 Jan 2000 18:44:16.000,9.848,38.122,13765.420898
1 Jan 2000 18:44:26.000,9.641,38.021,13772.355759
1 Jan 2000 18:44:36.000,9.435,37.919,13779.346344
1 Jan 2000 18:44:46.000,9.230,37.816,13786.392511
1 Jan 2000 18:44:56.000,9.027,37.713,13793.494121
1 Jan 2000 18:45:06.000,8.824,37.609,13800.651032
1 Jan 2000 18:45:16.000,8.622,37.504,13807.863103
1 Jan 2000 18:45:26.000,8.421,37.399,13815.130190
1 Jan 2000 18:45:36.000,8.221,37.294,13822.452150
1 Jan 2000 18:45:46.000,8.022,37.188,13829.828838
1 Jan 2000 18:45:56.000,7.825,37.081,13837.260107
1 Jan 2000 18:46:06.000,7.628,36.974,13844.745813
1 Jan 2000 18:46:16.000,7.432,36.866,13852.285807
1 Jan 2000 18:46:26.000,7.237,36.757,13859.879942
1 Jan 2000 18:46:36.000,7.043,36.648,13867.528069
1 Jan 2000 18:46:46.000,6.850,36.539,13875.230039
1 Jan 2000 18:46:56.000,6.658,36.429,13882.985700
1 Jan 2000 18:47:06.000,6.467,36.318,13890.794902
1 Jan 2000 18:47:16.000,6.276,36.207,13898.657492
1 Jan 2000 18:47:26.000,6.087,36.096,13906.573319
1 Jan 2000 18:47:36.000,5.899,35.983,13914.542229
1 Jan 2000 18:47:46.000,5.712,35.871,13922.564067
1 Jan 2000 18:47:56.000,5.526,35.758,13930.638679
1 Jan 2000 18:48:06.000,5.340,35.644,13938.765909
1 Jan 2000 18:48:16.000,5.156,35.530,13946.945600
1 Jan 2000 18:48:26.000,4.973,35.415,13955.177596
1 Jan 2000 18:48:36.000,4.790,35.300,13963.461739
1 Jan 2000 18:48:46.000,4.609,35.184,13971.797870
1 Jan 2000 18:48:56.000,4.428,35.068,13980.185831
1 Jan 2000 18:49:01.828,4.324,35.001,13985.098356

Interval Statistics
"Min Elevation",1 Jan 2000 18:49:01.828,4.324,35.001,13985.098356
"Max Elevation",1 Jan 2000 18:25:34.352,38.240,44.297,13367.480703
"Mean Elevation",,,41.797,
"Min Range",1 Jan 2000 18:25:28.955,38.392,44.296,13367.471385
"Max Range",1 Jan 2000 18:49:01.828,4.324,35.001,13985.098356
"Mean Range",,,,13527.073911

"Time (UTCG)","Azimuth (deg)","Elevation (deg)","Range (km)"
2 Jan 2000 01:18:19.009,320.810,44.539,13352.880409
2 Jan 2000 01:18:29.000,321.085,44.495,13355.548594
2 Jan 2000 01:18:39.000,321.359,44.450,13358.252125
2 Jan 2000 01:18:49.000,321.633,44.405,13360.988676
2 Jan 2000 01:18:59.000,321.907,44.359,13363.758179
2 Jan 2000 01:19:09.000,322.180,44.313,13366.560563
2 Jan 2000 01:19:19.000,322.452,44.266,13369.395759
2 Jan 2000 01:19:29.000,322.724,44.219,13372.263697
2 Jan 2000 01:19:39.000,322.995,44.171,13375.164306
2 Jan 2000 01:19:49.000,323.266,44.123,13378.097516
2 Jan 2000 01:19:59.000,323.537,44.074,13381.063256
2 Jan 2000 01:20:09.000,323.807,44.025,13384.061454
2 Jan 2000 01:20:19.000,324.076,43.975,13387.092039
2 Jan 2000 01:20:29.000,324.345,43.925,13390.154939
2 Jan 2000 01:20:39.000,324.614,43.874,13393.250081
2 Jan 2000 01:20:49.000,324.882,43.823,13396.377394
2 Jan 2000 01:20:59.000,325.149,43.771,13399.536804
2 Jan 2000 01:21:09.000,325.416,43.719,13402.728239
2 Jan 2000 01:21:19.000,325.683,43.666,13405.951624
2 Jan 2000 01:21:29.000,325.949,43.613,13409.206887
2 Jan 2000 01:21:39.000,326.214,43.560,13412.493954
2 Jan 2000 01:21:49.000,326.479,43.506,13415.812750
2 Jan 2000 01:21:59.000,326.743,43.451,13419.163202
2 Jan 2000 01:22:09.000,327.007,43.396,13422.545234
2 Jan 2000 01:22:19.000,327.271,43.341,13425.958771
2 Jan 2000 01:22:29.000,327.533,43.285,13429.403739
2 Jan 2000 01:22:39.000,327.796,43.229,13432.880062
2 Jan 2000 01:22:49.000,328.057,43.172,13436.387664
2 Jan 2000 01:22:59.000,328.319,43.115,13439.926469
2 Jan 2000 01:23:09.000,328.579,43.057,13443.496402
2 Jan 2000 01:23:19.000,328.840,42.999,13447.097385
2 Jan 2000 01:23:29.000,329.099,42.941,13450.729342
2 Jan 2000 01:23:39.000,329.358,42.882,13454.392196
2 Jan 2000 01:23:49.000,329.617,42.823,13458.085870
2 Jan 2000 01:23:59.000,329.875,42.763,13461.810287
2 Jan 2000 01:24:09.000,330.132,42.703,13465.565369
2 Jan 2000 01:24:19.000,330.389,42.642,13469.351038
2 Jan 2000 01:24:29.000,330.645,42.581,13473.167216
2 Jan 2000 01:24:39.000,330.901,42.520,13477.013825
2 Jan 2000 01:24:49.000,331.157,42.458,13480.890786
2 Jan 2000 01:24:59.000,331.411,42.396,13484.798020
2 Jan 2000 01:25:09.000,331.665,42.333,13488.735449
2 Jan 2000 01:25:19.000,331.919,42.270,13492.702994
2 Jan 2000 01:25:29.000,332.172,42.207,13496.700575
2 Jan 2000 01:25:39.000,332.425,42.143,13500.728112
2 Jan 2000 01:25:49.000,332.677,42.079,13504.785527
2 Jan 2000 01:25:59.000,332.928,42.015,13508.872738
2 Jan 2000 01:26:09.000,333.179,41.950,13512.989665
2 Jan 2000 01:26:19.000,333.429,41.884,13517.136229
2 Jan 2000 01:26:29.000,333.679,41.819,13521.312349
2 Jan 2000 01:26:39.000,333.928,41.752,13525.517944
2 Jan 2000 01:26:49.000,334.177,41.686,13529.752932
2 Jan 2000 01:26:59.000,334.425,41.619,13534.017234
2 Jan 2000 01:27:09.000,334.672,41.552,13538.310767
2 Jan 2000 01:27:19.000,334.919,41.484,13542.633451
2 Jan 2000 01:27:29.000,335.166,41.416,13546.985203
2 Jan 2000 01:27:39.000,335.411,41.348,13551.365942
2 Jan 2000 01:27:49.000,335.657,41.280,13555.775586
2 Jan 2000 01:27:59.000,335.901,41.211,13560.214052
2 Jan 2000 01:28:09.000,336.146,41.141,13564.681258
2 Jan 2000 01:28:19.000,336.389,41.071,13569.177123
2 Jan 2000 01:28:29.000,336.632,41.001,13573.701562
2 Jan 2000 01:28:39.000,336.875,40.931,13578.254494
2 Jan 2000 01:28:49.000,337.117,40.860,13582.835835
2 Jan 2000 01:28:59.000,337.358,40.789,13587.445502
2 Jan 2000 01:29:09.000,337.599,40.718,13592.083412
2 Jan 2000 01:29:19.000,337.839,40.646,13596.749482
2 Jan 2000 01:29:29.000,338.079,40.574,13601.443628
2 Jan 2000 01:29:39.000,338.318,40.502,13606.165766
2 Jan 2000 01:29:49.000,338.557,40.429,13610.915813
2 Jan 2000 01:29:59.000,338.795,40.356,13615.693684
2 Jan 2000 01:30:09.000,339.032,40.283,13620.499295
2 Jan 2000 01:30:19.000,339.269,40.209,13625.332563
2 Jan 2000 01:30:29.000,339.505,40.135,13630.193403
2 Jan 2000 01:30:39.000,339.741,40.061,13635.081730
2 Jan 2000 01:30:49.000,339.977,39.986,13639.997459
2 Jan 2000 01:30:59.000,340.211,39.911,13644.940507
2 Jan 2000 01:31:09.000,340.445,39.836,13649.910788
2 Jan 2000 01:31:19.000,340.679,39.760,13654.908217
2 Jan 2000 01:31:29.000,340.912,39.685,13659.932709
2 Jan 2000 01:31:39.000,341.145,39.609,13664.984180
2 Jan 2000 01:31:49.000,341.377,39.532,13670.062542
2 Jan 2000 01:31:59.000,341.608,39.456,13675.167712
2 Jan 2000 01:32:09.000,341.839,39.379,13680.299604
2 Jan 2000 01:32:19.000,342.069,39.301,13685.458132
2 Jan 2000 01:32:29.000,342.299,39.224,13690.643210
2 Jan 2000 01:32:39.000,342.528,39.146,13695.854753
2 Jan 2000 01:32:49.000,342.757,39.068,13701.092675
2 Jan 2000 01:32:59.000,342.985,38.990,13706.356889
2 Jan 2000 01:33:09.000,343.213,38.911,13711.647311
2 Jan 2000 01:33:19.000,343.440,38.832,13716.963852
2 Jan 2000 01:33:29.000,343.666,38.753,13722.306428
2 Jan 2000 01:33:39.000,343.892,38.674,13727.674952
2 Jan 2000 01:33:49.000,344.118,38.594,13733.069338
2 Jan 2000 01:33:59.000,344.343,38.514,13738.489499
2 Jan 2000 01:34:09.000,344.567,38.434,13743.935348
2 Jan 2000 01:34:19.000,344.791,38.353,13749.406799
2 Jan 2000 01:34:29.000,345.014,38.273,13754.903766
2 Jan 2000 01:34:39.000,345.237,38.192,13760.426161
2 Jan 2000 01:34:49.000,345.459,38.111,13765.973898
2 Jan 2000 01:34:59.000,345.681,38.029,13771.546889
2 Jan 2000 01:35:09.000,345.902,37.948,13777.145049
2 Jan 2000 01:35:19.000,346.123,37.866,13782.768289
2 Jan 2000 01:35:29.000,346.343,37.784,13788.416524
2 Jan 2000 01:35:39.000,346.563,37.701,13794.089665
2 Jan 2000 01:35:49.000,346.782,37.619,13799.787625
2 Jan 2000 01:35:59.000,347.001,37.536,13805.510319
2 Jan 2000 01:36:09.000,347.219,37.453,13811.257657
2 Jan 2000 01:36:19.000,347.436,37.370,13817.029553
2 Jan 2000 01:36:29.000,347.653,37.286,13822.825920
2 Jan 2000 01:36:39.000,347.870,37.202,13828.646670
2 Jan 2000 01:36:49.000,348.086,37.118,13834.491716
2 Jan 2000 01:36:59.000,348.301,37.034,13840.360971
2 Jan 2000 01:37:09.000,348.517,36.950,13846.254346
2 Jan 2000 01:37:19.000,348.731,36.865,13852.171755
2 Jan 2000 01:37:29.000,348.945,36.781,13858.113109
2 Jan 2000 01:37:39.000,349.159,36.696,13864.078322
2 Jan 2000 01:37:49.000,349.372,36.610,13870.067306
2 Jan 2000 01:37:59.000,349.584,36.525,13876.079973
2 Jan 2000 01:38:09.000,349.796,36.439,13882.116236
2 Jan 2000 01:38:19.000,350.008,36.354,13888.176006
2 Jan 2000 01:38:29.000,350.219,36.268,13894.259197
2 Jan 2000 01:38:39.000,350.429,36.182,13900.365721
2 Jan 2000 01:38:49.000,350.639,36.095,13906.495489
2 Jan 2000 01:38:59.000,350.849,36.009,13912.648415
2 Jan 2000 01:39:09.000,351.058,35.922,13918.824411
2 Jan 2000 01:39:19.000,351.266,35.835,13925.023389
2 Jan 2000 01:39:29.000,351.474,35.748,13931.245261
2 Jan 2000 01:39:39.000,351.682,35.661,13937.489939
2 Jan 2000 01:39:49.000,351.889,35.573,13943.757337
2 Jan 2000 01:39:59.000,352.096,35.486,13950.047366
2 Jan 2000 01:40:09.000,352.302,35.398,13956.359938
2 Jan 2000 01:40:19.000,352.507,35.310,13962.694967
2 Jan 2000 01:40:29.000,352.713,35.222,13969.052364
2 Jan 2000 01:40:39.000,352.917,35.133,13975.432041
2 Jan 2000 01:40:49.000,353.121,35.045,13981.833911
2 Jan 2000 01:40:54.016,353.224,35.000,13985.053416

Interval Statistics
"Min Elevation",2 Jan 2000 01:40:54.016,353.224,35.000,13985.053416
"Max Elevation",2 Jan 2000 01:18:19.009,320.810,44.539,13352.880409
"Mean Elevation",,,40.248,
"Min Range",2 Jan 2000 01:18:19.009,320.810,44.539,13352.880409
"Max Range",2 Jan 2000 01:40:54.016,353.224,35.000,13985.053416
"Mean Range",,,,13627.941731

"Time (UTCG)","Azimuth (deg)","Elevation (deg)","Range (km)"
2 Jan 2000 09:00:48.853,9.656,54.890,12810.593140
2 Jan 2000 09:00:58.000,9.746,55.070,12802.366470
2 Jan 2000 09:01:08.000,9.845,55.268,12793.414667
2 Jan 2000 09:01:18.000,9.944,55.466,12784.506926
2 Jan 2000 09:01:28.000,10.044,55.663,12775.643423
2 Jan 2000 09:01:38.000,10.145,55.862,12766.824334
2 Jan 2000 09:01:48.000,10.247,56.060,12758.049833
2 Jan 2000 09:01:58.000,10.349,56.258,12749.320097
2 Jan 2000 09:02:08.000,10.452,56.457,12740.635300
2 Jan 2000 09:02:18.000,10.555,56.656,12731.995615
2 Jan 2000 09:02:28.000,10.659,56.854,12723.401219
2 Jan 2000 09:02:38.000,10.764,57.054,12714.852283
2 Jan 2000 09:02:48.000,10.870,57.253,12706.348982
2 Jan 2000 09:02:58.000,10.977,57.452,12697.891488
2 Jan 2000 09:03:08.000,11.084,57.652,12689.479974
2 Jan 2000 09:03:18.000,11.192,57.852,12681.114614
2 Jan 2000 09:03:28.000,11.301,58.052,12672.795577
2 Jan 2000 09:03:38.000,11.411,58.252,12664.523037
2 Jan 2000 09:03:48.000,11.522,58.452,12656.297164
2 Jan 2000 09:03:58.000,11.634,58.652,12648.118128
2 Jan 2000 09:04:08.000,11.746,58.853,12639.986101
2 Jan 2000 09:04:18.000,11.860,59.054,12631.901252
2 Jan 2000 09:04:28.000,11.974,59.254,12623.863751
2 Jan 2000 09:04:38.000,12.090,59.455,12615.873766
2 Jan 2000 09:04:48.000,12.206,59.657,12607.931466
2 Jan 2000 09:04:58.000,12.324,59.858,12600.037019
2 Jan 2000 09:05:08.000,12.442,60.059,12592.190593
2 Jan 2000 09:05:18.000,12.562,60.261,12584.392355
2 Jan 2000 09:05:28.000,12.682,60.463,12576.642471
2 Jan 2000 09:05:38.000,12.804,60.665,12568.941108
2 Jan 2000 09:05:48.000,12.927,60.867,12561.288432
2 Jan 2000 09:05:58.000,13.051,61.069,12553.684607
2 Jan 2000 09:06:08.000,13.176,61.271,12546.129798
2 Jan 2000 09:06:18.000,13.302,61.473,12538.624170
2 Jan 2000 09:06:28.000,13.430,61.676,12531.167885
2 Jan 2000 09:06:38.000,13.559,61.879,12523.761108
2 Jan 2000 09:06:48.000,13.689,62.081,12516.403999
2 Jan 2000 09:06:58.000,13.820,62.284,12509.096722
2 Jan 2000 09:07:08.000,13.953,62.487,12501.839436
2 Jan 2000 09:07:18.000,14.088,62.690,12494.632305
2 Jan 2000 09:07:28.000,14.223,62.894,12487.475486
2 Jan 2000 09:07:38.000,14.360,63.097,12480.369140
2 Jan 2000 09:07:48.000,14.499,63.300,12473.313426
2 Jan 2000 09:07:58.000,14.639,63.504,12466.308502
2 Jan 2000 09:08:08.000,14.781,63.708,12459.354525
2 Jan 2000 09:08:18.000,14.924,63.911,12452.451653
2 Jan 2000 09:08:28.000,15.069,64.115,12445.600043
2 Jan 2000 09:08:38.000,15.216,64.319,12438.799848
2 Jan 2000 09:08:48.000,15.364,64.523,12432.051226
2 Jan 2000 09:08:58.000,15.515,64.727,12425.354330
2 Jan 2000 09:09:08.000,15.667,64.932,12418.709314
2 Jan 2000 09:09:18.000,15.820,65.136,12412.116330
2 Jan 2000 09:09:28.000,15.976,65.340,12405.575532
2 Jan 2000 09:09:38.000,16.134,65.545,12399.087070
2 Jan 2000 09:09:48.000,16.294,65.749,12392.651096
2 Jan 2000 09:09:58.000,16.456,65.954,12386.267759
2 Jan 2000 09:10:08.000,16.620,66.158,12379.937210
2 Jan 2000 09:10:18.000,16.786,66.363,12373.659596
2 Jan 2000 09:10:28.000,16.954,66.568,12367.435066
2 Jan 2000 09:10:38.000,17.125,66.773,12361.263767
2 Jan 2000 09:10:48.000,17.298,66.978,12355.145844
2 Jan 2000 09:10:58.000,17.474,67.182,12349.081444
2 Jan 2000 09:11:08.000,17.652,67.387,12343.070712
2 Jan 2000 09:11:18.000,17.832,67.592,12337.113791
2 Jan 2000 09:11:28.000,18.016,67.797,12331.210824
2 Jan 2000 09:11:38.000,18.202,68.002,12325.361955
2 Jan 2000 09:11:48.000,18.390,68.207,12319.567323
2 Jan 2000 09:11:58.000,18.582,68.412,12313.827071
2 Jan 2000 09:12:08.000,18.777,68.617,12308.141337
2 Jan 2000 09:12:18.000,18.974,68.822,12302.510261
2 Jan 2000 09:12:28.000,19.175,69.027,12296.933981
2 Jan 2000 09:12:38.000,19.379,69.232,12291.412633
2 Jan 2000 09:12:48.000,19.587,69.437,12285.946356
2 Jan 2000 09:12:58.000,19.798,69.642,12280.535283
2 Jan 2000 09:13:08.000,20.012,69.847,12275.179549
2 Jan 2000 09:13:18.000,20.230,70.052,12269.879288
2 Jan 2000 09:13:28.000,20.452,70.257,12264.634633
2 Jan 2000 09:13:38.000,20.678,70.461,12259.445715
2 Jan 2000 09:13:48.000,20.908,70.666,12254.312666
2 Jan 2000 09:13:58.000,21.142,70.871,12249.235615
2 Jan 2000 09:14:08.000,21.380,71.075,12244.214691
2 Jan 2000 09:14:18.000,21.623,71.280,12239.250022
2 Jan 2000 09:14:28.000,21.870,71.484,12234.341735
2 Jan 2000 09:14:38.000,22.122,71.688,12229.489957
2 Jan 2000 09:14:48.000,22.379,71.892,12224.694811
2 Jan 2000 09:14:58.000,22.640,72.096,12219.956423
2 Jan 2000 09:15:08.000,22.908,72.300,12215.274915
2 Jan 2000 09:15:18.000,23.180,72.504,12210.650410
2 Jan 2000 09:15:28.000,23.458,72.707,12206.083027
2 Jan 2000 09:15:38.000,23.742,72.911,12201.572888
2 Jan 2000 09:15:48.000,24.032,73.114,12197.120112
2 Jan 2000 09:15:58.000,24.328,73.317,12192.724815
2 Jan 2000 09:16:08.000,24.631,73.520,12188.387116
2 Jan 2000 09:16:18.000,24.940,73.722,12184.107129
2 Jan 2000 09:16:28.000,25.256,73.924,12179.884969
2 Jan 2000 09:16:38.000,25.580,74.126,12175.720751
2 Jan 2000 09:16:48.000,25.910,74.328,12171.614586
2 Jan 2000 09:16:58.000,26.249,74.529,12167.566586
2 Jan 2000 09:17:08.000,26.595,74.730,12163.576862
2 Jan 2000 09:17:18.000,26.950,74.931,12159.645522
2 Jan 2000 09:17:28.000,27.314,75.132,12155.772675
2 Jan 2000 09:17:38.000,27.686,75.332,12151.958428
2 Jan 2000 09:17:48.000,28.068,75.531,12148.202886
2 Jan 2000 09:17:58.000,28.460,75.730,12144.506154
2 Jan 2000 09:18:08.000,28.862,75.929,12140.868336
2 Jan 2000 09:18:18.000,29.274,76.127,12137.289534
2 Jan 2000 09:18:28.000,29.697,76.325,12133.769850
2 Jan 2000 09:18:38.000,30.132,76.522,12130.309383
2 Jan 2000 09:18:48.000,30.579,76.719,12126.908233
2 Jan 2000 09:18:58.000,31.038,76.915,12123.566496
2 Jan 2000 09:19:08.000,31.510,77.111,12120.284270
2 Jan 2000 09:19:18.000,31.995,77.305,12117.061650
2 Jan 2000 09:19:28.000,32.495,77.500,12113.898730
2 Jan 2000 09:19:38.000,33.009,77.693,12110.795602
2 Jan 2000 09:19:48.000,33.539,77.885,12107.752360
2 Jan 2000 09:19:58.000,34.085,78.077,12104.769092
2 Jan 2000 09:20:08.000,34.647,78.268,12101.845888
2 Jan 2000 09:20:18.000,35.227,78.458,12098.982836
2 Jan 2000 09:20:28.000,35.825,78.647,12096.180023
2 Jan 2000 09:20:38.000,36.442,78.835,12093.437534
2 Jan 2000 09:20:48.000,37.080,79.022,12090.755454
2 Jan 2000 09:20:58.000,37.738,79.207,12088.133865
2 Jan 2000 09:21:08.000,38.418,79.392,12085.572849
2 Jan 2000 09:21:18.000,39.121,79.575,12083.072486
2 Jan 2000 09:21:28.000,39.848,79.756,12080.632856
2 Jan 2000 09:21:38.000,40.600,79.937,12078.254036
2 Jan 2000 09:21:48.000,41.378,80.115,12075.936103
2 Jan 2000 09:21:58.000,42.183,80.292,12073.679132
2 Jan 2000 09:22:08.000,43.017,80.468,12071.483197
2 Jan 2000 09:22:18.000,43.882,80.641,12069.348370
2 Jan 2000 09:22:28.000,44.777,80.813,12067.274723
2 Jan 2000 09:22:38.000,45.705,80.982,12065.262326
2 Jan 2000 09:22:48.000,46.667,81.149,12063.311247
2 Jan 2000 09:22:58.000,47.665,81.314,12061.421553
2 Jan 2000 09:23:08.000,48.700,81.477,12059.593311
2 Jan 2000 09:23:18.000,49.774,81.636,12057.826585
2 Jan 2000 09:23:28.000,50.888,81.793,12056.121438
2 Jan 2000 09:23:38.000,52.044,81.947,12054.477932
2 Jan 2000 09:23:48.000,53.244,82.098,12052.896128
2 Jan 2000 09:23:58.000,54.488,82.246,12051.376085
2 Jan 2000 09:24:08.000,55.780,82.390,12049.917860
2 Jan 2000 09:24:18.000,57.119,82.530,12048.521511
2 Jan 2000 09:24:28.000,58.508,82.667,12047.187091
2 Jan 2000 09:24:38.000,59.947,82.799,12045.914656
2 Jan 2000 09:24:48.000,61.438,82.926,12044.704256
2 Jan 2000 09:24:58.000,62.982,83.049,12043.555943
2 Jan 2000 09:25:08.000,64.580,83.167,12042.469766
2 Jan 2000 09:25:18.000,66.232,83.280,12041.445774
2 Jan 2000 09:25:28.000,67.937,83.387,12040.484013
2 Jan 2000 09:25:38.000,69.697,83.489,12039.584528
2 Jan 2000 09:25:48.000,71.510,83.584,12038.747364
2 Jan 2000 09:25:58.000,73.375,83.673,12037.972562
2 Jan 2000 09:26:08.000,75.291,83.756,12037.260164
2 Jan 2000 09:26:18.000,77.255,83.832,12036.610210
2 Jan 2000 09:26:28.000,79.265,83.900,12036.022737
2 Jan 2000 09:26:38.000,81.318,83.961,12035.497782
2 Jan 2000 09:26:48.000,83.410,84.015,12035.035382
2 Jan 2000 09:26:58.000,85.537,84.061,12034.635569
2 Jan 2000 09:27:08.000,87.693,84.098,12034.298376
2 Jan 2000 09:27:18.000,89.874,84.128,12034.023834
2 Jan 2000 09:27:28.000,92.074,84.149,12033.811973
2 Jan 2000 09:27:38.000,94.287,84.162,12033.662822
2 Jan 2000 09:27:48.000,96.506,84.166,12033.576406
2 Jan 2000 09:27:58.000,98.726,84.162,12033.552751
2 Jan 2000 09:28:08.000,100.940,84.149,12033.591881
2 Jan 2000 09:28:18.000,103.141,84.128,12033.693819
2 Jan 2000 09:28:28.000,105.324,84.099,12033.858585
2 Jan 2000 09:28:38.000,107.483,84.061,12034.086199
2 Jan 2000 09:28:48.000,109.613,84.016,12034.376678
2 Jan 2000 09:28:58.000,111.708,83.962,12034.730041
2 Jan 2000 09:29:08.000,113.765,83.901,12035.146301
2 Jan 2000 09:29:18.000,115.779,83.833,12035.625472
2 Jan 2000 09:29:28.000,117.748,83.757,12036.167567
2 Jan 2000 09:29:38.000,119.668,83.674,12036.772596
2 Jan 2000 09:29:48.000,121.538,83.585,12037.440569
2 Jan 2000 09:29:58.000,123.356,83.489,12038.171494
2 Jan 2000 09:30:08.000,125.120,83.387,12038.965377
2 Jan 2000 09:30:18.000,126.831,83.279,12039.822223
2 Jan 2000 09:30:28.000,128.487,83.166,12040.742036
2 Jan 2000 09:30:38.000,130.089,83.047,12041.724817
2 Jan 2000 09:30:48.000,131.637,82.924,12042.770567
2 Jan 2000 09:30:58.000,133.133,82.795,12043.879286
2 Jan 2000 09:31:08.000,134.576,82.663,12045.050970
2 Jan 2000 09:31:18.000,135.969,82.525,12046.285617
2 Jan 2000 09:31:28.000,137.311,82.384,12047.583220
2 Jan 2000 09:31:38.000,138.606,82.239,12048.943774
2 Jan 2000 09:31:48.000,139.853,82.091,12050.367270
2 Jan 2000 09:31:58.000,141.055,81.939,12051.853699
2 Jan 2000 09:32:08.000,142.214,81.783,12053.403048
2 Jan 2000 09:32:18.000,143.330,81.625,12055.015307
2 Jan 2000 09:32:28.000,144.406,81.464,12056.690460
2 Jan 2000 09:32:38.000,145.443,81.300,12058.428493
2 Jan 2000 09:32:48.000,146.442,81.134,12060.229389
2 Jan 2000 09:32:58.000,147.405,80.965,12062.093129
2 Jan 2000 09:33:08.000,148.334,80.794,12064.019693
2 Jan 2000 09:33:18.000,149.230,80.621,12066.009061
2 Jan 2000 09:33:28.000,150.094,80.445,12068.061209
2 Jan 2000 09:33:38.000,150.928,80.268,12070.176114
2 Jan 2000 09:33:48.000,151.734,80.089,12072.353750
2 Jan 2000 09:33:58.000,152.511,79.909,12074.594090
2 Jan 2000 09:34:08.000,153.262,79.726,12076.897106
2 Jan 2000 09:34:18.000,153.988,79.543,12079.262768
2 Jan 2000 09:34:28.000,154.690,79.357,12081.691044
2 Jan 2000 09:34:38.000,155.369,79.171,12084.181902
2 Jan 2000 09:34:48.000,156.026,78.983,12086.735308
2 Jan 2000 09:34:58.000,156.661,78.794,12089.351226
2 Jan 2000 09:35:08.000,157.277,78.604,12092.029619
2 Jan 2000 09:35:18.000,157.873,78.412,12094.770449
2 Jan 2000 09:35:28.000,158.450,78.220,12097.573677
2 Jan 2000 09:35:38.000,159.010,78.026,12100.439260
2 Jan 2000 09:35:48.000,159.553,77.832,12103.367157
2 Jan 2000 09:35:58.000,160.080,77.637,12106.357323
2 Jan 2000 09:36:08.000,160.592,77.441,12109.409714
2 Jan 2000 09:36:18.000,161.088,77.244,12112.524281
2 Jan 2000 09:36:28.000,161.570,77.046,12115.700978
2 Jan 2000 09:36:38.000,162.039,76.848,12118.939754
2 Jan 2000 09:36:48.000,162.494,76.649,12122.240559
2 Jan 2000 09:36:58.000,162.937,76.449,12125.603341
2 Jan 2000 09:37:08.000,163.368,76.249,12129.028044
2 Jan 2000 09:37:18.000,163.787,76.048,12132.514616
2 Jan 2000 09:37:28.000,164.195,75.846,12136.062999
2 Jan 2000 09:37:38.000,164.592,75.644,12139.673135
2 Jan 2000 09:37:48.000,164.980,75.442,12143.344965
2 Jan 2000 09:37:58.000,165.357,75.239,12147.078429
2 Jan 2000 09:38:08.000,165.725,75.035,12150.873466
2 Jan 2000 09:38:18.000,166.083,74.832,12154.730011
2 Jan 2000 09:38:28.000,166.433,74.627,12158.648000
2 Jan 2000 09:38:38.000,166.774,74.423,12162.627368
2 Jan 2000 09:38:48.000,167.108,74.218,12166.668047
2 Jan 2000 09:38:58.000,167.433,74.012,12170.769969
2 Jan 2000 09:39:08.000,167.751,73.806,12174.933065
2 Jan 2000 09:39:18.000,168.061,73.600,12179.157262
2 Jan 2000 09:39:28.000,168.364,73.394,12183.442489
2 Jan 2000 09:39:38.000,168.661,73.187,12187.788672
2 Jan 2000 09:39:48.000,168.951,72.981,12192.195736
2 Jan 2000 09:39:58.000,169.235,72.773,12196.663604
2 Jan 2000 09:40:08.000,169.512,72.566,12201.192200
2 Jan 2000 09:40:18.000,169.784,72.358,12205.781443
2 Jan 2000 09:40:28.000,170.050,72.150,12210.431256
2 Jan 2000 09:40:38.000,170.311,71.942,12215.141555
2 Jan 2000 09:40:48.000,170.566,71.734,12219.912258
2 Jan 2000 09:40:58.000,170.816,71.526,12224.743281
2 Jan 2000 09:41:08.000,171.061,71.317,12229.634540
2 Jan 2000 09:41:18.000,171.301,71.108,12234.585948
2 Jan 2000 09:41:28.000,171.536,70.899,12239.597417
2 Jan 2000 09:41:38.000,171.767,70.690,12244.668859
2 Jan 2000 09:41:48.000,171.994,70.481,12249.800184
2 Jan 2000 09:41:58.000,172.216,70.272,12254.991299
2 Jan 2000 09:42:08.000,172.434,70.062,12260.242114
2 Jan 2000 09:42:18.000,172.648,69.853,12265.552534
2 Jan 2000 09:42:28.000,172.858,69.643,12270.922465
2 Jan 2000 09:42:38.000,173.065,69.433,12276.351811
2 Jan 2000 09:42:48.000,173.267,69.224,12281.840473
2 Jan 2000 09:42:58.000,173.467,69.014,12287.388355
2 Jan 2000 09:43:08.000,173.662,68.804,12292.995356
2 Jan 2000 09:43:18.000,173.855,68.594,12298.661377
2 Jan 2000 09:43:28.000,174.044,68.384,12304.386314
2 Jan 2000 09:43:38.000,174.230,68.174,12310.170066
2 Jan 2000 09:43:48.000,174.413,67.963,12316.012528
2 Jan 2000 09:43:58.000,174.593,67.753,12321.913596
2 Jan 2000 09:44:08.000,174.770,67.543,12327.873161
2 Jan 2000 09:44:18.000,174.944,67.333,12333.891119
2 Jan 2000 09:44:28.000,175.115,67.122,12339.967359
2 Jan 2000 09:44:38.000,175.284,66.912,12346.101772
2 Jan 2000 09:44:48.000,175.450,66.702,12352.294248
2 Jan 2000 09:44:58.000,175.614,66.491,12358.544675
2 Jan 2000 09:45:08.000,175.775,66.281,12364.852939
2 Jan 2000 09:45:18.000,175.934,66.071,12371.218928
2 Jan 2000 09:45:28.000,176.090,65.860,12377.642526
2 Jan 2000 09:45:38.000,176.244,65.650,12384.123618
2 Jan 2000 09:45:48.000,176.396,65.440,12390.662085
2 Jan 2000 09:45:58.000,176.546,65.229,12397.257811
2 Jan 2000 09:46:08.000,176.693,65.019,12403.910675
2 Jan 2000 09:46:18.000,176.839,64.809,12410.620559
2 Jan 2000 09:46:28.000,176.982,64.599,12417.387340
2 Jan 2000 09:46:38.000,177.124,64.388,12424.210897
2 Jan 2000 09:46:48.000,177.263,64.178,12431.091107
2 Jan 2000 09:46:58.000,177.401,63.968,12438.027846
2 Jan 2000 09:47:08.000,177.537,63.758,12445.020988
2 Jan 2000 09:47:18.000,177.671,63.548,12452.070408
2 Jan 2000 09:47:28.000,177.803,63.338,12459.175979
2 Jan 2000 09:47:38.000,177.934,63.128,12466.337573
2 Jan 2000 09:47:48.000,178.062,62.918,12473.555060
2 Jan 2000 09:47:58.000,178.190,62.709,12480.828312
2 Jan 2000 09:48:08.000,178.315,62.499,12488.157197
2 Jan 2000 09:48:18.000,178.440,62.289,12495.541584
2 Jan 2000 09:48:28.000,178.562,62.080,12502.981341
2 Jan 2000 09:48:38.000,178.683,61.870,12510.476334
2 Jan 2000 09:48:48.000,178.803,61.661,12518.026428
2 Jan 2000 09:48:58.000,178.921,61.451,12525.631490
2 Jan 2000 09:49:08.000,179.038,61.242,12533.291381
2 Jan 2000 09:49:18.000,179.153,61.033,12541.005967
2 Jan 2000 09:49:28.000,179.268,60.824,12548.775109
2 Jan 2000 09:49:38.000,179.380,60.615,12556.598668
2 Jan 2000 09:49:48.000,179.492,60.406,12564.476505
2 Jan 2000 09:49:58.000,179.602,60.197,12572.408479
2 Jan 2000 09:50:08.000,179.711,59.988,12580.394451
2 Jan 2000 09:50:18.000,179.819,59.780,12588.434277
2 Jan 2000 09:50:28.000,179.926,59.571,12596.527815
2 Jan 2000 09:50:38.000,180.031,59.363,12604.674922
2 Jan 2000 09:50:48.000,180.135,59.154,12612.875454
2 Jan 2000 09:50:58.000,180.239,58.946,12621.129265
2 Jan 2000 09:51:08.000,180.341,58.738,12629.436209
2 Jan 2000 09:51:18.000,180.442,58.530,12637.796140
2 Jan 2000 09:51:28.000,180.542,58.322,12646.208912
2 Jan 2000 09:51:38.000,180.641,58.114,12654.674375
2 Jan 2000 09:51:48.000,180.739,57.906,12663.192381
2 Jan 2000 09:51:58.000,180.836,57.699,12671.762780
2 Jan 2000 09:52:08.000,180.932,57.491,12680.385423
2 Jan 2000 09:52:18.000,181.027,57.284,12689.060158
2 Jan 2000 09:52:28.000,181.121,57.077,12697.786834
2 Jan 2000 09:52:38.000,181.214,56.870,12706.565299
2 Jan 2000 09:52:48.000,181.307,56.663,12715.395399
2 Jan 2000 09:52:58.000,181.398,56.456,12724.276981
2 Jan 2000 09:53:08.000,181.489,56.250,12733.209891
2 Jan 2000 09:53:18.000,181.578,56.043,12742.193973
2 Jan 2000 09:53:28.000,181.667,55.837,12751.229072
2 Jan 2000 09:53:38.000,181.755,55.630,12760.315032
2 Jan 2000 09:53:48.000,181.842,55.424,12769.451697
2 Jan 2000 09:53:58.000,181.929,55.218,12778.638907
2 Jan 2000 09:54:08.000,182.014,55.012,12787.876507
2 Jan 2000 09:54:18.000,182.099,54.807,12797.164336
2 Jan 2000 09:54:28.000,182.183,54.601,12806.502235
2 Jan 2000 09:54:38.000,182.267,54.396,12815.890045
2 Jan 2000 09:54:48.000,182.349,54.190,12825.327605
2 Jan 2000 09:54:58.000,182.431,53.985,12834.814755
2 Jan 2000 09:55:08.000,182.513,53.780,12844.351332
2 Jan 2000 09:55:18.000,182.593,53.575,12853.937175
2 Jan 2000 09:55:28.000,182.673,53.371,12863.572120
2 Jan 2000 09:55:38.000,182.752,53.166,12873.256006
2 Jan 2000 09:55:48.000,182.830,52.962,12882.988667
2 Jan 2000 09:55:58.000,182.908,52.757,12892.769940
2 Jan 2000 09:56:08.000,182.986,52.553,12902.599660
2 Jan 2000 09:56:18.000,183.062,52.349,12912.477662
2 Jan 2000 09:56:28.000,183.138,52.146,12922.403780
2 Jan 2000 09:56:38.000,183.213,51.942,12932.377848
2 Jan 2000 09:56:48.000,183.288,51.738,12942.399699
2 Jan 2000 09:56:58.000,183.362,51.535,12952.469166
2 Jan 2000 09:57:08.000,183.436,51.332,12962.586082
2 Jan 2000 09:57:18.000,183.509,51.129,12972.750278
2 Jan 2000 09:57:28.000,183.581,50.926,12982.961586
2 Jan 2000 09:57:38.000,183.653,50.724,12993.219837
2 Jan 2000 09:57:48.000,183.724,50.521,13003.524862
2 Jan 2000 09:57:58.000,183.795,50.319,13013.876491
2 Jan 2000 09:58:08.000,183.865,50.117,13024.274553
2 Jan 2000 09:58:18.000,183.935,49.915,13034.718878
2 Jan 2000 09:58:28.000,184.004,49.713,13045.209296
2 Jan 2000 09:58:38.000,184.073,49.511,13055.745634
2 Jan 2000 09:58:48.000,184.141,49.310,13066.327721
2 Jan 2000 09:58:58.000,184.208,49.108,13076.955385
2 Jan 2000 09:59:08.000,184.276,48.907,13087.628454
2 Jan 2000 09:59:18.000,184.342,48.706,13098.346754
2 Jan 2000 09:59:28.000,184.408,48.505,13109.110112
2 Jan 2000 09:59:38.000,184.474,48.305,13119.918356
2 Jan 2000 09:59:48.000,184.539,48.104,13130.771310
2 Jan 2000 09:59:58.000,184.604,47.904,13141.668802
2 Jan 2000 10:00:08.000,184.669,47.704,13152.610656
2 Jan 2000 10:00:18.000,184.733,47.504,13163.596697
2 Jan 2000 10:00:28.000,184.796,47.304,13174.626751
2 Jan 2000 10:00:38.000,184.859,47.105,13185.700642
2 Jan 2000 10:00:48.000,184.922,46.905,13196.818194
2 Jan 2000 10:00:58.000,184.984,46.706,13207.979232
2 Jan 2000 10:01:08.000,185.046,46.507,13219.183579
2 Jan 2000 10:01:18.000,185.107,46.308,13230.431058
2 Jan 2000 10:01:28.000,185.168,46.110,13241.721494
2 Jan 2000 10:01:38.000,185.228,45.911,13253.054708
2 Jan 2000 10:01:48.000,185.289,45.713,13264.430524
2 Jan 2000 10:01:58.000,185.348,45.515,13275.848765
2 Jan 2000 10:02:08.000,185.408,45.317,13287.309252
2 Jan 2000 10:02:18.000,185.467,45.119,13298.811807
2 Jan 2000 10:02:28.000,185.525,44.922,13310.356253
2 Jan 2000 10:02:38.000,185.583,44.724,13321.942410
2 Jan 2000 10:02:48.000,185.641,44.527,13333.570101
2 Jan 2000 10:02:58.000,185.699,44.330,13345.239147
2 Jan 2000 10:03:08.000,185.756,44.133,13356.949368
2 Jan 2000 10:03:18.000,185.813,43.937,13368.700586
2 Jan 2000 10:03:28.000,185.869,43.740,13380.492621
2 Jan 2000 10:03:38.000,185.925,43.544,13392.325294
2 Jan 2000 10:03:48.000,185.981,43.348,13404.198425
2 Jan 2000 10:03:58.000,186.036,43.152,13416.111835
2 Jan 2000 10:04:08.000,186.091,42.957,13428.065343
2 Jan 2000 10:04:18.000,186.146,42.761,13440.058769
2 Jan 2000 10:04:28.000,186.200,42.566,13452.091933
2 Jan 2000 10:04:38.000,186.255,42.371,13464.164655
2 Jan 2000 10:04:48.000,186.308,42.176,13476.276754
2 Jan 2000 10:04:58.000,186.362,41.981,13488.428050
2 Jan 2000 10:05:08.000,186.415,41.787,13500.618362
2 Jan 2000 10:05:18.000,186.468,41.592,13512.847509
2 Jan 2000 10:05:28.000,186.520,41.398,13525.115310
2 Jan 2000 10:05:38.000,186.572,41.204,13537.421584
2 Jan 2000 10:05:48.000,186.624,41.010,13549.766151
2 Jan 2000 10:05:58.000,186.676,40.817,13562.148828
2 Jan 2000 10:06:08.000,186.727,40.624,13574.569435
2 Jan 2000 10:06:18.000,186.778,40.430,13587.027791
2 Jan 2000 10:06:28.000,186.829,40.237,13599.523714
2 Jan 2000 10:06:38.000,186.879,40.045,13612.057022
2 Jan 2000 10:06:48.000,186.930,39.852,13624.627534
2 Jan 2000 10:06:58.000,186.979,39.660,13637.235069
2 Jan 2000 10:07:08.000,187.029,39.468,13649.879445
2 Jan 2000 10:07:18.000,187.078,39.276,13662.560481
2 Jan 2000 10:07:28.000,187.127,39.084,13675.277994
2 Jan 2000 10:07:38.000,187.176,38.892,13688.031803
2 Jan 2000 10:07:48.000,187.225,38.701,13700.821727
2 Jan 2000 10:07:58.000,187.273,38.510,13713.647583
2 Jan 2000 10:08:08.000,187.321,38.319,13726.509190
2 Jan 2000 10:08:18.000,187.369,38.128,13739.406367
2 Jan 2000 10:08:28.000,187.416,37.937,13752.338932
2 Jan 2000 10:08:38.000,187.463,37.747,13765.306702
2 Jan 2000 10:08:48.000,187.510,37.557,13778.309496
2 Jan 2000 10:08:58.000,187.557,37.367,13791.347134
2 Jan 2000 10:09:08.000,187.604,37.177,13804.419432
2 Jan 2000 10:09:18.000,187.650,36.987,13817.526209
2 Jan 2000 10:09:28.000,187.696,36.798,13830.667284
2 Jan 2000 10:09:38.000,187.742,36.609,13843.842476
2 Jan 2000 10:09:48.000,187.787,36.420,13857.051602
2 Jan 2000 10:09:58.000,187.832,36.231,13870.294481
2 Jan 2000 10:10:08.000,187.877,36.042,13883.570932
2 Jan 2000 10:10:18.000,187.922,35.854,13896.880774
2 Jan 2000 10:10:28.000,187.967,35.666,13910.223824
2 Jan 2000 10:10:38.000,188.011,35.478,13923.599903
2 Jan 2000 10:10:48.000,188.055,35.290,13937.008829
2 Jan 2000 10:10:58.000,188.099,35.102,13950.450420
2 Jan 2000 10:11:03.415,188.123,35.001,13957.743177

Interval Statistics
"Min Elevation",2 Jan 2000 10:11:03.415,188.123,35.001,13957.743177
"Max Elevation",2 Jan 2000 09:27:48.115,96.532,84.166,12033.575775
"Mean Elevation",,,64.639,
"Min Range",2 Jan 2000 09:27:56.768,98.453,84.163,12033.552275
"Max Range",2 Jan 2000 10:11:03.415,188.123,35.001,13957.743177
"Mean Range",,,,12548.680756

"Time (UTCG)","Azimuth (deg)","Elevation (deg)","Range (km)"
2 Jan 2000 21:14:49.846,159.989,56.511,12722.403097
2 Jan 2000 21:14:59.000,159.986,56.706,12714.057156
2 Jan 2000 21:15:09.000,159.984,56.919,12704.990076
2 Jan 2000 21:15:19.000,159.981,57.131,12695.975691
2 Jan 2000 21:15:29.000,159.977,57.345,12687.014168
2 Jan 2000 21:15:39.000,159.974,57.558,12678.105673
2 Jan 2000 21:15:49.000,159.970,57.771,12669.250371
2 Jan 2000 21:15:59.000,159.965,57.985,12660.448427
2 Jan 2000 21:16:09.000,159.961,58.199,12651.700005
2 Jan 2000 21:16:19.000,159.956,58.413,12643.005266
2 Jan 2000 21:16:29.000,159.951,58.627,12634.364375
2 Jan 2000 21:16:39.000,159.945,58.841,12625.777493
2 Jan 2000 21:16:49.000,159.939,59.055,12617.244779
2 Jan 2000 21:16:59.000,159.932,59.270,12608.766396
2 Jan 2000 21:17:09.000,159.926,59.485,12600.342501
2 Jan 2000 21:17:19.000,159.918,59.700,12591.973254
2 Jan 2000 21:17:29.000,159.911,59.915,12583.658812
2 Jan 2000 21:17:39.000,159.903,60.130,12575.399332
2 Jan 2000 21:17:49.000,159.894,60.346,12567.194971
2 Jan 2000 21:17:59.000,159.885,60.561,12559.045885
2 Jan 2000 21:18:09.000,159.876,60.777,12550.952227
2 Jan 2000 21:18:19.000,159.866,60.993,12542.914151
2 Jan 2000 21:18:29.000,159.856,61.209,12534.931812
2 Jan 2000 21:18:39.000,159.845,61.425,12527.005359
2 Jan 2000 21:18:49.000,159.834,61.642,12519.134946
2 Jan 2000 21:18:59.000,159.822,61.858,12511.320721
2 Jan 2000 21:19:09.000,159.810,62.075,12503.562836
2 Jan 2000 21:19:19.000,159.797,62.292,12495.861438
2 Jan 2000 21:19:29.000,159.783,62.509,12488.216675
2 Jan 2000 21:19:39.000,159.769,62.726,12480.628694
2 Jan 2000 21:19:49.000,159.755,62.943,12473.097640
2 Jan 2000 21:19:59.000,159.740,63.161,12465.623660
2 Jan 2000 21:20:09.000,159.724,63.378,12458.206896
2 Jan 2000 21:20:19.000,159.708,63.596,12450.847493
2 Jan 2000 21:20:29.000,159.691,63.814,12443.545592
2 Jan 2000 21:20:39.000,159.673,64.032,12436.301334
2 Jan 2000 21:20:49.000,159.654,64.250,12429.114859
2 Jan 2000 21:20:59.000,159.635,64.468,12421.986308
2 Jan 2000 21:21:09.000,159.615,64.687,12414.915818
2 Jan 2000 21:21:19.000,159.595,64.905,12407.903526
2 Jan 2000 21:21:29.000,159.573,65.124,12400.949569
2 Jan 2000 21:21:39.000,159.551,65.343,12394.054081
2 Jan 2000 21:21:49.000,159.528,65.562,12387.217198
2 Jan 2000 21:21:59.000,159.505,65.781,12380.439052
2 Jan 2000 21:22:09.000,159.480,66.000,12373.719776
2 Jan 2000 21:22:19.000,159.454,66.219,12367.059500
2 Jan 2000 21:22:29.000,159.428,66.439,12360.458355
2 Jan 2000 21:22:39.000,159.401,66.659,12353.916469
2 Jan 2000 21:22:49.000,159.372,66.878,12347.433970
2 Jan 2000 21:22:59.000,159.343,67.098,12341.010986
2 Jan 2000 21:23:09.000,159.312,67.318,12334.647641
2 Jan 2000 21:23:19.000,159.281,67.538,12328.344060
2 Jan 2000 21:23:29.000,159.248,67.758,12322.100368
2 Jan 2000 21:23:39.000,159.215,67.978,12315.916685
2 Jan 2000 21:23:49.000,159.180,68.199,12309.793133
2 Jan 2000 21:23:59.000,159.144,68.419,12303.729833
2 Jan 2000 21:24:09.000,159.107,68.640,12297.726903
2 Jan 2000 21:24:19.000,159.068,68.860,12291.784461
2 Jan 2000 21:24:29.000,159.028,69.081,12285.902623
2 Jan 2000 21:24:39.000,158.987,69.302,12280.081505
2 Jan 2000 21:24:49.000,158.944,69.523,12274.321221
2 Jan 2000 21:24:59.000,158.900,69.744,12268.621884
2 Jan 2000 21:25:09.000,158.854,69.965,12262.983606
2 Jan 2000 21:25:19.000,158.807,70.187,12257.406497
2 Jan 2000 21:25:29.000,158.758,70.408,12251.890666
2 Jan 2000 21:25:39.000,158.707,70.629,12246.436223
2 Jan 2000 21:25:49.000,158.655,70.851,12241.043272
2 Jan 2000 21:25:59.000,158.601,71.072,12235.711922
2 Jan 2000 21:26:09.000,158.545,71.294,12230.442274
2 Jan 2000 21:26:19.000,158.487,71.516,12225.234434
2 Jan 2000 21:26:29.000,158.427,71.737,12220.088502
2 Jan 2000 21:26:39.000,158.365,71.959,12215.004579
2 Jan 2000 21:26:49.000,158.301,72.181,12209.982765
2 Jan 2000 21:26:59.000,158.234,72.403,12205.023157
2 Jan 2000 21:27:09.000,158.165,72.625,12200.125853
2 Jan 2000 21:27:19.000,158.094,72.847,12195.290946
2 Jan 2000 21:27:29.000,158.020,73.069,12190.518533
2 Jan 2000 21:27:39.000,157.944,73.292,12185.808705
2 Jan 2000 21:27:49.000,157.865,73.514,12181.161553
2 Jan 2000 21:27:59.000,157.782,73.736,12176.577169
2 Jan 2000 21:28:09.000,157.697,73.958,12172.055640
2 Jan 2000 21:28:19.000,157.609,74.181,12167.597053
2 Jan 2000 21:28:29.000,157.518,74.403,12163.201496
2 Jan 2000 21:28:39.000,157.423,74.625,12158.869053
2 Jan 2000 21:28:49.000,157.324,74.848,12154.599806
2 Jan 2000 21:28:59.000,157.222,75.070,12150.393839
2 Jan 2000 21:29:09.000,157.116,75.292,12146.251230
2 Jan 2000 21:29:19.000,157.006,75.515,12142.172061
2 Jan 2000 21:29:29.000,156.892,75.737,12138.156407
2 Jan 2000 21:29:39.000,156.773,75.960,12134.204346
2 Jan 2000 21:29:49.000,156.649,76.182,12130.315953
2 Jan 2000 21:29:59.000,156.521,76.404,12126.491300
2 Jan 2000 21:30:09.000,156.388,76.627,12122.730461
2 Jan 2000 21:30:19.000,156.249,76.849,12119.033505
2 Jan 2000 21:30:29.000,156.104,77.071,12115.400503
2 Jan 2000 21:30:39.000,155.953,77.294,12111.831521
2 Jan 2000 21:30:49.000,155.796,77.516,12108.326627
2 Jan 2000 21:30:59.000,155.633,77.738,12104.885884
2 Jan 2000 21:31:09.000,155.462,77.960,12101.509357
2 Jan 2000 21:31:19.000,155.284,78.182,12098.197107
2 Jan 2000 21:31:29.000,155.098,78.404,12094.949195
2 Jan 2000 21:31:39.000,154.904,78.625,12091.765680
2 Jan 2000 21:31:49.000,154.701,78.847,12088.646620
2 Jan 2000 21:31:59.000,154.488,79.068,12085.592070
2 Jan 2000 21:32:09.000,154.266,79.290,12082.602085
2 Jan 2000 21:32:19.000,154.033,79.511,12079.676719
2 Jan 2000 21:32:29.000,153.789,79.732,12076.816023
2 Jan 2000 21:32:39.000,153.533,79.953,12074.020046
2 Jan 2000 21:32:49.000,153.264,80.173,12071.288839
2 Jan 2000 21:32:59.000,152.982,80.394,12068.622447
2 Jan 2000 21:33:09.000,152.685,80.614,12066.020916
2 Jan 2000 21:33:19.000,152.373,80.834,12063.484290
2 Jan 2000 21:33:29.000,152.044,81.053,12061.012613
2 Jan 2000 21:33:39.000,151.696,81.273,12058.605924
2 Jan 2000 21:33:49.000,151.330,81.492,12056.264264
2 Jan 2000 21:33:59.000,150.943,81.710,12053.987670
2 Jan 2000 21:34:09.000,150.533,81.928,12051.776179
2 Jan 2000 21:34:19.000,150.099,82.146,12049.629826
2 Jan 2000 21:34:29.000,149.639,82.363,12047.548644
2 Jan 2000 21:34:39.000,149.150,82.580,12045.532665
2 Jan 2000 21:34:49.000,148.630,82.796,12043.581920
2 Jan 2000 21:34:59.000,148.077,83.011,12041.696436
2 Jan 2000 21:35:09.000,147.486,83.225,12039.876241
2 Jan 2000 21:35:19.000,146.855,83.439,12038.121361
2 Jan 2000 21:35:29.000,146.180,83.652,12036.431820
2 Jan 2000 21:35:39.000,145.456,83.864,12034.807640
2 Jan 2000 21:35:49.000,144.678,84.075,12033.248842
2 Jan 2000 21:35:59.000,143.841,84.284,12031.755447
2 Jan 2000 21:36:09.000,142.938,84.492,12030.327470
2 Jan 2000 21:36:19.000,141.963,84.699,12028.964930
2 Jan 2000 21:36:29.000,140.907,84.904,12027.667840
2 Jan 2000 21:36:39.000,139.760,85.106,12026.436213
2 Jan 2000 21:36:49.000,138.512,85.307,12025.270062
2 Jan 2000 21:36:59.000,137.151,85.505,12024.169396
2 Jan 2000 21:37:09.000,135.663,85.700,12023.134224
2 Jan 2000 21:37:19.000,134.032,85.892,12022.164552
2 Jan 2000 21:37:29.000,132.240,86.080,12021.260386
2 Jan 2000 21:37:39.000,130.267,86.264,12020.421729
2 Jan 2000 21:37:49.000,128.089,86.443,12019.648584
2 Jan 2000 21:37:59.000,125.683,86.616,12018.940952
2 Jan 2000 21:38:09.000,123.019,86.782,12018.298830
2 Jan 2000 21:38:19.000,120.070,86.940,12017.722217
2 Jan 2000 21:38:29.000,116.807,87.089,12017.211109
2 Jan 2000 21:38:39.000,113.201,87.228,12016.765499
2 Jan 2000 21:38:49.000,109.231,87.354,12016.385380
2 Jan 2000 21:38:59.000,104.885,87.466,12016.070745
2 Jan 2000 21:39:09.000,100.165,87.562,12015.821581
2 Jan 2000 21:39:19.000,95.095,87.640,12015.637877
2 Jan 2000 21:39:29.000,89.722,87.698,12015.519620
2 Jan 2000 21:39:39.000,84.124,87.735,12015.466795
