cemeouhf_ael/Place-CEMID-Sensor-Sensor1-To-Satellite-POLMEO21_AER.csv

"Time (UTCG)","Azimuth (deg)","Elevation (deg)","Range (km)"
1 Jan 2000 13:39:48.915,316.448,41.829,13518.577914
1 Jan 2000 13:39:58.000,316.208,41.800,13520.361404
1 Jan 2000 13:40:08.000,315.945,41.768,13522.384247
1 Jan 2000 13:40:18.000,315.683,41.734,13524.469548
1 Jan 2000 13:40:28.000,315.421,41.700,13526.617256
1 Jan 2000 13:40:38.000,315.159,41.664,13528.827316
1 Jan 2000 13:40:48.000,314.897,41.628,13531.099675
1 Jan 2000 13:40:58.000,314.636,41.590,13533.434275
1 Jan 2000 13:41:08.000,314.376,41.552,13535.831059
1 Jan 2000 13:41:18.000,314.116,41.513,13538.289967
1 Jan 2000 13:41:28.000,313.856,41.473,13540.810940
1 Jan 2000 13:41:38.000,313.597,41.431,13543.393915
1 Jan 2000 13:41:48.000,313.338,41.389,13546.038829
1 Jan 2000 13:41:58.000,313.080,41.346,13548.745619
1 Jan 2000 13:42:08.000,312.823,41.302,13551.514217
1 Jan 2000 13:42:18.000,312.565,41.257,13554.344557
1 Jan 2000 13:42:28.000,312.309,41.211,13557.236570
1 Jan 2000 13:42:38.000,312.053,41.165,13560.190187
1 Jan 2000 13:42:48.000,311.797,41.117,13563.205337
1 Jan 2000 13:42:58.000,311.542,41.068,13566.281946
1 Jan 2000 13:43:08.000,311.288,41.019,13569.419941
1 Jan 2000 13:43:18.000,311.034,40.968,13572.619248
1 Jan 2000 13:43:28.000,310.781,40.917,13575.879789
1 Jan 2000 13:43:38.000,310.528,40.865,13579.201487
1 Jan 2000 13:43:48.000,310.276,40.812,13582.584264
1 Jan 2000 13:43:58.000,310.024,40.758,13586.028038
1 Jan 2000 13:44:08.000,309.773,40.703,13589.532729
1 Jan 2000 13:44:18.000,309.523,40.647,13593.098254
1 Jan 2000 13:44:28.000,309.273,40.591,13596.724528
1 Jan 2000 13:44:38.000,309.024,40.533,13600.411466
1 Jan 2000 13:44:48.000,308.776,40.475,13604.158982
1 Jan 2000 13:44:58.000,308.528,40.416,13607.966988
1 Jan 2000 13:45:08.000,308.281,40.356,13611.835395
1 Jan 2000 13:45:18.000,308.035,40.295,13615.764113
1 Jan 2000 13:45:28.000,307.789,40.233,13619.753049
1 Jan 2000 13:45:38.000,307.544,40.170,13623.802112
1 Jan 2000 13:45:48.000,307.300,40.107,13627.911207
1 Jan 2000 13:45:58.000,307.056,40.043,13632.080239
1 Jan 2000 13:46:08.000,306.813,39.977,13636.309111
1 Jan 2000 13:46:18.000,306.571,39.912,13640.597727
1 Jan 2000 13:46:28.000,306.329,39.845,13644.945987
1 Jan 2000 13:46:38.000,306.088,39.777,13649.353792
1 Jan 2000 13:46:48.000,305.848,39.709,13653.821039
1 Jan 2000 13:46:58.000,305.608,39.640,13658.347628
1 Jan 2000 13:47:08.000,305.370,39.570,13662.933454
1 Jan 2000 13:47:18.000,305.132,39.499,13667.578412
1 Jan 2000 13:47:28.000,304.895,39.427,13672.282398
1 Jan 2000 13:47:38.000,304.658,39.355,13677.045303
1 Jan 2000 13:47:48.000,304.422,39.282,13681.867020
1 Jan 2000 13:47:58.000,304.187,39.208,13686.747439
1 Jan 2000 13:48:08.000,303.953,39.133,13691.686451
1 Jan 2000 13:48:18.000,303.720,39.058,13696.683944
1 Jan 2000 13:48:28.000,303.487,38.982,13701.739804
1 Jan 2000 13:48:38.000,303.255,38.905,13706.853919
1 Jan 2000 13:48:48.000,303.024,38.827,13712.026174
1 Jan 2000 13:48:58.000,302.794,38.749,13717.256452
1 Jan 2000 13:49:08.000,302.564,38.669,13722.544637
1 Jan 2000 13:49:18.000,302.336,38.589,13727.890611
1 Jan 2000 13:49:28.000,302.108,38.509,13733.294254
1 Jan 2000 13:49:38.000,301.880,38.427,13738.755447
1 Jan 2000 13:49:48.000,301.654,38.345,13744.274067
1 Jan 2000 13:49:58.000,301.429,38.263,13749.849994
1 Jan 2000 13:50:08.000,301.204,38.179,13755.483104
1 Jan 2000 13:50:18.000,300.980,38.095,13761.173271
1 Jan 2000 13:50:28.000,300.757,38.010,13766.920372
1 Jan 2000 13:50:38.000,300.534,37.924,13772.724279
1 Jan 2000 13:50:48.000,300.313,37.838,13778.584865
1 Jan 2000 13:50:58.000,300.092,37.751,13784.502001
1 Jan 2000 13:51:08.000,299.872,37.664,13790.475560
1 Jan 2000 13:51:18.000,299.653,37.575,13796.505409
1 Jan 2000 13:51:28.000,299.435,37.486,13802.591418
1 Jan 2000 13:51:38.000,299.218,37.397,13808.733454
1 Jan 2000 13:51:48.000,299.001,37.306,13814.931384
1 Jan 2000 13:51:58.000,298.786,37.215,13821.185074
1 Jan 2000 13:52:08.000,298.571,37.124,13827.494389
1 Jan 2000 13:52:18.000,298.357,37.032,13833.859192
1 Jan 2000 13:52:28.000,298.143,36.939,13840.279347
1 Jan 2000 13:52:38.000,297.931,36.845,13846.754716
1 Jan 2000 13:52:48.000,297.719,36.751,13853.285159
1 Jan 2000 13:52:58.000,297.509,36.657,13859.870537
1 Jan 2000 13:53:08.000,297.299,36.561,13866.510710
1 Jan 2000 13:53:18.000,297.090,36.465,13873.205536
1 Jan 2000 13:53:28.000,296.882,36.369,13879.954872
1 Jan 2000 13:53:38.000,296.674,36.272,13886.758575
1 Jan 2000 13:53:48.000,296.468,36.174,13893.616501
1 Jan 2000 13:53:58.000,296.262,36.076,13900.528506
1 Jan 2000 13:54:08.000,296.057,35.977,13907.494442
1 Jan 2000 13:54:18.000,295.853,35.877,13914.514164
1 Jan 2000 13:54:28.000,295.650,35.777,13921.587523
1 Jan 2000 13:54:38.000,295.448,35.677,13928.714373
1 Jan 2000 13:54:48.000,295.246,35.576,13935.894562
1 Jan 2000 13:54:58.000,295.046,35.474,13943.127942
1 Jan 2000 13:55:08.000,294.846,35.372,13950.414362
1 Jan 2000 13:55:18.000,294.647,35.269,13957.753671
1 Jan 2000 13:55:28.000,294.449,35.166,13965.145715
1 Jan 2000 13:55:38.000,294.252,35.062,13972.590341
1 Jan 2000 13:55:43.909,294.135,35.000,13977.014367

Interval Statistics
"Min Elevation",1 Jan 2000 13:55:43.909,294.135,35.000,13977.014367
"Max Elevation",1 Jan 2000 13:39:48.915,316.448,41.829,13518.577914
"Mean Elevation",,,38.980,
"Min Range",1 Jan 2000 13:39:48.915,316.448,41.829,13518.577914
"Max Range",1 Jan 2000 13:55:43.909,294.135,35.000,13977.014367
"Mean Range",,,,13704.796818

"Time (UTCG)","Azimuth (deg)","Elevation (deg)","Range (km)"
1 Jan 2000 19:22:46.785,59.178,54.924,12804.941643
1 Jan 2000 19:22:56.000,58.843,54.952,12803.717657
1 Jan 2000 19:23:06.000,58.479,54.980,12802.453088
1 Jan 2000 19:23:16.000,58.115,55.008,12801.254771
1 Jan 2000 19:23:26.000,57.749,55.034,12800.122736
1 Jan 2000 19:23:36.000,57.383,55.058,12799.057012
1 Jan 2000 19:23:46.000,57.017,55.081,12798.057626
1 Jan 2000 19:23:56.000,56.650,55.103,12797.124604
1 Jan 2000 19:24:06.000,56.283,55.123,12796.257970
1 Jan 2000 19:24:16.000,55.915,55.142,12795.457745
1 Jan 2000 19:24:26.000,55.547,55.159,12794.723951
1 Jan 2000 19:24:36.000,55.179,55.175,12794.056607
1 Jan 2000 19:24:46.000,54.810,55.189,12793.455730
1 Jan 2000 19:24:56.000,54.441,55.202,12792.921337
1 Jan 2000 19:25:06.000,54.072,55.213,12792.453442
1 Jan 2000 19:25:16.000,53.702,55.223,12792.052057
1 Jan 2000 19:25:26.000,53.333,55.232,12791.717194
1 Jan 2000 19:25:36.000,52.963,55.239,12791.448862
1 Jan 2000 19:25:46.000,52.593,55.244,12791.247070
1 Jan 2000 19:25:56.000,52.223,55.248,12791.111824
1 Jan 2000 19:26:06.000,51.853,55.251,12791.043129
1 Jan 2000 19:26:16.000,51.483,55.252,12791.040987
1 Jan 2000 19:26:26.000,51.113,55.251,12791.105401
1 Jan 2000 19:26:36.000,50.743,55.249,12791.236371
1 Jan 2000 19:26:46.000,50.374,55.246,12791.433895
1 Jan 2000 19:26:56.000,50.004,55.241,12791.697971
1 Jan 2000 19:27:06.000,49.634,55.234,12792.028592
1 Jan 2000 19:27:16.000,49.265,55.227,12792.425754
1 Jan 2000 19:27:26.000,48.896,55.217,12792.889447
1 Jan 2000 19:27:36.000,48.527,55.206,12793.419663
1 Jan 2000 19:27:46.000,48.159,55.194,12794.016391
1 Jan 2000 19:27:56.000,47.790,55.180,12794.679617
1 Jan 2000 19:28:06.000,47.423,55.165,12795.409328
1 Jan 2000 19:28:16.000,47.055,55.148,12796.205508
1 Jan 2000 19:28:26.000,46.688,55.130,12797.068139
1 Jan 2000 19:28:36.000,46.322,55.111,12797.997202
1 Jan 2000 19:28:46.000,45.956,55.089,12798.992677
1 Jan 2000 19:28:56.000,45.590,55.067,12800.054541
1 Jan 2000 19:29:06.000,45.226,55.043,12801.182771
1 Jan 2000 19:29:16.000,44.861,55.017,12802.377341
1 Jan 2000 19:29:26.000,44.498,54.991,12803.638224
1 Jan 2000 19:29:36.000,44.135,54.962,12804.965393
1 Jan 2000 19:29:46.000,43.772,54.933,12806.358816
1 Jan 2000 19:29:56.000,43.411,54.901,12807.818462
1 Jan 2000 19:30:06.000,43.050,54.869,12809.344298
1 Jan 2000 19:30:16.000,42.690,54.835,12810.936289
1 Jan 2000 19:30:26.000,42.331,54.799,12812.594399
1 Jan 2000 19:30:36.000,41.973,54.762,12814.318591
1 Jan 2000 19:30:46.000,41.615,54.724,12816.108823
1 Jan 2000 19:30:56.000,41.259,54.684,12817.965057
1 Jan 2000 19:31:06.000,40.903,54.643,12819.887248
1 Jan 2000 19:31:16.000,40.549,54.601,12821.875354
1 Jan 2000 19:31:26.000,40.195,54.557,12823.929327
1 Jan 2000 19:31:36.000,39.842,54.512,12826.049122
1 Jan 2000 19:31:46.000,39.491,54.465,12828.234690
1 Jan 2000 19:31:56.000,39.140,54.417,12830.485980
1 Jan 2000 19:32:06.000,38.791,54.368,12832.802941
1 Jan 2000 19:32:16.000,38.442,54.317,12835.185519
1 Jan 2000 19:32:26.000,38.095,54.265,12837.633659
1 Jan 2000 19:32:36.000,37.749,54.212,12840.147307
1 Jan 2000 19:32:46.000,37.405,54.157,12842.726402
1 Jan 2000 19:32:56.000,37.061,54.101,12845.370887
1 Jan 2000 19:33:06.000,36.719,54.044,12848.080701
1 Jan 2000 19:33:16.000,36.377,53.985,12850.855781
1 Jan 2000 19:33:26.000,36.038,53.925,12853.696064
1 Jan 2000 19:33:36.000,35.699,53.864,12856.601484
1 Jan 2000 19:33:46.000,35.362,53.801,12859.571974
1 Jan 2000 19:33:56.000,35.026,53.738,12862.607467
1 Jan 2000 19:34:06.000,34.692,53.673,12865.707893
1 Jan 2000 19:34:16.000,34.358,53.606,12868.873181
1 Jan 2000 19:34:26.000,34.027,53.539,12872.103258
1 Jan 2000 19:34:36.000,33.696,53.470,12875.398050
1 Jan 2000 19:34:46.000,33.368,53.400,12878.757482
1 Jan 2000 19:34:56.000,33.040,53.329,12882.181477
1 Jan 2000 19:35:06.000,32.714,53.256,12885.669956
1 Jan 2000 19:35:16.000,32.390,53.183,12889.222841
1 Jan 2000 19:35:26.000,32.067,53.108,12892.840049
1 Jan 2000 19:35:36.000,31.745,53.032,12896.521498
1 Jan 2000 19:35:46.000,31.425,52.955,12900.267104
1 Jan 2000 19:35:56.000,31.107,52.876,12904.076783
1 Jan 2000 19:36:06.000,30.790,52.797,12907.950446
1 Jan 2000 19:36:16.000,30.475,52.716,12911.888007
1 Jan 2000 19:36:26.000,30.161,52.634,12915.889374
1 Jan 2000 19:36:36.000,29.849,52.552,12919.954459
1 Jan 2000 19:36:46.000,29.538,52.467,12924.083168
1 Jan 2000 19:36:56.000,29.229,52.382,12928.275407
1 Jan 2000 19:37:06.000,28.922,52.296,12932.531083
1 Jan 2000 19:37:16.000,28.616,52.209,12936.850097
1 Jan 2000 19:37:26.000,28.312,52.120,12941.232354
1 Jan 2000 19:37:36.000,28.009,52.031,12945.677754
1 Jan 2000 19:37:46.000,27.709,51.940,12950.186196
1 Jan 2000 19:37:56.000,27.409,51.849,12954.757579
1 Jan 2000 19:38:06.000,27.112,51.756,12959.391801
1 Jan 2000 19:38:16.000,26.816,51.662,12964.088756
1 Jan 2000 19:38:26.000,26.522,51.568,12968.848340
1 Jan 2000 19:38:36.000,26.229,51.472,12973.670445
1 Jan 2000 19:38:46.000,25.939,51.375,12978.554964
1 Jan 2000 19:38:56.000,25.649,51.278,12983.501788
1 Jan 2000 19:39:06.000,25.362,51.179,12988.510805
1 Jan 2000 19:39:16.000,25.076,51.079,12993.581905
1 Jan 2000 19:39:26.000,24.792,50.979,12998.714973
1 Jan 2000 19:39:36.000,24.510,50.877,13003.909896
1 Jan 2000 19:39:46.000,24.229,50.775,13009.166558
1 Jan 2000 19:39:56.000,23.950,50.671,13014.484843
1 Jan 2000 19:40:06.000,23.673,50.567,13019.864632
1 Jan 2000 19:40:16.000,23.398,50.462,13025.305806
1 Jan 2000 19:40:26.000,23.124,50.356,13030.808246
1 Jan 2000 19:40:36.000,22.852,50.249,13036.371829
1 Jan 2000 19:40:46.000,22.581,50.141,13041.996433
1 Jan 2000 19:40:56.000,22.313,50.032,13047.681934
1 Jan 2000 19:41:06.000,22.046,49.922,13053.428207
1 Jan 2000 19:41:16.000,21.780,49.812,13059.235125
1 Jan 2000 19:41:26.000,21.517,49.700,13065.102563
1 Jan 2000 19:41:36.000,21.255,49.588,13071.030390
1 Jan 2000 19:41:46.000,20.995,49.475,13077.018479
1 Jan 2000 19:41:56.000,20.736,49.361,13083.066697
1 Jan 2000 19:42:06.000,20.480,49.247,13089.174914
1 Jan 2000 19:42:16.000,20.225,49.131,13095.342996
1 Jan 2000 19:42:26.000,19.971,49.015,13101.570809
1 Jan 2000 19:42:36.000,19.720,48.898,13107.858219
1 Jan 2000 19:42:46.000,19.470,48.781,13114.205090
1 Jan 2000 19:42:56.000,19.221,48.662,13120.611284
1 Jan 2000 19:43:06.000,18.975,48.543,13127.076663
1 Jan 2000 19:43:16.000,18.730,48.423,13133.601088
1 Jan 2000 19:43:26.000,18.487,48.302,13140.184418
1 Jan 2000 19:43:36.000,18.245,48.181,13146.826514
1 Jan 2000 19:43:46.000,18.005,48.059,13153.527231
1 Jan 2000 19:43:56.000,17.767,47.936,13160.286428
1 Jan 2000 19:44:06.000,17.530,47.812,13167.103959
1 Jan 2000 19:44:16.000,17.295,47.688,13173.979680
1 Jan 2000 19:44:26.000,17.062,47.563,13180.913444
1 Jan 2000 19:44:36.000,16.830,47.438,13187.905104
1 Jan 2000 19:44:46.000,16.600,47.311,13194.954513
1 Jan 2000 19:44:56.000,16.372,47.185,13202.061520
1 Jan 2000 19:45:06.000,16.145,47.057,13209.225976
1 Jan 2000 19:45:16.000,15.920,46.929,13216.447731
1 Jan 2000 19:45:26.000,15.696,46.800,13223.726632
1 Jan 2000 19:45:36.000,15.474,46.671,13231.062526
1 Jan 2000 19:45:46.000,15.254,46.541,13238.455260
1 Jan 2000 19:45:56.000,15.035,46.410,13245.904680
1 Jan 2000 19:46:06.000,14.818,46.279,13253.410630
1 Jan 2000 19:46:16.000,14.602,46.147,13260.972953
1 Jan 2000 19:46:26.000,14.388,46.015,13268.591494
1 Jan 2000 19:46:36.000,14.175,45.882,13276.266093
1 Jan 2000 19:46:46.000,13.964,45.749,13283.996592
1 Jan 2000 19:46:56.000,13.755,45.615,13291.782831
1 Jan 2000 19:47:06.000,13.547,45.480,13299.624651
1 Jan 2000 19:47:16.000,13.341,45.345,13307.521889
1 Jan 2000 19:47:26.000,13.136,45.210,13315.474384
1 Jan 2000 19:47:36.000,12.932,45.074,13323.481973
1 Jan 2000 19:47:46.000,12.731,44.937,13331.544492
1 Jan 2000 19:47:56.000,12.530,44.800,13339.661777
1 Jan 2000 19:48:06.000,12.331,44.662,13347.833663
1 Jan 2000 19:48:16.000,12.134,44.524,13356.059984
1 Jan 2000 19:48:26.000,11.938,44.386,13364.340573
1 Jan 2000 19:48:36.000,11.744,44.247,13372.675263
1 Jan 2000 19:48:46.000,11.551,44.107,13381.063887
1 Jan 2000 19:48:56.000,11.359,43.967,13389.506274
1 Jan 2000 19:49:06.000,11.169,43.827,13398.002257
1 Jan 2000 19:49:16.000,10.980,43.686,13406.551664
1 Jan 2000 19:49:26.000,10.793,43.545,13415.154324
1 Jan 2000 19:49:36.000,10.607,43.403,13423.810067
1 Jan 2000 19:49:46.000,10.423,43.261,13432.518721
1 Jan 2000 19:49:56.000,10.239,43.118,13441.280111
1 Jan 2000 19:50:06.000,10.058,42.975,13450.094066
1 Jan 2000 19:50:16.000,9.877,42.832,13458.960410
1 Jan 2000 19:50:26.000,9.699,42.688,13467.878969
1 Jan 2000 19:50:36.000,9.521,42.544,13476.849568
1 Jan 2000 19:50:46.000,9.345,42.400,13485.872031
1 Jan 2000 19:50:56.000,9.170,42.255,13494.946182
1 Jan 2000 19:51:06.000,8.996,42.109,13504.071842
1 Jan 2000 19:51:16.000,8.824,41.964,13513.248836
1 Jan 2000 19:51:26.000,8.653,41.818,13522.476983
1 Jan 2000 19:51:36.000,8.484,41.671,13531.756106
1 Jan 2000 19:51:46.000,8.315,41.525,13541.086026
1 Jan 2000 19:51:56.000,8.148,41.378,13550.466561
1 Jan 2000 19:52:06.000,7.982,41.230,13559.897533
1 Jan 2000 19:52:16.000,7.818,41.082,13569.378759
1 Jan 2000 19:52:26.000,7.655,40.934,13578.910059
1 Jan 2000 19:52:36.000,7.493,40.786,13588.491251
1 Jan 2000 19:52:46.000,7.332,40.637,13598.122151
1 Jan 2000 19:52:56.000,7.173,40.488,13607.802579
1 Jan 2000 19:53:06.000,7.015,40.339,13617.532349
1 Jan 2000 19:53:16.000,6.858,40.190,13627.311278
1 Jan 2000 19:53:26.000,6.702,40.040,13637.139181
1 Jan 2000 19:53:36.000,6.547,39.890,13647.015875
1 Jan 2000 19:53:46.000,6.394,39.739,13656.941174
1 Jan 2000 19:53:56.000,6.242,39.589,13666.914891
1 Jan 2000 19:54:06.000,6.091,39.438,13676.936842
1 Jan 2000 19:54:16.000,5.941,39.286,13687.006840
1 Jan 2000 19:54:26.000,5.792,39.135,13697.124698
1 Jan 2000 19:54:36.000,5.644,38.983,13707.290228
1 Jan 2000 19:54:46.000,5.498,38.831,13717.503244
1 Jan 2000 19:54:56.000,5.353,38.679,13727.763556
1 Jan 2000 19:55:06.000,5.209,38.527,13738.070977
1 Jan 2000 19:55:16.000,5.066,38.374,13748.425318
1 Jan 2000 19:55:26.000,4.924,38.221,13758.826391
1 Jan 2000 19:55:36.000,4.783,38.068,13769.274004
1 Jan 2000 19:55:46.000,4.643,37.914,13779.767970
1 Jan 2000 19:55:56.000,4.505,37.761,13790.308097
1 Jan 2000 19:56:06.000,4.367,37.607,13800.894196
1 Jan 2000 19:56:16.000,4.231,37.453,13811.526076
1 Jan 2000 19:56:26.000,4.096,37.299,13822.203545
1 Jan 2000 19:56:36.000,3.961,37.145,13832.926413
1 Jan 2000 19:56:46.000,3.828,36.990,13843.694487
1 Jan 2000 19:56:56.000,3.696,36.835,13854.507577
1 Jan 2000 19:57:06.000,3.565,36.680,13865.365490
1 Jan 2000 19:57:16.000,3.434,36.525,13876.268034
1 Jan 2000 19:57:26.000,3.305,36.370,13887.215016
1 Jan 2000 19:57:36.000,3.177,36.214,13898.206243
1 Jan 2000 19:57:46.000,3.050,36.059,13909.241522
1 Jan 2000 19:57:56.000,2.924,35.903,13920.320661
1 Jan 2000 19:58:06.000,2.799,35.747,13931.443465
1 Jan 2000 19:58:16.000,2.675,35.591,13942.609740
1 Jan 2000 19:58:26.000,2.551,35.435,13953.819294
1 Jan 2000 19:58:36.000,2.429,35.278,13965.071931
1 Jan 2000 19:58:46.000,2.308,35.122,13976.367457
1 Jan 2000 19:58:53.716,2.215,35.001,13985.112627

Interval Statistics
"Min Elevation",1 Jan 2000 19:58:53.716,2.215,35.001,13985.112627
"Max Elevation",1 Jan 2000 19:26:17.823,51.416,55.252,12791.047771
"Mean Elevation",,,48.356,
"Min Range",1 Jan 2000 19:26:11.322,51.656,55.251,12791.033704
"Max Range",1 Jan 2000 19:58:53.716,2.215,35.001,13985.112627
"Mean Range",,,,13163.941966

"Time (UTCG)","Azimuth (deg)","Elevation (deg)","Range (km)"
2 Jan 2000 10:11:03.418,355.447,57.357,12702.049823
2 Jan 2000 10:11:13.000,355.353,57.549,12693.923951
2 Jan 2000 10:11:23.000,355.252,57.750,12685.494830
2 Jan 2000 10:11:33.000,355.150,57.951,12677.118136
2 Jan 2000 10:11:43.000,355.046,58.151,12668.794048
2 Jan 2000 10:11:53.000,354.940,58.352,12660.522746
2 Jan 2000 10:12:03.000,354.832,58.553,12652.304406
2 Jan 2000 10:12:13.000,354.722,58.753,12644.139206
2 Jan 2000 10:12:23.000,354.610,58.954,12636.027323
2 Jan 2000 10:12:33.000,354.496,59.155,12627.968932
2 Jan 2000 10:12:43.000,354.380,59.356,12619.964208
2 Jan 2000 10:12:53.000,354.262,59.556,12612.013327
2 Jan 2000 10:13:03.000,354.142,59.757,12604.116462
2 Jan 2000 10:13:13.000,354.020,59.958,12596.273786
2 Jan 2000 10:13:23.000,353.896,60.158,12588.485472
2 Jan 2000 10:13:33.000,353.769,60.359,12580.751691
2 Jan 2000 10:13:43.000,353.640,60.560,12573.072616
2 Jan 2000 10:13:53.000,353.509,60.760,12565.448415
2 Jan 2000 10:14:03.000,353.375,60.961,12557.879259
2 Jan 2000 10:14:13.000,353.239,61.161,12550.365316
2 Jan 2000 10:14:23.000,353.100,61.361,12542.906755
2 Jan 2000 10:14:33.000,352.959,61.562,12535.503743
2 Jan 2000 10:14:43.000,352.815,61.762,12528.156447
2 Jan 2000 10:14:53.000,352.669,61.962,12520.865031
2 Jan 2000 10:15:03.000,352.520,62.162,12513.629662
2 Jan 2000 10:15:13.000,352.368,62.362,12506.450503
2 Jan 2000 10:15:23.000,352.213,62.562,12499.327717
2 Jan 2000 10:15:33.000,352.056,62.761,12492.261468
2 Jan 2000 10:15:43.000,351.895,62.961,12485.251916
2 Jan 2000 10:15:53.000,351.732,63.160,12478.299222
2 Jan 2000 10:16:03.000,351.565,63.360,12471.403547
2 Jan 2000 10:16:13.000,351.396,63.559,12464.565049
2 Jan 2000 10:16:23.000,351.223,63.758,12457.783886
2 Jan 2000 10:16:33.000,351.047,63.957,12451.060216
2 Jan 2000 10:16:43.000,350.867,64.155,12444.394195
2 Jan 2000 10:16:53.000,350.684,64.354,12437.785978
2 Jan 2000 10:17:03.000,350.498,64.552,12431.235720
2 Jan 2000 10:17:13.000,350.308,64.750,12424.743574
2 Jan 2000 10:17:23.000,350.115,64.948,12418.309693
2 Jan 2000 10:17:33.000,349.917,65.146,12411.934229
2 Jan 2000 10:17:43.000,349.716,65.343,12405.617332
2 Jan 2000 10:17:53.000,349.511,65.540,12399.359151
2 Jan 2000 10:18:03.000,349.303,65.737,12393.159836
2 Jan 2000 10:18:13.000,349.090,65.934,12387.019534
2 Jan 2000 10:18:23.000,348.872,66.130,12380.938391
2 Jan 2000 10:18:33.000,348.651,66.326,12374.916554
2 Jan 2000 10:18:43.000,348.425,66.522,12368.954167
2 Jan 2000 10:18:53.000,348.195,66.718,12363.051373
2 Jan 2000 10:19:03.000,347.960,66.913,12357.208315
2 Jan 2000 10:19:13.000,347.721,67.107,12351.425135
2 Jan 2000 10:19:23.000,347.476,67.302,12345.701973
2 Jan 2000 10:19:33.000,347.227,67.496,12340.038967
2 Jan 2000 10:19:43.000,346.973,67.689,12334.436257
2 Jan 2000 10:19:53.000,346.713,67.882,12328.893978
2 Jan 2000 10:20:03.000,346.449,68.075,12323.412268
2 Jan 2000 10:20:13.000,346.179,68.268,12317.991262
2 Jan 2000 10:20:23.000,345.903,68.459,12312.631091
2 Jan 2000 10:20:33.000,345.622,68.651,12307.331891
2 Jan 2000 10:20:43.000,345.335,68.842,12302.093790
2 Jan 2000 10:20:53.000,345.042,69.032,12296.916921
2 Jan 2000 10:21:03.000,344.743,69.222,12291.801412
2 Jan 2000 10:21:13.000,344.438,69.411,12286.747391
2 Jan 2000 10:21:23.000,344.126,69.600,12281.754984
2 Jan 2000 10:21:33.000,343.808,69.788,12276.824318
2 Jan 2000 10:21:43.000,343.483,69.975,12271.955516
2 Jan 2000 10:21:53.000,343.151,70.162,12267.148701
2 Jan 2000 10:22:03.000,342.813,70.348,12262.403995
2 Jan 2000 10:22:13.000,342.467,70.533,12257.721520
2 Jan 2000 10:22:23.000,342.113,70.718,12253.101394
2 Jan 2000 10:22:33.000,341.752,70.902,12248.543735
2 Jan 2000 10:22:43.000,341.384,71.085,12244.048660
2 Jan 2000 10:22:53.000,341.007,71.268,12239.616285
2 Jan 2000 10:23:03.000,340.622,71.449,12235.246724
2 Jan 2000 10:23:13.000,340.229,71.630,12230.940089
2 Jan 2000 10:23:23.000,339.827,71.809,12226.696494
2 Jan 2000 10:23:33.000,339.417,71.988,12222.516048
2 Jan 2000 10:23:43.000,338.997,72.166,12218.398859
2 Jan 2000 10:23:53.000,338.569,72.343,12214.345037
2 Jan 2000 10:24:03.000,338.130,72.519,12210.354686
2 Jan 2000 10:24:13.000,337.683,72.693,12206.427913
2 Jan 2000 10:24:23.000,337.225,72.867,12202.564821
2 Jan 2000 10:24:33.000,336.757,73.039,12198.765513
2 Jan 2000 10:24:43.000,336.279,73.211,12195.030088
2 Jan 2000 10:24:53.000,335.790,73.381,12191.358647
2 Jan 2000 10:25:03.000,335.291,73.549,12187.751289
2 Jan 2000 10:25:13.000,334.780,73.717,12184.208109
2 Jan 2000 10:25:23.000,334.258,73.883,12180.729204
2 Jan 2000 10:25:33.000,333.724,74.048,12177.314667
2 Jan 2000 10:25:43.000,333.178,74.211,12173.964591
2 Jan 2000 10:25:53.000,332.621,74.372,12170.679067
2 Jan 2000 10:26:03.000,332.050,74.532,12167.458185
2 Jan 2000 10:26:13.000,331.468,74.691,12164.302033
2 Jan 2000 10:26:23.000,330.872,74.847,12161.210698
2 Jan 2000 10:26:33.000,330.263,75.002,12158.184266
2 Jan 2000 10:26:43.000,329.640,75.156,12155.222821
2 Jan 2000 10:26:53.000,329.004,75.307,12152.326444
2 Jan 2000 10:27:03.000,328.354,75.456,12149.495217
2 Jan 2000 10:27:13.000,327.690,75.604,12146.729220
2 Jan 2000 10:27:23.000,327.011,75.749,12144.028530
2 Jan 2000 10:27:33.000,326.318,75.892,12141.393225
2 Jan 2000 10:27:43.000,325.610,76.033,12138.823379
2 Jan 2000 10:27:53.000,324.886,76.172,12136.319066
2 Jan 2000 10:28:03.000,324.148,76.308,12133.880358
2 Jan 2000 10:28:13.000,323.394,76.442,12131.507325
2 Jan 2000 10:28:23.000,322.624,76.573,12129.200037
2 Jan 2000 10:28:33.000,321.838,76.702,12126.958561
2 Jan 2000 10:28:43.000,321.037,76.828,12124.782963
2 Jan 2000 10:28:53.000,320.219,76.952,12122.673308
2 Jan 2000 10:29:03.000,319.385,77.072,12120.629658
2 Jan 2000 10:29:13.000,318.535,77.190,12118.652075
2 Jan 2000 10:29:23.000,317.669,77.305,12116.740618
2 Jan 2000 10:29:33.000,316.786,77.416,12114.895346
2 Jan 2000 10:29:43.000,315.887,77.525,12113.116316
2 Jan 2000 10:29:53.000,314.972,77.630,12111.403582
2 Jan 2000 10:30:03.000,314.041,77.732,12109.757198
2 Jan 2000 10:30:13.000,313.093,77.830,12108.177217
2 Jan 2000 10:30:23.000,312.130,77.925,12106.663688
2 Jan 2000 10:30:33.000,311.152,78.016,12105.216660
2 Jan 2000 10:30:43.000,310.158,78.104,12103.836181
2 Jan 2000 10:30:53.000,309.149,78.187,12102.522296
2 Jan 2000 10:31:03.000,308.125,78.267,12101.275049
2 Jan 2000 10:31:13.000,307.087,78.343,12100.094482
2 Jan 2000 10:31:23.000,306.036,78.415,12098.980637
2 Jan 2000 10:31:33.000,304.971,78.483,12097.933553
2 Jan 2000 10:31:43.000,303.893,78.546,12096.953266
2 Jan 2000 10:31:53.000,302.803,78.606,12096.039814
2 Jan 2000 10:32:03.000,301.702,78.661,12095.193231
2 Jan 2000 10:32:13.000,300.590,78.711,12094.413548
2 Jan 2000 10:32:23.000,299.469,78.758,12093.700798
2 Jan 2000 10:32:33.000,298.337,78.799,12093.055010
2 Jan 2000 10:32:43.000,297.198,78.836,12092.476212
2 Jan 2000 10:32:53.000,296.051,78.869,12091.964430
2 Jan 2000 10:33:03.000,294.898,78.897,12091.519688
2 Jan 2000 10:33:13.000,293.739,78.920,12091.142010
2 Jan 2000 10:33:23.000,292.575,78.938,12090.831417
2 Jan 2000 10:33:33.000,291.408,78.952,12090.587928
2 Jan 2000 10:33:43.000,290.239,78.961,12090.411562
2 Jan 2000 10:33:53.000,289.067,78.965,12090.302336
2 Jan 2000 10:34:03.000,287.896,78.964,12090.260263
2 Jan 2000 10:34:13.000,286.724,78.958,12090.285357
2 Jan 2000 10:34:23.000,285.555,78.948,12090.377629
2 Jan 2000 10:34:33.000,284.388,78.933,12090.537090
2 Jan 2000 10:34:43.000,283.225,78.913,12090.763747
2 Jan 2000 10:34:53.000,282.066,78.889,12091.057607
2 Jan 2000 10:35:03.000,280.913,78.860,12091.418676
2 Jan 2000 10:35:13.000,279.766,78.826,12091.846955
2 Jan 2000 10:35:23.000,278.627,78.787,12092.342447
2 Jan 2000 10:35:33.000,277.497,78.744,12092.905152
2 Jan 2000 10:35:43.000,276.375,78.697,12093.535068
2 Jan 2000 10:35:53.000,275.264,78.645,12094.232192
2 Jan 2000 10:36:03.000,274.163,78.588,12094.996518
2 Jan 2000 10:36:13.000,273.074,78.528,12095.828041
2 Jan 2000 10:36:23.000,271.997,78.463,12096.726751
2 Jan 2000 10:36:33.000,270.932,78.393,12097.692639
2 Jan 2000 10:36:43.000,269.881,78.320,12098.725693
2 Jan 2000 10:36:53.000,268.844,78.243,12099.825900
2 Jan 2000 10:37:03.000,267.820,78.161,12100.993245
2 Jan 2000 10:37:13.000,266.812,78.076,12102.227712
2 Jan 2000 10:37:23.000,265.818,77.987,12103.529283
2 Jan 2000 10:37:33.000,264.840,77.895,12104.897937
2 Jan 2000 10:37:43.000,263.877,77.798,12106.333653
2 Jan 2000 10:37:53.000,262.930,77.699,12107.836409
2 Jan 2000 10:38:03.000,261.999,77.595,12109.406179
2 Jan 2000 10:38:13.000,261.084,77.489,12111.042937
2 Jan 2000 10:38:23.000,260.185,77.379,12112.746655
2 Jan 2000 10:38:33.000,259.302,77.266,12114.517304
2 Jan 2000 10:38:43.000,258.435,77.150,12116.354853
2 Jan 2000 10:38:53.000,257.585,77.031,12118.259268
2 Jan 2000 10:39:03.000,256.751,76.909,12120.230515
2 Jan 2000 10:39:13.000,255.932,76.784,12122.268558
2 Jan 2000 10:39:23.000,255.130,76.656,12124.373360
2 Jan 2000 10:39:33.000,254.344,76.526,12126.544880
2 Jan 2000 10:39:43.000,253.573,76.393,12128.783079
2 Jan 2000 10:39:53.000,252.818,76.257,12131.087914
2 Jan 2000 10:40:03.000,252.078,76.119,12133.459341
2 Jan 2000 10:40:13.000,251.354,75.979,12135.897313
2 Jan 2000 10:40:23.000,250.644,75.837,12138.401784
2 Jan 2000 10:40:33.000,249.949,75.692,12140.972705
2 Jan 2000 10:40:43.000,249.269,75.545,12143.610026
2 Jan 2000 10:40:53.000,248.603,75.396,12146.313694
2 Jan 2000 10:41:03.000,247.951,75.245,12149.083655
2 Jan 2000 10:41:13.000,247.313,75.092,12151.919856
2 Jan 2000 10:41:23.000,246.689,74.937,12154.822238
2 Jan 2000 10:41:33.000,246.078,74.781,12157.790744
2 Jan 2000 10:41:43.000,245.480,74.622,12160.825313
2 Jan 2000 10:41:53.000,244.895,74.462,12163.925885
2 Jan 2000 10:42:03.000,244.322,74.300,12167.092397
2 Jan 2000 10:42:13.000,243.761,74.137,12170.324783
2 Jan 2000 10:42:23.000,243.213,73.972,12173.622979
2 Jan 2000 10:42:33.000,242.676,73.806,12176.986915
2 Jan 2000 10:42:43.000,242.151,73.638,12180.416525
2 Jan 2000 10:42:53.000,241.637,73.469,12183.911736
2 Jan 2000 10:43:03.000,241.134,73.298,12187.472476
2 Jan 2000 10:43:13.000,240.642,73.126,12191.098673
2 Jan 2000 10:43:23.000,240.160,72.953,12194.790251
2 Jan 2000 10:43:33.000,239.689,72.779,12198.547134
2 Jan 2000 10:43:43.000,239.227,72.603,12202.369242
2 Jan 2000 10:43:53.000,238.776,72.426,12206.256498
2 Jan 2000 10:44:03.000,238.333,72.249,12210.208819
2 Jan 2000 10:44:13.000,237.901,72.070,12214.226123
2 Jan 2000 10:44:23.000,237.477,71.890,12218.308327
2 Jan 2000 10:44:33.000,237.062,71.709,12222.455345
2 Jan 2000 10:44:43.000,236.656,71.527,12226.667090
2 Jan 2000 10:44:53.000,236.258,71.345,12230.943473
2 Jan 2000 10:45:03.000,235.868,71.161,12235.284406
2 Jan 2000 10:45:13.000,235.487,70.977,12239.689796
2 Jan 2000 10:45:23.000,235.113,70.791,12244.159552
2 Jan 2000 10:45:33.000,234.747,70.605,12248.693579
2 Jan 2000 10:45:43.000,234.388,70.419,12253.291782
2 Jan 2000 10:45:53.000,234.037,70.231,12257.954065
2 Jan 2000 10:46:03.000,233.693,70.043,12262.680328
2 Jan 2000 10:46:13.000,233.356,69.854,12267.470472
2 Jan 2000 10:46:23.000,233.025,69.664,12272.324398
2 Jan 2000 10:46:33.000,232.701,69.474,12277.242001
2 Jan 2000 10:46:43.000,232.384,69.283,12282.223179
2 Jan 2000 10:46:53.000,232.072,69.091,12287.267826
2 Jan 2000 10:47:03.000,231.767,68.899,12292.375837
2 Jan 2000 10:47:13.000,231.468,68.706,12297.547103
2 Jan 2000 10:47:23.000,231.175,68.513,12302.781516
2 Jan 2000 10:47:33.000,230.887,68.319,12308.078966
2 Jan 2000 10:47:43.000,230.605,68.125,12313.439340
2 Jan 2000 10:47:53.000,230.328,67.930,12318.862525
2 Jan 2000 10:48:03.000,230.057,67.735,12324.348409
2 Jan 2000 10:48:13.000,229.791,67.539,12329.896874
2 Jan 2000 10:48:23.000,229.530,67.343,12335.507805
2 Jan 2000 10:48:33.000,229.273,67.146,12341.181083
2 Jan 2000 10:48:43.000,229.022,66.950,12346.916589
2 Jan 2000 10:48:53.000,228.775,66.752,12352.714202
2 Jan 2000 10:49:03.000,228.533,66.555,12358.573802
2 Jan 2000 10:49:13.000,228.295,66.356,12364.495264
2 Jan 2000 10:49:23.000,228.061,66.158,12370.478465
2 Jan 2000 10:49:33.000,227.832,65.959,12376.523279
2 Jan 2000 10:49:43.000,227.607,65.760,12382.629580
2 Jan 2000 10:49:53.000,227.386,65.561,12388.797240
2 Jan 2000 10:50:03.000,227.169,65.361,12395.026129
2 Jan 2000 10:50:13.000,226.956,65.161,12401.316119
2 Jan 2000 10:50:23.000,226.747,64.961,12407.667076
2 Jan 2000 10:50:33.000,226.541,64.761,12414.078870
2 Jan 2000 10:50:43.000,226.339,64.560,12420.551366
2 Jan 2000 10:50:53.000,226.141,64.359,12427.084429
2 Jan 2000 10:51:03.000,225.946,64.158,12433.677925
2 Jan 2000 10:51:13.000,225.754,63.956,12440.331715
2 Jan 2000 10:51:23.000,225.566,63.755,12447.045662
2 Jan 2000 10:51:33.000,225.381,63.553,12453.819626
2 Jan 2000 10:51:43.000,225.199,63.351,12460.653468
2 Jan 2000 10:51:53.000,225.020,63.149,12467.547045
2 Jan 2000 10:52:03.000,224.845,62.947,12474.500217
2 Jan 2000 10:52:13.000,224.672,62.744,12481.512838
2 Jan 2000 10:52:23.000,224.502,62.541,12488.584765
2 Jan 2000 10:52:33.000,224.335,62.339,12495.715852
2 Jan 2000 10:52:43.000,224.170,62.136,12502.905952
2 Jan 2000 10:52:53.000,224.009,61.933,12510.154919
2 Jan 2000 10:53:03.000,223.850,61.730,12517.462602
2 Jan 2000 10:53:13.000,223.693,61.526,12524.828854
2 Jan 2000 10:53:23.000,223.540,61.323,12532.253523
2 Jan 2000 10:53:33.000,223.388,61.119,12539.736457
2 Jan 2000 10:53:43.000,223.239,60.916,12547.277505
2 Jan 2000 10:53:53.000,223.093,60.712,12554.876513
2 Jan 2000 10:54:03.000,222.949,60.508,12562.533326
2 Jan 2000 10:54:13.000,222.807,60.305,12570.247789
2 Jan 2000 10:54:23.000,222.667,60.101,12578.019746
2 Jan 2000 10:54:33.000,222.530,59.897,12585.849040
2 Jan 2000 10:54:43.000,222.394,59.693,12593.735512
2 Jan 2000 10:54:53.000,222.261,59.489,12601.679004
2 Jan 2000 10:55:03.000,222.130,59.285,12609.679355
2 Jan 2000 10:55:13.000,222.001,59.081,12617.736406
2 Jan 2000 10:55:23.000,221.874,58.876,12625.849994
2 Jan 2000 10:55:33.000,221.749,58.672,12634.019958
2 Jan 2000 10:55:43.000,221.625,58.468,12642.246133
2 Jan 2000 10:55:53.000,221.504,58.264,12650.528355
2 Jan 2000 10:56:03.000,221.384,58.060,12658.866461
2 Jan 2000 10:56:13.000,221.267,57.855,12667.260284
2 Jan 2000 10:56:23.000,221.151,57.651,12675.709657
2 Jan 2000 10:56:33.000,221.036,57.447,12684.214413
2 Jan 2000 10:56:43.000,220.924,57.243,12692.774384
2 Jan 2000 10:56:53.000,220.813,57.038,12701.389402
2 Jan 2000 10:57:03.000,220.703,56.834,12710.059296
2 Jan 2000 10:57:13.000,220.596,56.630,12718.783897
2 Jan 2000 10:57:23.000,220.490,56.426,12727.563032
2 Jan 2000 10:57:33.000,220.385,56.222,12736.396531
2 Jan 2000 10:57:43.000,220.282,56.018,12745.284220
2 Jan 2000 10:57:53.000,220.180,55.813,12754.225926
2 Jan 2000 10:58:03.000,220.080,55.609,12763.221476
2 Jan 2000 10:58:13.000,219.981,55.405,12772.270695
2 Jan 2000 10:58:23.000,219.884,55.202,12781.373407
2 Jan 2000 10:58:33.000,219.788,54.998,12790.529436
2 Jan 2000 10:58:43.000,219.693,54.794,12799.738606
2 Jan 2000 10:58:53.000,219.600,54.590,12809.000739
2 Jan 2000 10:59:03.000,219.508,54.386,12818.315658
2 Jan 2000 10:59:13.000,219.417,54.183,12827.683183
2 Jan 2000 10:59:23.000,219.328,53.979,12837.103136
2 Jan 2000 10:59:33.000,219.240,53.775,12846.575337
2 Jan 2000 10:59:43.000,219.153,53.572,12856.099605
2 Jan 2000 10:59:53.000,219.067,53.369,12865.675759
2 Jan 2000 11:00:03.000,218.982,53.165,12875.303618
2 Jan 2000 11:00:13.000,218.899,52.962,12884.982999
2 Jan 2000 11:00:23.000,218.816,52.759,12894.713721
2 Jan 2000 11:00:33.000,218.735,52.556,12904.495599
2 Jan 2000 11:00:43.000,218.655,52.353,12914.328449
2 Jan 2000 11:00:53.000,218.576,52.150,12924.212089
2 Jan 2000 11:01:03.000,218.498,51.947,12934.146332
2 Jan 2000 11:01:13.000,218.421,51.745,12944.130993
2 Jan 2000 11:01:23.000,218.345,51.542,12954.165886
2 Jan 2000 11:01:33.000,218.270,51.339,12964.250826
2 Jan 2000 11:01:43.000,218.196,51.137,12974.385624
2 Jan 2000 11:01:53.000,218.122,50.935,12984.570095
2 Jan 2000 11:02:03.000,218.050,50.733,12994.804049
2 Jan 2000 11:02:13.000,217.979,50.531,13005.087300
2 Jan 2000 11:02:23.000,217.909,50.329,13015.419658
2 Jan 2000 11:02:33.000,217.839,50.127,13025.800933
2 Jan 2000 11:02:43.000,217.771,49.925,13036.230938
2 Jan 2000 11:02:53.000,217.703,49.723,13046.709481
2 Jan 2000 11:03:03.000,217.636,49.522,13057.236372
2 Jan 2000 11:03:13.000,217.571,49.321,13067.811421
2 Jan 2000 11:03:23.000,217.505,49.119,13078.434436
2 Jan 2000 11:03:33.000,217.441,48.918,13089.105225
2 Jan 2000 11:03:43.000,217.378,48.717,13099.823598
2 Jan 2000 11:03:53.000,217.315,48.516,13110.589361
2 Jan 2000 11:04:03.000,217.253,48.316,13121.402323
2 Jan 2000 11:04:13.000,217.192,48.115,13132.262289
2 Jan 2000 11:04:23.000,217.131,47.915,13143.169068
2 Jan 2000 11:04:33.000,217.072,47.714,13154.122464
2 Jan 2000 11:04:43.000,217.013,47.514,13165.122285
2 Jan 2000 11:04:53.000,216.955,47.314,13176.168336
2 Jan 2000 11:05:03.000,216.897,47.114,13187.260422
2 Jan 2000 11:05:13.000,216.840,46.915,13198.398349
2 Jan 2000 11:05:23.000,216.784,46.715,13209.581921
2 Jan 2000 11:05:33.000,216.729,46.516,13220.810944
2 Jan 2000 11:05:43.000,216.674,46.316,13232.085221
2 Jan 2000 11:05:53.000,216.620,46.117,13243.404556
2 Jan 2000 11:06:03.000,216.566,45.918,13254.768754
2 Jan 2000 11:06:13.000,216.513,45.719,13266.177617
2 Jan 2000 11:06:23.000,216.461,45.521,13277.630950
2 Jan 2000 11:06:33.000,216.409,45.322,13289.128556
2 Jan 2000 11:06:43.000,216.358,45.124,13300.670236
2 Jan 2000 11:06:53.000,216.308,44.925,13312.255795
2 Jan 2000 11:07:03.000,216.258,44.727,13323.885034
2 Jan 2000 11:07:13.000,216.208,44.530,13335.557756
2 Jan 2000 11:07:23.000,216.160,44.332,13347.273763
2 Jan 2000 11:07:33.000,216.112,44.134,13359.032856
2 Jan 2000 11:07:43.000,216.064,43.937,13370.834839
2 Jan 2000 11:07:53.000,216.017,43.740,13382.679511
2 Jan 2000 11:08:03.000,215.970,43.542,13394.566675
2 Jan 2000 11:08:13.000,215.924,43.346,13406.496132
2 Jan 2000 11:08:23.000,215.879,43.149,13418.467684
2 Jan 2000 11:08:33.000,215.834,42.952,13430.481130
2 Jan 2000 11:08:43.000,215.789,42.756,13442.536273
2 Jan 2000 11:08:53.000,215.745,42.560,13454.632912
2 Jan 2000 11:09:03.000,215.702,42.363,13466.770849
2 Jan 2000 11:09:13.000,215.659,42.168,13478.949884
2 Jan 2000 11:09:23.000,215.616,41.972,13491.169817
2 Jan 2000 11:09:33.000,215.574,41.776,13503.430450
2 Jan 2000 11:09:43.000,215.532,41.581,13515.731582
2 Jan 2000 11:09:53.000,215.491,41.386,13528.073013
2 Jan 2000 11:10:03.000,215.450,41.191,13540.454544
2 Jan 2000 11:10:13.000,215.410,40.996,13552.875975
2 Jan 2000 11:10:23.000,215.370,40.801,13565.337106
2 Jan 2000 11:10:33.000,215.331,40.607,13577.837736
2 Jan 2000 11:10:43.000,215.291,40.412,13590.377666
2 Jan 2000 11:10:53.000,215.253,40.218,13602.956696
2 Jan 2000 11:11:03.000,215.215,40.024,13615.574626
2 Jan 2000 11:11:13.000,215.177,39.831,13628.231255
2 Jan 2000 11:11:23.000,215.139,39.637,13640.926383
2 Jan 2000 11:11:33.000,215.102,39.444,13653.659811
2 Jan 2000 11:11:43.000,215.066,39.250,13666.431337
2 Jan 2000 11:11:53.000,215.029,39.057,13679.240762
2 Jan 2000 11:12:03.000,214.993,38.865,13692.087886
2 Jan 2000 11:12:13.000,214.958,38.672,13704.972509
2 Jan 2000 11:12:23.000,214.923,38.479,13717.894430
2 Jan 2000 11:12:33.000,214.888,38.287,13730.853450
2 Jan 2000 11:12:43.000,214.854,38.095,13743.849368
2 Jan 2000 11:12:53.000,214.819,37.903,13756.881984
2 Jan 2000 11:13:03.000,214.786,37.711,13769.951099
2 Jan 2000 11:13:13.000,214.752,37.520,13783.056512
2 Jan 2000 11:13:23.000,214.719,37.329,13796.198024
2 Jan 2000 11:13:33.000,214.686,37.137,13809.375435
2 Jan 2000 11:13:43.000,214.654,36.946,13822.588545
2 Jan 2000 11:13:53.000,214.622,36.756,13835.837155
2 Jan 2000 11:14:03.000,214.590,36.565,13849.121065
2 Jan 2000 11:14:13.000,214.558,36.375,13862.440075
2 Jan 2000 11:14:23.000,214.527,36.185,13875.793986
2 Jan 2000 11:14:33.000,214.496,35.995,13889.182599
2 Jan 2000 11:14:43.000,214.466,35.805,13902.605715
2 Jan 2000 11:14:53.000,214.435,35.615,13916.063135
2 Jan 2000 11:15:03.000,214.405,35.426,13929.554659
2 Jan 2000 11:15:13.000,214.376,35.237,13943.080089
2 Jan 2000 11:15:23.000,214.346,35.048,13956.639225
2 Jan 2000 11:15:25.478,214.339,35.001,13960.004361

Interval Statistics
"Min Elevation",2 Jan 2000 11:15:25.478,214.339,35.001,13960.004361
"Max Elevation",2 Jan 2000 10:33:56.552,288.651,78.965,12090.279700
"Mean Elevation",,,62.957,
"Min Range",2 Jan 2000 10:34:04.264,287.748,78.964,12090.259726
"Max Range",2 Jan 2000 11:15:25.478,214.339,35.001,13960.004361
"Mean Range",,,,12586.250198

"Time (UTCG)","Azimuth (deg)","Elevation (deg)","Range (km)"
2 Jan 2000 22:23:42.985,200.746,56.402,12727.168229
2 Jan 2000 22:23:52.000,200.921,56.568,12720.005494
2 Jan 2000 22:24:02.000,201.116,56.753,12712.108201
2 Jan 2000 22:24:12.000,201.313,56.937,12704.261952
2 Jan 2000 22:24:22.000,201.512,57.122,12696.466872
2 Jan 2000 22:24:32.000,201.714,57.306,12688.723087
2 Jan 2000 22:24:42.000,201.917,57.490,12681.030721
2 Jan 2000 22:24:52.000,202.122,57.674,12673.389896
2 Jan 2000 22:25:02.000,202.329,57.858,12665.800737
2 Jan 2000 22:25:12.000,202.539,58.041,12658.263364
2 Jan 2000 22:25:22.000,202.751,58.225,12650.777898
2 Jan 2000 22:25:32.000,202.964,58.408,12643.344460
2 Jan 2000 22:25:42.000,203.180,58.591,12635.963170
2 Jan 2000 22:25:52.000,203.399,58.774,12628.634145
2 Jan 2000 22:26:02.000,203.619,58.956,12621.357505
2 Jan 2000 22:26:12.000,203.842,59.139,12614.133365
2 Jan 2000 22:26:22.000,204.068,59.321,12606.961841
2 Jan 2000 22:26:32.000,204.295,59.503,12599.843050
2 Jan 2000 22:26:42.000,204.525,59.685,12592.777106
2 Jan 2000 22:26:52.000,204.758,59.866,12585.764123
2 Jan 2000 22:27:02.000,204.993,60.048,12578.804212
2 Jan 2000 22:27:12.000,205.231,60.229,12571.897487
2 Jan 2000 22:27:22.000,205.471,60.409,12565.044058
2 Jan 2000 22:27:32.000,205.714,60.590,12558.244035
2 Jan 2000 22:27:42.000,205.960,60.770,12551.497528
2 Jan 2000 22:27:52.000,206.209,60.950,12544.804645
2 Jan 2000 22:28:02.000,206.460,61.130,12538.165494
2 Jan 2000 22:28:12.000,206.714,61.309,12531.580181
2 Jan 2000 22:28:22.000,206.971,61.488,12525.048812
2 Jan 2000 22:28:32.000,207.231,61.667,12518.571491
2 Jan 2000 22:28:42.000,207.494,61.845,12512.148323
2 Jan 2000 22:28:52.000,207.760,62.023,12505.779411
2 Jan 2000 22:29:02.000,208.029,62.201,12499.464856
2 Jan 2000 22:29:12.000,208.301,62.378,12493.204759
2 Jan 2000 22:29:22.000,208.577,62.555,12486.999221
2 Jan 2000 22:29:32.000,208.855,62.732,12480.848341
2 Jan 2000 22:29:42.000,209.137,62.908,12474.752216
2 Jan 2000 22:29:52.000,209.422,63.084,12468.710944
2 Jan 2000 22:30:02.000,209.711,63.259,12462.724622
2 Jan 2000 22:30:12.000,210.003,63.434,12456.793343
2 Jan 2000 22:30:22.000,210.299,63.608,12450.917204
2 Jan 2000 22:30:32.000,210.598,63.782,12445.096296
2 Jan 2000 22:30:42.000,210.901,63.956,12439.330712
2 Jan 2000 22:30:52.000,211.208,64.129,12433.620544
2 Jan 2000 22:31:02.000,211.518,64.301,12427.965881
2 Jan 2000 22:31:12.000,211.833,64.474,12422.366813
2 Jan 2000 22:31:22.000,212.151,64.645,12416.823427
2 Jan 2000 22:31:32.000,212.473,64.816,12411.335811
2 Jan 2000 22:31:42.000,212.799,64.987,12405.904051
2 Jan 2000 22:31:52.000,213.129,65.157,12400.528232
2 Jan 2000 22:32:02.000,213.464,65.326,12395.208439
2 Jan 2000 22:32:12.000,213.803,65.495,12389.944752
2 Jan 2000 22:32:22.000,214.146,65.663,12384.737256
2 Jan 2000 22:32:32.000,214.493,65.830,12379.586030
2 Jan 2000 22:32:42.000,214.845,65.997,12374.491154
2 Jan 2000 22:32:52.000,215.202,66.163,12369.452707
2 Jan 2000 22:33:02.000,215.563,66.329,12364.470766
2 Jan 2000 22:33:12.000,215.928,66.494,12359.545408
2 Jan 2000 22:33:22.000,216.299,66.658,12354.676708
2 Jan 2000 22:33:32.000,216.674,66.821,12349.864740
2 Jan 2000 22:33:42.000,217.055,66.984,12345.109577
2 Jan 2000 22:33:52.000,217.440,67.146,12340.411292
2 Jan 2000 22:34:02.000,217.831,67.307,12335.769955
2 Jan 2000 22:34:12.000,218.226,67.467,12331.185637
2 Jan 2000 22:34:22.000,218.627,67.627,12326.658405
2 Jan 2000 22:34:32.000,219.033,67.785,12322.188327
2 Jan 2000 22:34:42.000,219.445,67.943,12317.775470
2 Jan 2000 22:34:52.000,219.862,68.100,12313.419898
2 Jan 2000 22:35:02.000,220.285,68.256,12309.121677
2 Jan 2000 22:35:12.000,220.713,68.411,12304.880868
2 Jan 2000 22:35:22.000,221.148,68.565,12300.697534
2 Jan 2000 22:35:32.000,221.588,68.718,12296.571735
2 Jan 2000 22:35:42.000,222.034,68.870,12292.503530
2 Jan 2000 22:35:52.000,222.486,69.021,12288.492978
2 Jan 2000 22:36:02.000,222.944,69.171,12284.540137
2 Jan 2000 22:36:12.000,223.408,69.320,12280.645060
2 Jan 2000 22:36:22.000,223.879,69.468,12276.807805
2 Jan 2000 22:36:32.000,224.356,69.615,12273.028423
2 Jan 2000 22:36:42.000,224.839,69.760,12269.306968
2 Jan 2000 22:36:52.000,225.329,69.905,12265.643491
2 Jan 2000 22:37:02.000,225.826,70.048,12262.038040
2 Jan 2000 22:37:12.000,226.329,70.190,12258.490666
2 Jan 2000 22:37:22.000,226.840,70.330,12255.001416
2 Jan 2000 22:37:32.000,227.357,70.470,12251.570336
2 Jan 2000 22:37:42.000,227.881,70.608,12248.197470
2 Jan 2000 22:37:52.000,228.412,70.744,12244.882864
2 Jan 2000 22:38:02.000,228.950,70.879,12241.626559
2 Jan 2000 22:38:12.000,229.496,71.013,12238.428598
2 Jan 2000 22:38:22.000,230.048,71.145,12235.289019
2 Jan 2000 22:38:32.000,230.608,71.276,12232.207863
2 Jan 2000 22:38:42.000,231.176,71.406,12229.185167
2 Jan 2000 22:38:52.000,231.750,71.533,12226.220967
2 Jan 2000 22:39:02.000,232.333,71.659,12223.315299
2 Jan 2000 22:39:12.000,232.923,71.784,12220.468196
2 Jan 2000 22:39:22.000,233.520,71.907,12217.679692
2 Jan 2000 22:39:32.000,234.126,72.028,12214.949818
2 Jan 2000 22:39:42.000,234.739,72.147,12212.278605
2 Jan 2000 22:39:52.000,235.359,72.265,12209.666080
2 Jan 2000 22:40:02.000,235.988,72.380,12207.112273
2 Jan 2000 22:40:12.000,236.624,72.494,12204.617209
2 Jan 2000 22:40:22.000,237.268,72.606,12202.180913
2 Jan 2000 22:40:32.000,237.921,72.716,12199.803411
2 Jan 2000 22:40:42.000,238.580,72.824,12197.484723
2 Jan 2000 22:40:52.000,239.248,72.930,12195.224873
2 Jan 2000 22:41:02.000,239.924,73.034,12193.023880
2 Jan 2000 22:41:12.000,240.607,73.136,12190.881762
2 Jan 2000 22:41:22.000,241.299,73.236,12188.798538
2 Jan 2000 22:41:32.000,241.998,73.334,12186.774224
2 Jan 2000 22:41:42.000,242.705,73.429,12184.808834
2 Jan 2000 22:41:52.000,243.419,73.522,12182.902384
2 Jan 2000 22:42:02.000,244.141,73.613,12181.054885
2 Jan 2000 22:42:12.000,244.871,73.702,12179.266348
2 Jan 2000 22:42:22.000,245.608,73.788,12177.536783
2 Jan 2000 22:42:32.000,246.353,73.871,12175.866200
2 Jan 2000 22:42:42.000,247.105,73.953,12174.254606
2 Jan 2000 22:42:52.000,247.864,74.032,12172.702006
2 Jan 2000 22:43:02.000,248.630,74.108,12171.208405
2 Jan 2000 22:43:12.000,249.403,74.182,12169.773808
2 Jan 2000 22:43:22.000,250.182,74.253,12168.398215
2 Jan 2000 22:43:32.000,250.969,74.321,12167.081630
2 Jan 2000 22:43:42.000,251.762,74.387,12165.824050
2 Jan 2000 22:43:52.000,252.561,74.450,12164.625474
2 Jan 2000 22:44:02.000,253.366,74.511,12163.485900
2 Jan 2000 22:44:12.000,254.177,74.569,12162.405324
2 Jan 2000 22:44:22.000,254.993,74.623,12161.383739
2 Jan 2000 22:44:32.000,255.815,74.676,12160.421139
2 Jan 2000 22:44:42.000,256.643,74.725,12159.517517
2 Jan 2000 22:44:52.000,257.475,74.771,12158.672863
2 Jan 2000 22:45:02.000,258.312,74.814,12157.887166
2 Jan 2000 22:45:12.000,259.153,74.855,12157.160414
2 Jan 2000 22:45:22.000,259.998,74.892,12156.492595
2 Jan 2000 22:45:32.000,260.847,74.927,12155.883693
2 Jan 2000 22:45:42.000,261.700,74.959,12155.333694
2 Jan 2000 22:45:52.000,262.555,74.987,12154.842580
2 Jan 2000 22:46:02.000,263.414,75.013,12154.410333
2 Jan 2000 22:46:12.000,264.275,75.035,12154.036933
2 Jan 2000 22:46:22.000,265.139,75.055,12153.722360
2 Jan 2000 22:46:32.000,266.004,75.071,12153.466591
2 Jan 2000 22:46:42.000,266.871,75.084,12153.269603
2 Jan 2000 22:46:52.000,267.739,75.094,12153.131372
2 Jan 2000 22:47:02.000,268.608,75.101,12153.051871
2 Jan 2000 22:47:12.000,269.478,75.105,12153.031074
2 Jan 2000 22:47:22.000,270.348,75.106,12153.068952
2 Jan 2000 22:47:32.000,271.217,75.104,12153.165474
2 Jan 2000 22:47:42.000,272.086,75.099,12153.320611
2 Jan 2000 22:47:52.000,272.955,75.090,12153.534330
2 Jan 2000 22:48:02.000,273.822,75.079,12153.806598
2 Jan 2000 22:48:12.000,274.687,75.064,12154.137379
2 Jan 2000 22:48:22.000,275.551,75.047,12154.526638
2 Jan 2000 22:48:32.000,276.412,75.026,12154.974338
2 Jan 2000 22:48:42.000,277.271,75.003,12155.480439
2 Jan 2000 22:48:52.000,278.127,74.976,12156.044903
2 Jan 2000 22:49:02.000,278.979,74.946,12156.667688
2 Jan 2000 22:49:12.000,279.829,74.914,12157.348752
2 Jan 2000 22:49:22.000,280.674,74.878,12158.088052
2 Jan 2000 22:49:32.000,281.516,74.839,12158.885542
2 Jan 2000 22:49:42.000,282.353,74.798,12159.741178
2 Jan 2000 22:49:52.000,283.185,74.754,12160.654911
2 Jan 2000 22:50:02.000,284.013,74.707,12161.626693
2 Jan 2000 22:50:12.000,284.835,74.657,12162.656476
2 Jan 2000 22:50:22.000,285.652,74.604,12163.744207
2 Jan 2000 22:50:32.000,286.464,74.548,12164.889835
2 Jan 2000 22:50:42.000,287.270,74.490,12166.093307
2 Jan 2000 22:50:52.000,288.069,74.429,12167.354568
2 Jan 2000 22:51:02.000,288.863,74.365,12168.673563
2 Jan 2000 22:51:12.000,289.650,74.299,12170.050234
2 Jan 2000 22:51:22.000,290.431,74.230,12171.484524
2 Jan 2000 22:51:32.000,291.204,74.159,12172.976373
2 Jan 2000 22:51:42.000,291.971,74.085,12174.525721
2 Jan 2000 22:51:52.000,292.731,74.009,12176.132507
2 Jan 2000 22:52:02.000,293.484,73.930,12177.796667
2 Jan 2000 22:52:12.000,294.230,73.849,12179.518137
2 Jan 2000 22:52:22.000,294.968,73.765,12181.296853
2 Jan 2000 22:52:32.000,295.699,73.679,12183.132748
2 Jan 2000 22:52:42.000,296.423,73.591,12185.025755
2 Jan 2000 22:52:52.000,297.139,73.501,12186.975805
2 Jan 2000 22:53:02.000,297.847,73.408,12188.982828
2 Jan 2000 22:53:12.000,298.548,73.313,12191.046753
2 Jan 2000 22:53:22.000,299.241,73.216,12193.167509
2 Jan 2000 22:53:32.000,299.926,73.117,12195.345021
2 Jan 2000 22:53:42.000,300.604,73.016,12197.579217
2 Jan 2000 22:53:52.000,301.273,72.913,12199.870019
2 Jan 2000 22:54:02.000,301.935,72.808,12202.217353
2 Jan 2000 22:54:12.000,302.590,72.702,12204.621140
2 Jan 2000 22:54:22.000,303.236,72.593,12207.081300
2 Jan 2000 22:54:32.000,303.875,72.482,12209.597755
2 Jan 2000 22:54:42.000,304.506,72.370,12212.170424
2 Jan 2000 22:54:52.000,305.129,72.256,12214.799224
2 Jan 2000 22:55:02.000,305.745,72.140,12217.484071
2 Jan 2000 22:55:12.000,306.353,72.022,12220.224883
2 Jan 2000 22:55:22.000,306.953,71.903,12223.021573
2 Jan 2000 22:55:32.000,307.546,71.782,12225.874055
2 Jan 2000 22:55:42.000,308.132,71.660,12228.782242
2 Jan 2000 22:55:52.000,308.710,71.536,12231.746045
2 Jan 2000 22:56:02.000,309.281,71.411,12234.765374
2 Jan 2000 22:56:12.000,309.844,71.284,12237.840139
2 Jan 2000 22:56:22.000,310.400,71.155,12240.970248
2 Jan 2000 22:56:32.000,310.950,71.026,12244.155608
2 Jan 2000 22:56:42.000,311.492,70.894,12247.396126
2 Jan 2000 22:56:52.000,312.027,70.762,12250.691707
2 Jan 2000 22:57:02.000,312.555,70.628,12254.042255
2 Jan 2000 22:57:12.000,313.076,70.493,12257.447674
2 Jan 2000 22:57:22.000,313.590,70.357,12260.907865
2 Jan 2000 22:57:32.000,314.098,70.219,12264.422730
2 Jan 2000 22:57:42.000,314.599,70.081,12267.992168
2 Jan 2000 22:57:52.000,315.094,69.941,12271.616080
2 Jan 2000 22:58:02.000,315.582,69.800,12275.294364
2 Jan 2000 22:58:12.000,316.064,69.658,12279.026916
2 Jan 2000 22:58:22.000,316.540,69.515,12282.813634
2 Jan 2000 22:58:32.000,317.009,69.371,12286.654412
2 Jan 2000 22:58:42.000,317.472,69.225,12290.549144
2 Jan 2000 22:58:52.000,317.930,69.079,12294.497726
2 Jan 2000 22:59:02.000,318.381,68.932,12298.500048
2 Jan 2000 22:59:12.000,318.827,68.784,12302.556002
2 Jan 2000 22:59:22.000,319.267,68.635,12306.665480
2 Jan 2000 22:59:32.000,319.701,68.485,12310.828371
2 Jan 2000 22:59:42.000,320.130,68.334,12315.044564
2 Jan 2000 22:59:52.000,320.553,68.183,12319.313947
2 Jan 2000 23:00:02.000,320.970,68.030,12323.636407
2 Jan 2000 23:00:12.000,321.383,67.877,12328.011830
2 Jan 2000 23:00:22.000,321.790,67.723,12332.440101
2 Jan 2000 23:00:32.000,322.192,67.568,12336.921106
2 Jan 2000 23:00:42.000,322.589,67.413,12341.454727
2 Jan 2000 23:00:52.000,322.981,67.256,12346.040847
2 Jan 2000 23:01:02.000,323.369,67.100,12350.679348
2 Jan 2000 23:01:12.000,323.751,66.942,12355.370111
2 Jan 2000 23:01:22.000,324.129,66.784,12360.113017
2 Jan 2000 23:01:32.000,324.502,66.625,12364.907945
2 Jan 2000 23:01:42.000,324.870,66.465,12369.754772
2 Jan 2000 23:01:52.000,325.234,66.305,12374.653378
2 Jan 2000 23:02:02.000,325.593,66.144,12379.603638
2 Jan 2000 23:02:12.000,325.948,65.983,12384.605430
2 Jan 2000 23:02:22.000,326.299,65.821,12389.658628
2 Jan 2000 23:02:32.000,326.646,65.658,12394.763107
2 Jan 2000 23:02:42.000,326.988,65.495,12399.918741
2 Jan 2000 23:02:52.000,327.327,65.332,12405.125402
2 Jan 2000 23:03:02.000,327.661,65.168,12410.382963
2 Jan 2000 23:03:12.000,327.992,65.003,12415.691296
2 Jan 2000 23:03:22.000,328.318,64.838,12421.050272
2 Jan 2000 23:03:32.000,328.641,64.673,12426.459759
2 Jan 2000 23:03:42.000,328.960,64.507,12431.919629
2 Jan 2000 23:03:52.000,329.276,64.341,12437.429748
2 Jan 2000 23:04:02.000,329.587,64.174,12442.989986
2 Jan 2000 23:04:12.000,329.896,64.007,12448.600209
2 Jan 2000 23:04:22.000,330.201,63.839,12454.260283
2 Jan 2000 23:04:32.000,330.502,63.671,12459.970075
2 Jan 2000 23:04:42.000,330.800,63.503,12465.729449
2 Jan 2000 23:04:52.000,331.095,63.334,12471.538271
2 Jan 2000 23:05:02.000,331.386,63.165,12477.396403
2 Jan 2000 23:05:12.000,331.675,62.996,12483.303709
2 Jan 2000 23:05:22.000,331.960,62.826,12489.260051
2 Jan 2000 23:05:32.000,332.242,62.656,12495.265292
2 Jan 2000 23:05:42.000,332.521,62.486,12501.319291
2 Jan 2000 23:05:52.000,332.797,62.315,12507.421911
2 Jan 2000 23:06:02.000,333.070,62.145,12513.573010
2 Jan 2000 23:06:12.000,333.340,61.973,12519.772447
2 Jan 2000 23:06:22.000,333.608,61.802,12526.020083
2 Jan 2000 23:06:32.000,333.873,61.630,12532.315774
2 Jan 2000 23:06:42.000,334.135,61.459,12538.659379
2 Jan 2000 23:06:52.000,334.394,61.286,12545.050754
2 Jan 2000 23:07:02.000,334.650,61.114,12551.489755
2 Jan 2000 23:07:12.000,334.905,60.941,12557.976238
2 Jan 2000 23:07:22.000,335.156,60.769,12564.510060
2 Jan 2000 23:07:32.000,335.405,60.596,12571.091073
2 Jan 2000 23:07:42.000,335.652,60.422,12577.719133
2 Jan 2000 23:07:52.000,335.896,60.249,12584.394093
2 Jan 2000 23:08:02.000,336.137,60.075,12591.115805
2 Jan 2000 23:08:12.000,336.377,59.902,12597.884124
2 Jan 2000 23:08:22.000,336.614,59.728,12604.698900
2 Jan 2000 23:08:32.000,336.849,59.554,12611.559985
2 Jan 2000 23:08:42.000,337.081,59.379,12618.467231
2 Jan 2000 23:08:52.000,337.312,59.205,12625.420488
2 Jan 2000 23:09:02.000,337.540,59.030,12632.419605
2 Jan 2000 23:09:12.000,337.766,58.856,12639.464433
2 Jan 2000 23:09:22.000,337.990,58.681,12646.554821
2 Jan 2000 23:09:32.000,338.212,58.506,12653.690617
2 Jan 2000 23:09:42.000,338.432,58.331,12660.871669
2 Jan 2000 23:09:52.000,338.650,58.156,12668.097826
2 Jan 2000 23:10:02.000,338.866,57.981,12675.368935
2 Jan 2000 23:10:12.000,339.080,57.805,12682.684842
2 Jan 2000 23:10:22.000,339.292,57.630,12690.045395
2 Jan 2000 23:10:32.000,339.503,57.454,12697.450439
2 Jan 2000 23:10:42.000,339.711,57.279,12704.899820
2 Jan 2000 23:10:52.000,339.918,57.103,12712.393383
2 Jan 2000 23:11:02.000,340.123,56.927,12719.930973
2 Jan 2000 23:11:12.000,340.327,56.751,12727.512435
2 Jan 2000 23:11:22.000,340.528,56.575,12735.137613
2 Jan 2000 23:11:32.000,340.728,56.400,12742.806350
2 Jan 2000 23:11:42.000,340.926,56.224,12750.518491
2 Jan 2000 23:11:52.000,341.123,56.048,12758.273877
2 Jan 2000 23:12:02.000,341.318,55.871,12766.072353
2 Jan 2000 23:12:12.000,341.511,55.695,12773.913759
2 Jan 2000 23:12:22.000,341.703,55.519,12781.797939
2 Jan 2000 23:12:32.000,341.893,55.343,12789.724734
2 Jan 2000 23:12:42.000,342.082,55.167,12797.693986
2 Jan 2000 23:12:52.000,342.270,54.991,12805.705535
2 Jan 2000 23:13:02.000,342.456,54.814,12813.759222
2 Jan 2000 23:13:12.000,342.640,54.638,12821.854888
2 Jan 2000 23:13:22.000,342.823,54.462,12829.992373
2 Jan 2000 23:13:32.000,343.005,54.286,12838.171517
2 Jan 2000 23:13:42.000,343.185,54.109,12846.392160
2 Jan 2000 23:13:52.000,343.364,53.933,12854.654140
2 Jan 2000 23:14:02.000,343.542,53.757,12862.957298
2 Jan 2000 23:14:12.000,343.718,53.581,12871.301472
2 Jan 2000 23:14:22.000,343.893,53.404,12879.686500
2 Jan 2000 23:14:32.000,344.067,53.228,12888.112222
2 Jan 2000 23:14:42.000,344.239,53.052,12896.578475
2 Jan 2000 23:14:52.000,344.411,52.876,12905.085097
2 Jan 2000 23:15:02.000,344.581,52.700,12913.631926
2 Jan 2000 23:15:12.000,344.750,52.524,12922.218799
2 Jan 2000 23:15:22.000,344.917,52.348,12930.845554
2 Jan 2000 23:15:32.000,345.084,52.172,12939.512027
2 Jan 2000 23:15:42.000,345.249,51.996,12948.218056
2 Jan 2000 23:15:52.000,345.414,51.820,12956.963478
2 Jan 2000 23:16:02.000,345.577,51.644,12965.748128
2 Jan 2000 23:16:12.000,345.739,51.468,12974.571844
2 Jan 2000 23:16:22.000,345.900,51.292,12983.434461
2 Jan 2000 23:16:32.000,346.060,51.116,12992.335816
2 Jan 2000 23:16:42.000,346.219,50.941,13001.275744
2 Jan 2000 23:16:52.000,346.377,50.765,13010.254081
2 Jan 2000 23:17:02.000,346.534,50.589,13019.270663
2 Jan 2000 23:17:12.000,346.690,50.414,13028.325325
2 Jan 2000 23:17:22.000,346.845,50.238,13037.417903
2 Jan 2000 23:17:32.000,346.999,50.063,13046.548231
2 Jan 2000 23:17:42.000,347.152,49.888,13055.716145
2 Jan 2000 23:17:52.000,347.304,49.712,13064.921480
2 Jan 2000 23:18:02.000,347.455,49.537,13074.164070
2 Jan 2000 23:18:12.000,347.605,49.362,13083.443751
2 Jan 2000 23:18:22.000,347.754,49.187,13092.760357
2 Jan 2000 23:18:32.000,347.903,49.012,13102.113722
2 Jan 2000 23:18:42.000,348.050,48.837,13111.503682
2 Jan 2000 23:18:52.000,348.197,48.663,13120.930071
2 Jan 2000 23:19:02.000,348.343,48.488,13130.392722
2 Jan 2000 23:19:12.000,348.488,48.314,13139.891471
2 Jan 2000 23:19:22.000,348.632,48.139,13149.426151
2 Jan 2000 23:19:32.000,348.776,47.965,13158.996597
2 Jan 2000 23:19:42.000,348.918,47.790,13168.602643
2 Jan 2000 23:19:52.000,349.060,47.616,13178.244124
2 Jan 2000 23:20:02.000,349.201,47.442,13187.920872
2 Jan 2000 23:20:12.000,349.341,47.268,13197.632722
2 Jan 2000 23:20:22.000,349.481,47.094,13207.379509
2 Jan 2000 23:20:32.000,349.619,46.920,13217.161065
2 Jan 2000 23:20:42.000,349.757,46.747,13226.977226
2 Jan 2000 23:20:52.000,349.895,46.573,13236.827825
2 Jan 2000 23:21:02.000,350.031,46.400,13246.712697
2 Jan 2000 23:21:12.000,350.167,46.226,13256.631674
2 Jan 2000 23:21:22.000,350.302,46.053,13266.584592
2 Jan 2000 23:21:32.000,350.437,45.880,13276.571283
2 Jan 2000 23:21:42.000,350.570,45.707,13286.591583
2 Jan 2000 23:21:52.000,350.704,45.534,13296.645325
2 Jan 2000 23:22:02.000,350.836,45.362,13306.732344
2 Jan 2000 23:22:12.000,350.968,45.189,13316.852472
2 Jan 2000 23:22:22.000,351.099,45.016,13327.005546
2 Jan 2000 23:22:32.000,351.229,44.844,13337.191398
2 Jan 2000 23:22:42.000,351.359,44.672,13347.409862
2 Jan 2000 23:22:52.000,351.489,44.500,13357.660775
2 Jan 2000 23:23:02.000,351.617,44.328,13367.943969
2 Jan 2000 23:23:12.000,351.745,44.156,13378.259278
2 Jan 2000 23:23:22.000,351.873,43.984,13388.606539
2 Jan 2000 23:23:32.000,352.000,43.812,13398.985584
2 Jan 2000 23:23:42.000,352.126,43.641,13409.396249
2 Jan 2000 23:23:52.000,352.252,43.470,13419.838369
2 Jan 2000 23:24:02.000,352.377,43.298,13430.311777
2 Jan 2000 23:24:12.000,352.502,43.127,13440.816310
2 Jan 2000 23:24:22.000,352.626,42.956,13451.351802
2 Jan 2000 23:24:32.000,352.749,42.786,13461.918088
2 Jan 2000 23:24:42.000,352.872,42.615,13472.515003
2 Jan 2000 23:24:52.000,352.995,42.444,13483.142383
2 Jan 2000 23:25:02.000,353.117,42.274,13493.800063
2 Jan 2000 23:25:12.000,353.238,42.104,13504.487878
2 Jan 2000 23:25:22.000,353.359,41.934,13515.205665
2 Jan 2000 23:25:32.000,353.480,41.764,13525.953258
2 Jan 2000 23:25:42.000,353.600,41.594,13536.730494
2 Jan 2000 23:25:52.000,353.719,41.424,13547.537209
2 Jan 2000 23:26:02.000,353.838,41.255,13558.373239
2 Jan 2000 23:26:12.000,353.957,41.085,13569.238420
2 Jan 2000 23:26:22.000,354.075,40.916,13580.132589
2 Jan 2000 23:26:32.000,354.192,40.747,13591.055582
2 Jan 2000 23:26:42.000,354.309,40.578,13602.007237
2 Jan 2000 23:26:52.000,354.426,40.409,13612.987389
2 Jan 2000 23:27:02.000,354.542,40.241,13623.995876
2 Jan 2000 23:27:12.000,354.658,40.072,13635.032536
2 Jan 2000 23:27:22.000,354.774,39.904,13646.097205
2 Jan 2000 23:27:32.000,354.888,39.736,13657.189721
2 Jan 2000 23:27:42.000,355.003,39.568,13668.309922
2 Jan 2000 23:27:52.000,355.117,39.400,13679.457646
2 Jan 2000 23:28:02.000,355.231,39.232,13690.632731
2 Jan 2000 23:28:12.000,355.344,39.065,13701.835014
2 Jan 2000 23:28:22.000,355.457,38.898,13713.064336
2 Jan 2000 23:28:32.000,355.570,38.730,13724.320534
2 Jan 2000 23:28:42.000,355.682,38.563,13735.603447
2 Jan 2000 23:28:52.000,355.793,38.396,13746.912914
2 Jan 2000 23:29:02.000,355.905,38.230,13758.248775
2 Jan 2000 23:29:12.000,356.016,38.063,13769.610868
2 Jan 2000 23:29:22.000,356.126,37.897,13780.999034
2 Jan 2000 23:29:32.000,356.237,37.730,13792.413113
2 Jan 2000 23:29:42.000,356.346,37.564,13803.852944
2 Jan 2000 23:29:52.000,356.456,37.398,13815.318368
2 Jan 2000 23:30:02.000,356.565,37.233,13826.809225
2 Jan 2000 23:30:12.000,356.674,37.067,13838.325356
2 Jan 2000 23:30:22.000,356.782,36.902,13849.866602
2 Jan 2000 23:30:32.000,356.891,36.736,13861.432805
2 Jan 2000 23:30:42.000,356.998,36.571,13873.023805
2 Jan 2000 23:30:52.000,357.106,36.406,13884.639445
2 Jan 2000 23:31:02.000,357.213,36.242,13896.279566
2 Jan 2000 23:31:12.000,357.320,36.077,13907.944010
2 Jan 2000 23:31:22.000,357.426,35.913,13919.632620
2 Jan 2000 23:31:32.000,357.533,35.748,13931.345238
2 Jan 2000 23:31:42.000,357.639,35.584,13943.081708
2 Jan 2000 23:31:52.000,357.744,35.420,13954.841872
2 Jan 2000 23:32:02.000,357.849,35.257,13966.625574
2 Jan 2000 23:32:12.000,357.954,35.093,13978.432658
2 Jan 2000 23:32:17.651,358.014,35.001,13985.115120

Interval Statistics
"Min Elevation",2 Jan 2000 23:32:17.651,358.014,35.001,13985.115120
"Max Elevation",2 Jan 2000 22:47:19.897,270.165,75.106,12153.056113
"Mean Elevation",,,60.956,
"Min Range",2 Jan 2000 22:47:10.545,269.351,75.105,12153.030452
"Max Range",2 Jan 2000 23:32:17.651,358.014,35.001,13985.115120
"Mean Range",,,,12647.050341

"Time (UTCG)","Azimuth (deg)","Elevation (deg)","Range (km)"
3 Jan 2000 06:59:16.856,41.417,50.494,13021.996369
3 Jan 2000 06:59:26.000,41.696,50.558,13018.698457
3 Jan 2000 06:59:36.000,42.002,50.626,13015.128659
3 Jan 2000 06:59:46.000,42.309,50.695,13011.597421
3 Jan 2000 06:59:56.000,42.617,50.762,13008.104832
3 Jan 2000 07:00:06.000,42.926,50.829,13004.650977
3 Jan 2000 07:00:16.000,43.235,50.895,13001.235944
3 Jan 2000 07:00:26.000,43.546,50.961,12997.859818
3 Jan 2000 07:00:36.000,43.858,51.026,12994.522685
3 Jan 2000 07:00:46.000,44.170,51.090,12991.224631
3 Jan 2000 07:00:56.000,44.484,51.154,12987.965739
