cemeouhf_ael/Place-CEMID-Sensor-Sensor1-To-Satellite-POLMEO16_AER.csv

"Time (UTCG)","Azimuth (deg)","Elevation (deg)","Range (km)"
1 Jan 2000 13:55:43.912,100.221,56.777,12717.267882
1 Jan 2000 13:55:53.000,99.962,56.908,12711.658958
1 Jan 2000 13:56:03.000,99.675,57.053,12705.545502
1 Jan 2000 13:56:13.000,99.384,57.197,12699.493266
1 Jan 2000 13:56:23.000,99.092,57.340,12693.502385
1 Jan 2000 13:56:33.000,98.796,57.482,12687.572993
1 Jan 2000 13:56:43.000,98.498,57.623,12681.705222
1 Jan 2000 13:56:53.000,98.196,57.763,12675.899202
1 Jan 2000 13:57:03.000,97.892,57.903,12670.155062
1 Jan 2000 13:57:13.000,97.585,58.041,12664.472932
1 Jan 2000 13:57:23.000,97.275,58.179,12658.852938
1 Jan 2000 13:57:33.000,96.963,58.316,12653.295205
1 Jan 2000 13:57:43.000,96.647,58.452,12647.799860
1 Jan 2000 13:57:53.000,96.328,58.587,12642.367025
1 Jan 2000 13:58:03.000,96.007,58.721,12636.996822
1 Jan 2000 13:58:13.000,95.682,58.854,12631.689372
1 Jan 2000 13:58:23.000,95.355,58.986,12626.444794
1 Jan 2000 13:58:33.000,95.024,59.117,12621.263208
1 Jan 2000 13:58:43.000,94.691,59.247,12616.144730
1 Jan 2000 13:58:53.000,94.354,59.376,12611.089476
1 Jan 2000 13:59:03.000,94.014,59.504,12606.097561
1 Jan 2000 13:59:13.000,93.672,59.631,12601.169096
1 Jan 2000 13:59:23.000,93.326,59.757,12596.304195
1 Jan 2000 13:59:33.000,92.977,59.882,12591.502968
1 Jan 2000 13:59:43.000,92.625,60.005,12586.765523
1 Jan 2000 13:59:53.000,92.270,60.128,12582.091969
1 Jan 2000 14:00:03.000,91.912,60.249,12577.482412
1 Jan 2000 14:00:13.000,91.550,60.369,12572.936957
1 Jan 2000 14:00:23.000,91.186,60.488,12568.455708
1 Jan 2000 14:00:33.000,90.818,60.606,12564.038767
1 Jan 2000 14:00:43.000,90.448,60.722,12559.686234
1 Jan 2000 14:00:53.000,90.074,60.838,12555.398211
1 Jan 2000 14:01:03.000,89.697,60.952,12551.174793
1 Jan 2000 14:01:13.000,89.316,61.064,12547.016079
1 Jan 2000 14:01:23.000,88.933,61.176,12542.922164
1 Jan 2000 14:01:33.000,88.546,61.286,12538.893140
1 Jan 2000 14:01:43.000,88.157,61.395,12534.929102
1 Jan 2000 14:01:53.000,87.764,61.502,12531.030139
1 Jan 2000 14:02:03.000,87.368,61.608,12527.196342
1 Jan 2000 14:02:13.000,86.969,61.713,12523.427798
1 Jan 2000 14:02:23.000,86.567,61.816,12519.724593
1 Jan 2000 14:02:33.000,86.161,61.918,12516.086814
1 Jan 2000 14:02:43.000,85.753,62.019,12512.514544
1 Jan 2000 14:02:53.000,85.341,62.118,12509.007864
1 Jan 2000 14:03:03.000,84.926,62.215,12505.566856
1 Jan 2000 14:03:13.000,84.509,62.311,12502.191599
1 Jan 2000 14:03:23.000,84.088,62.406,12498.882170
1 Jan 2000 14:03:33.000,83.664,62.499,12495.638646
1 Jan 2000 14:03:43.000,83.237,62.590,12492.461101
1 Jan 2000 14:03:53.000,82.807,62.680,12489.349608
1 Jan 2000 14:04:03.000,82.374,62.768,12486.304239
1 Jan 2000 14:04:13.000,81.939,62.855,12483.325065
1 Jan 2000 14:04:23.000,81.500,62.940,12480.412153
1 Jan 2000 14:04:33.000,81.058,63.023,12477.565571
1 Jan 2000 14:04:43.000,80.614,63.105,12474.785384
1 Jan 2000 14:04:53.000,80.166,63.185,12472.071656
1 Jan 2000 14:05:03.000,79.716,63.263,12469.424450
1 Jan 2000 14:05:13.000,79.263,63.340,12466.843825
1 Jan 2000 14:05:23.000,78.808,63.415,12464.329842
1 Jan 2000 14:05:33.000,78.350,63.488,12461.882558
1 Jan 2000 14:05:43.000,77.889,63.560,12459.502029
1 Jan 2000 14:05:53.000,77.425,63.629,12457.188310
1 Jan 2000 14:06:03.000,76.959,63.697,12454.941453
1 Jan 2000 14:06:13.000,76.491,63.763,12452.761509
1 Jan 2000 14:06:23.000,76.020,63.827,12450.648530
1 Jan 2000 14:06:33.000,75.546,63.890,12448.602561
1 Jan 2000 14:06:43.000,75.071,63.950,12446.623651
1 Jan 2000 14:06:53.000,74.593,64.009,12444.711844
1 Jan 2000 14:07:03.000,74.112,64.066,12442.867183
1 Jan 2000 14:07:13.000,73.630,64.121,12441.089709
1 Jan 2000 14:07:23.000,73.145,64.174,12439.379464
1 Jan 2000 14:07:33.000,72.659,64.225,12437.736485
1 Jan 2000 14:07:43.000,72.170,64.274,12436.160809
1 Jan 2000 14:07:53.000,71.680,64.321,12434.652472
1 Jan 2000 14:08:03.000,71.188,64.366,12433.211506
1 Jan 2000 14:08:13.000,70.694,64.410,12431.837945
1 Jan 2000 14:08:23.000,70.198,64.451,12430.531817
1 Jan 2000 14:08:33.000,69.701,64.490,12429.293152
1 Jan 2000 14:08:43.000,69.202,64.527,12428.121977
1 Jan 2000 14:08:53.000,68.701,64.563,12427.018317
1 Jan 2000 14:09:03.000,68.200,64.596,12425.982195
1 Jan 2000 14:09:13.000,67.696,64.627,12425.013635
1 Jan 2000 14:09:23.000,67.192,64.656,12424.112656
1 Jan 2000 14:09:33.000,66.687,64.683,12423.279276
1 Jan 2000 14:09:43.000,66.180,64.708,12422.513514
1 Jan 2000 14:09:53.000,65.673,64.731,12421.815385
1 Jan 2000 14:10:03.000,65.164,64.752,12421.184902
1 Jan 2000 14:10:13.000,64.655,64.771,12420.622078
1 Jan 2000 14:10:23.000,64.145,64.788,12420.126923
1 Jan 2000 14:10:33.000,63.635,64.803,12419.699445
1 Jan 2000 14:10:43.000,63.124,64.815,12419.339653
1 Jan 2000 14:10:53.000,62.612,64.826,12419.047552
1 Jan 2000 14:11:03.000,62.100,64.834,12418.823145
1 Jan 2000 14:11:13.000,61.588,64.841,12418.666435
1 Jan 2000 14:11:23.000,61.076,64.845,12418.577422
1 Jan 2000 14:11:33.000,60.564,64.847,12418.556105
1 Jan 2000 14:11:43.000,60.051,64.847,12418.602482
1 Jan 2000 14:11:53.000,59.539,64.845,12418.716548
1 Jan 2000 14:12:03.000,59.027,64.841,12418.898296
1 Jan 2000 14:12:13.000,58.515,64.835,12419.147720
1 Jan 2000 14:12:23.000,58.004,64.826,12419.464810
1 Jan 2000 14:12:33.000,57.493,64.816,12419.849554
1 Jan 2000 14:12:43.000,56.982,64.803,12420.301941
1 Jan 2000 14:12:53.000,56.472,64.789,12420.821955
1 Jan 2000 14:13:03.000,55.963,64.772,12421.409580
1 Jan 2000 14:13:13.000,55.455,64.753,12422.064800
1 Jan 2000 14:13:23.000,54.948,64.732,12422.787595
1 Jan 2000 14:13:33.000,54.441,64.709,12423.577943
1 Jan 2000 14:13:43.000,53.936,64.684,12424.435822
1 Jan 2000 14:13:53.000,53.432,64.657,12425.361209
1 Jan 2000 14:14:03.000,52.929,64.628,12426.354076
1 Jan 2000 14:14:13.000,52.427,64.597,12427.414397
1 Jan 2000 14:14:23.000,51.927,64.564,12428.542142
1 Jan 2000 14:14:33.000,51.429,64.529,12429.737281
1 Jan 2000 14:14:43.000,50.931,64.492,12430.999781
1 Jan 2000 14:14:53.000,50.436,64.453,12432.329608
1 Jan 2000 14:15:03.000,49.942,64.412,12433.726727
1 Jan 2000 14:15:13.000,49.450,64.369,12435.191099
1 Jan 2000 14:15:23.000,48.960,64.323,12436.722687
1 Jan 2000 14:15:33.000,48.472,64.276,12438.321449
1 Jan 2000 14:15:43.000,47.986,64.227,12439.987344
1 Jan 2000 14:15:53.000,47.502,64.177,12441.720328
1 Jan 2000 14:16:03.000,47.020,64.124,12443.520355
1 Jan 2000 14:16:13.000,46.540,64.069,12445.387378
1 Jan 2000 14:16:23.000,46.063,64.012,12447.321349
1 Jan 2000 14:16:33.000,45.587,63.954,12449.322218
1 Jan 2000 14:16:43.000,45.115,63.894,12451.389933
1 Jan 2000 14:16:53.000,44.644,63.831,12453.524440
1 Jan 2000 14:17:03.000,44.176,63.767,12455.725685
1 Jan 2000 14:17:13.000,43.711,63.701,12457.993612
1 Jan 2000 14:17:23.000,43.248,63.634,12460.328161
1 Jan 2000 14:17:33.000,42.788,63.564,12462.729275
1 Jan 2000 14:17:43.000,42.331,63.493,12465.196890
1 Jan 2000 14:17:53.000,41.876,63.420,12467.730945
1 Jan 2000 14:18:03.000,41.424,63.346,12470.331376
1 Jan 2000 14:18:13.000,40.975,63.269,12472.998116
1 Jan 2000 14:18:23.000,40.529,63.191,12475.731098
1 Jan 2000 14:18:33.000,40.085,63.111,12478.530253
1 Jan 2000 14:18:43.000,39.645,63.030,12481.395511
1 Jan 2000 14:18:53.000,39.207,62.947,12484.326800
1 Jan 2000 14:19:03.000,38.773,62.862,12487.324047
1 Jan 2000 14:19:13.000,38.341,62.776,12490.387176
1 Jan 2000 14:19:23.000,37.913,62.688,12493.516111
1 Jan 2000 14:19:33.000,37.488,62.598,12496.710773
1 Jan 2000 14:19:43.000,37.065,62.507,12499.971084
1 Jan 2000 14:19:53.000,36.646,62.414,12503.296963
1 Jan 2000 14:20:03.000,36.230,62.320,12506.688327
1 Jan 2000 14:20:13.000,35.817,62.225,12510.145092
1 Jan 2000 14:20:23.000,35.407,62.128,12513.667172
1 Jan 2000 14:20:33.000,35.000,62.029,12517.254482
1 Jan 2000 14:20:43.000,34.597,61.929,12520.906932
1 Jan 2000 14:20:53.000,34.197,61.827,12524.624433
1 Jan 2000 14:21:03.000,33.800,61.724,12528.406894
1 Jan 2000 14:21:13.000,33.406,61.620,12532.254222
1 Jan 2000 14:21:23.000,33.015,61.514,12536.166324
1 Jan 2000 14:21:33.000,32.628,61.407,12540.143103
1 Jan 2000 14:21:43.000,32.244,61.299,12544.184463
1 Jan 2000 14:21:53.000,31.863,61.189,12548.290305
1 Jan 2000 14:22:03.000,31.485,61.078,12552.460531
1 Jan 2000 14:22:13.000,31.111,60.966,12556.695038
1 Jan 2000 14:22:23.000,30.740,60.853,12560.993725
1 Jan 2000 14:22:33.000,30.372,60.738,12565.356488
1 Jan 2000 14:22:43.000,30.007,60.622,12569.783222
1 Jan 2000 14:22:53.000,29.646,60.504,12574.273820
1 Jan 2000 14:23:03.000,29.287,60.386,12578.828174
1 Jan 2000 14:23:13.000,28.932,60.266,12583.446176
1 Jan 2000 14:23:23.000,28.580,60.146,12588.127714
1 Jan 2000 14:23:33.000,28.232,60.024,12592.872678
1 Jan 2000 14:23:43.000,27.886,59.901,12597.680953
1 Jan 2000 14:23:53.000,27.544,59.776,12602.552426
1 Jan 2000 14:24:03.000,27.205,59.651,12607.486981
1 Jan 2000 14:24:13.000,26.869,59.525,12612.484501
1 Jan 2000 14:24:23.000,26.536,59.398,12617.544868
1 Jan 2000 14:24:33.000,26.207,59.269,12622.667961
1 Jan 2000 14:24:43.000,25.880,59.140,12627.853661
1 Jan 2000 14:24:53.000,25.556,59.009,12633.101846
1 Jan 2000 14:25:03.000,25.236,58.878,12638.412391
1 Jan 2000 14:25:13.000,24.919,58.745,12643.785173
1 Jan 2000 14:25:23.000,24.605,58.612,12649.220066
1 Jan 2000 14:25:33.000,24.293,58.478,12654.716943
1 Jan 2000 14:25:43.000,23.985,58.342,12660.275675
1 Jan 2000 14:25:53.000,23.680,58.206,12665.896135
1 Jan 2000 14:26:03.000,23.378,58.069,12671.578190
1 Jan 2000 14:26:13.000,23.078,57.931,12677.321710
1 Jan 2000 14:26:23.000,22.782,57.792,12683.126561
1 Jan 2000 14:26:33.000,22.489,57.653,12688.992610
1 Jan 2000 14:26:43.000,22.198,57.512,12694.919721
1 Jan 2000 14:26:53.000,21.911,57.371,12700.907759
1 Jan 2000 14:27:03.000,21.626,57.229,12706.956586
1 Jan 2000 14:27:13.000,21.344,57.086,12713.066063
1 Jan 2000 14:27:23.000,21.065,56.942,12719.236050
1 Jan 2000 14:27:33.000,20.789,56.797,12725.466408
1 Jan 2000 14:27:43.000,20.515,56.652,12731.756994
1 Jan 2000 14:27:53.000,20.245,56.506,12738.107666
1 Jan 2000 14:28:03.000,19.976,56.360,12744.518279
1 Jan 2000 14:28:13.000,19.711,56.212,12750.988689
1 Jan 2000 14:28:23.000,19.449,56.064,12757.518750
1 Jan 2000 14:28:33.000,19.189,55.915,12764.108313
1 Jan 2000 14:28:43.000,18.931,55.766,12770.757233
1 Jan 2000 14:28:53.000,18.677,55.616,12777.465359
1 Jan 2000 14:29:03.000,18.425,55.465,12784.232541
1 Jan 2000 14:29:13.000,18.175,55.313,12791.058628
1 Jan 2000 14:29:23.000,17.928,55.161,12797.943468
1 Jan 2000 14:29:33.000,17.684,55.009,12804.886909
1 Jan 2000 14:29:43.000,17.442,54.855,12811.888795
1 Jan 2000 14:29:53.000,17.202,54.701,12818.948973
1 Jan 2000 14:30:03.000,16.965,54.547,12826.067286
1 Jan 2000 14:30:13.000,16.731,54.392,12833.243578
1 Jan 2000 14:30:23.000,16.499,54.237,12840.477690
1 Jan 2000 14:30:33.000,16.269,54.080,12847.769464
1 Jan 2000 14:30:43.000,16.042,53.924,12855.118741
1 Jan 2000 14:30:53.000,15.817,53.767,12862.525360
1 Jan 2000 14:31:03.000,15.594,53.609,12869.989159
1 Jan 2000 14:31:13.000,15.374,53.451,12877.509977
1 Jan 2000 14:31:23.000,15.156,53.292,12885.087650
1 Jan 2000 14:31:33.000,14.940,53.133,12892.722015
1 Jan 2000 14:31:43.000,14.726,52.973,12900.412906
1 Jan 2000 14:31:53.000,14.515,52.813,12908.160159
1 Jan 2000 14:32:03.000,14.306,52.653,12915.963607
1 Jan 2000 14:32:13.000,14.099,52.492,12923.823082
1 Jan 2000 14:32:23.000,13.894,52.330,12931.738417
1 Jan 2000 14:32:33.000,13.691,52.169,12939.709442
1 Jan 2000 14:32:43.000,13.490,52.006,12947.735989
1 Jan 2000 14:32:53.000,13.292,51.844,12955.817887
1 Jan 2000 14:33:03.000,13.095,51.681,12963.954964
1 Jan 2000 14:33:13.000,12.901,51.517,12972.147050
1 Jan 2000 14:33:23.000,12.708,51.353,12980.393971
1 Jan 2000 14:33:33.000,12.518,51.189,12988.695554
1 Jan 2000 14:33:43.000,12.330,51.025,12997.051626
1 Jan 2000 14:33:53.000,12.143,50.860,13005.462011
1 Jan 2000 14:34:03.000,11.959,50.694,13013.926534
1 Jan 2000 14:34:13.000,11.776,50.529,13022.445019
1 Jan 2000 14:34:23.000,11.595,50.363,13031.017289
1 Jan 2000 14:34:33.000,11.416,50.197,13039.643167
1 Jan 2000 14:34:43.000,11.239,50.030,13048.322475
1 Jan 2000 14:34:53.000,11.064,49.863,13057.055034
1 Jan 2000 14:35:03.000,10.891,49.696,13065.840665
1 Jan 2000 14:35:13.000,10.719,49.529,13074.679187
1 Jan 2000 14:35:23.000,10.550,49.361,13083.570421
1 Jan 2000 14:35:33.000,10.382,49.193,13092.514184
1 Jan 2000 14:35:43.000,10.215,49.025,13101.510296
1 Jan 2000 14:35:53.000,10.051,48.856,13110.558574
1 Jan 2000 14:36:03.000,9.888,48.687,13119.658835
1 Jan 2000 14:36:13.000,9.727,48.518,13128.810895
1 Jan 2000 14:36:23.000,9.568,48.349,13138.014571
1 Jan 2000 14:36:33.000,9.410,48.180,13147.269678
1 Jan 2000 14:36:43.000,9.254,48.010,13156.576030
1 Jan 2000 14:36:53.000,9.099,47.840,13165.933443
1 Jan 2000 14:37:03.000,8.946,47.670,13175.341730
1 Jan 2000 14:37:13.000,8.795,47.499,13184.800704
1 Jan 2000 14:37:23.000,8.645,47.329,13194.310178
1 Jan 2000 14:37:33.000,8.497,47.158,13203.869965
1 Jan 2000 14:37:43.000,8.350,46.987,13213.479877
1 Jan 2000 14:37:53.000,8.205,46.816,13223.139724
1 Jan 2000 14:38:03.000,8.061,46.644,13232.849319
1 Jan 2000 14:38:13.000,7.919,46.473,13242.608471
1 Jan 2000 14:38:23.000,7.778,46.301,13252.416991
1 Jan 2000 14:38:33.000,7.639,46.129,13262.274688
1 Jan 2000 14:38:43.000,7.501,45.957,13272.181372
1 Jan 2000 14:38:53.000,7.365,45.785,13282.136852
1 Jan 2000 14:39:03.000,7.230,45.613,13292.140935
1 Jan 2000 14:39:13.000,7.097,45.440,13302.193431
1 Jan 2000 14:39:23.000,6.964,45.268,13312.294146
1 Jan 2000 14:39:33.000,6.834,45.095,13322.442889
1 Jan 2000 14:39:43.000,6.704,44.922,13332.639466
1 Jan 2000 14:39:53.000,6.576,44.749,13342.883683
1 Jan 2000 14:40:03.000,6.449,44.576,13353.175348
1 Jan 2000 14:40:13.000,6.324,44.403,13363.514266
1 Jan 2000 14:40:23.000,6.199,44.229,13373.900242
1 Jan 2000 14:40:33.000,6.077,44.056,13384.333083
1 Jan 2000 14:40:43.000,5.955,43.882,13394.812592
1 Jan 2000 14:40:53.000,5.835,43.708,13405.338575
1 Jan 2000 14:41:03.000,5.715,43.535,13415.910837
1 Jan 2000 14:41:13.000,5.597,43.361,13426.529181
1 Jan 2000 14:41:23.000,5.481,43.187,13437.193411
1 Jan 2000 14:41:33.000,5.365,43.013,13447.903330
1 Jan 2000 14:41:43.000,5.251,42.839,13458.658744
1 Jan 2000 14:41:53.000,5.138,42.665,13469.459453
1 Jan 2000 14:42:03.000,5.026,42.491,13480.305262
1 Jan 2000 14:42:13.000,4.915,42.316,13491.195972
1 Jan 2000 14:42:23.000,4.805,42.142,13502.131387
1 Jan 2000 14:42:33.000,4.697,41.967,13513.111309
1 Jan 2000 14:42:43.000,4.590,41.793,13524.135539
1 Jan 2000 14:42:53.000,4.483,41.619,13535.203880
1 Jan 2000 14:43:03.000,4.378,41.444,13546.316133
1 Jan 2000 14:43:13.000,4.274,41.269,13557.472100
1 Jan 2000 14:43:23.000,4.171,41.095,13568.671581
1 Jan 2000 14:43:33.000,4.069,40.920,13579.914379
1 Jan 2000 14:43:43.000,3.968,40.745,13591.200293
1 Jan 2000 14:43:53.000,3.868,40.571,13602.529125
1 Jan 2000 14:44:03.000,3.769,40.396,13613.900677
1 Jan 2000 14:44:13.000,3.672,40.221,13625.314747
1 Jan 2000 14:44:23.000,3.575,40.046,13636.771137
1 Jan 2000 14:44:33.000,3.479,39.871,13648.269646
1 Jan 2000 14:44:43.000,3.384,39.697,13659.810076
1 Jan 2000 14:44:53.000,3.290,39.522,13671.392227
1 Jan 2000 14:45:03.000,3.197,39.347,13683.015897
1 Jan 2000 14:45:13.000,3.105,39.172,13694.680888
1 Jan 2000 14:45:23.000,3.015,38.997,13706.386999
1 Jan 2000 14:45:33.000,2.925,38.822,13718.134031
1 Jan 2000 14:45:43.000,2.835,38.648,13729.921781
1 Jan 2000 14:45:53.000,2.747,38.473,13741.750052
1 Jan 2000 14:46:03.000,2.660,38.298,13753.618641
1 Jan 2000 14:46:13.000,2.574,38.123,13765.527349
1 Jan 2000 14:46:23.000,2.488,37.948,13777.475975
1 Jan 2000 14:46:33.000,2.404,37.774,13789.464319
1 Jan 2000 14:46:43.000,2.320,37.599,13801.492180
1 Jan 2000 14:46:53.000,2.237,37.424,13813.559358
1 Jan 2000 14:47:03.000,2.155,37.249,13825.665652
1 Jan 2000 14:47:13.000,2.074,37.075,13837.810861
1 Jan 2000 14:47:23.000,1.994,36.900,13849.994786
1 Jan 2000 14:47:33.000,1.915,36.725,13862.217226
1 Jan 2000 14:47:43.000,1.836,36.551,13874.477980
1 Jan 2000 14:47:53.000,1.758,36.376,13886.776847
1 Jan 2000 14:48:03.000,1.681,36.202,13899.113628
1 Jan 2000 14:48:13.000,1.605,36.027,13911.488122
1 Jan 2000 14:48:23.000,1.530,35.853,13923.900128
1 Jan 2000 14:48:33.000,1.456,35.679,13936.349447
1 Jan 2000 14:48:43.000,1.382,35.504,13948.835877
1 Jan 2000 14:48:53.000,1.309,35.330,13961.359220
1 Jan 2000 14:49:03.000,1.237,35.156,13973.919274
1 Jan 2000 14:49:11.886,1.173,35.001,13985.110925

Interval Statistics
"Min Elevation",1 Jan 2000 14:49:11.886,1.173,35.001,13985.110925
"Max Elevation",1 Jan 2000 14:11:38.207,60.297,64.847,12418.571808
"Mean Elevation",,,55.550,
"Min Range",1 Jan 2000 14:11:31.149,60.658,64.847,12418.554945
"Max Range",1 Jan 2000 14:49:11.886,1.173,35.001,13985.110925
"Mean Range",,,,12832.434390

"Time (UTCG)","Azimuth (deg)","Elevation (deg)","Range (km)"
2 Jan 2000 04:58:22.935,348.599,52.693,12914.110895
2 Jan 2000 04:58:32.000,348.438,52.850,12906.490207
2 Jan 2000 04:58:42.000,348.258,53.023,12898.134907
2 Jan 2000 04:58:52.000,348.075,53.195,12889.833967
2 Jan 2000 04:59:02.000,347.891,53.368,12881.587563
2 Jan 2000 04:59:12.000,347.704,53.540,12873.395870
2 Jan 2000 04:59:22.000,347.516,53.711,12865.259061
2 Jan 2000 04:59:32.000,347.325,53.883,12857.177311
2 Jan 2000 04:59:42.000,347.132,54.054,12849.150791
2 Jan 2000 04:59:52.000,346.936,54.224,12841.179674
2 Jan 2000 05:00:02.000,346.738,54.395,12833.264130
2 Jan 2000 05:00:12.000,346.538,54.564,12825.404330
2 Jan 2000 05:00:22.000,346.336,54.734,12817.600444
2 Jan 2000 05:00:32.000,346.131,54.903,12809.852641
2 Jan 2000 05:00:42.000,345.924,55.072,12802.161087
2 Jan 2000 05:00:52.000,345.715,55.240,12794.525951
2 Jan 2000 05:01:02.000,345.503,55.408,12786.947399
2 Jan 2000 05:01:12.000,345.288,55.576,12779.425596
2 Jan 2000 05:01:22.000,345.071,55.743,12771.960707
2 Jan 2000 05:01:32.000,344.851,55.909,12764.552896
2 Jan 2000 05:01:42.000,344.629,56.075,12757.202326
2 Jan 2000 05:01:52.000,344.404,56.241,12749.909159
2 Jan 2000 05:02:02.000,344.177,56.406,12742.673556
2 Jan 2000 05:02:12.000,343.947,56.571,12735.495677
2 Jan 2000 05:02:22.000,343.714,56.735,12728.375683
2 Jan 2000 05:02:32.000,343.479,56.898,12721.313731
2 Jan 2000 05:02:42.000,343.240,57.062,12714.309979
2 Jan 2000 05:02:52.000,342.999,57.224,12707.364584
2 Jan 2000 05:03:02.000,342.755,57.386,12700.477701
2 Jan 2000 05:03:12.000,342.509,57.548,12693.649486
2 Jan 2000 05:03:22.000,342.259,57.708,12686.880091
2 Jan 2000 05:03:32.000,342.006,57.869,12680.169671
2 Jan 2000 05:03:42.000,341.751,58.028,12673.518376
2 Jan 2000 05:03:52.000,341.492,58.187,12666.926358
2 Jan 2000 05:04:02.000,341.231,58.346,12660.393766
2 Jan 2000 05:04:12.000,340.966,58.503,12653.920750
2 Jan 2000 05:04:22.000,340.698,58.661,12647.507457
2 Jan 2000 05:04:32.000,340.428,58.817,12641.154033
2 Jan 2000 05:04:42.000,340.154,58.973,12634.860625
2 Jan 2000 05:04:52.000,339.876,59.128,12628.627377
2 Jan 2000 05:05:02.000,339.596,59.282,12622.454433
2 Jan 2000 05:05:12.000,339.312,59.436,12616.341936
2 Jan 2000 05:05:22.000,339.025,59.588,12610.290026
2 Jan 2000 05:05:32.000,338.735,59.740,12604.298844
2 Jan 2000 05:05:42.000,338.442,59.892,12598.368530
2 Jan 2000 05:05:52.000,338.145,60.042,12592.499221
2 Jan 2000 05:06:02.000,337.844,60.192,12586.691055
2 Jan 2000 05:06:12.000,337.540,60.341,12580.944167
2 Jan 2000 05:06:22.000,337.233,60.489,12575.258691
2 Jan 2000 05:06:32.000,336.922,60.636,12569.634763
2 Jan 2000 05:06:42.000,336.608,60.782,12564.072513
2 Jan 2000 05:06:52.000,336.290,60.927,12558.572073
2 Jan 2000 05:07:02.000,335.968,61.072,12553.133574
2 Jan 2000 05:07:12.000,335.643,61.215,12547.757143
2 Jan 2000 05:07:22.000,335.314,61.358,12542.442909
2 Jan 2000 05:07:32.000,334.981,61.499,12537.190998
2 Jan 2000 05:07:42.000,334.645,61.640,12532.001535
2 Jan 2000 05:07:52.000,334.305,61.780,12526.874644
2 Jan 2000 05:08:02.000,333.961,61.918,12521.810448
2 Jan 2000 05:08:12.000,333.613,62.056,12516.809068
2 Jan 2000 05:08:22.000,333.262,62.192,12511.870624
2 Jan 2000 05:08:32.000,332.906,62.328,12506.995236
2 Jan 2000 05:08:42.000,332.547,62.462,12502.183021
2 Jan 2000 05:08:52.000,332.184,62.595,12497.434094
2 Jan 2000 05:09:02.000,331.816,62.727,12492.748573
2 Jan 2000 05:09:12.000,331.445,62.858,12488.126569
2 Jan 2000 05:09:22.000,331.070,62.987,12483.568196
2 Jan 2000 05:09:32.000,330.691,63.116,12479.073565
2 Jan 2000 05:09:42.000,330.308,63.243,12474.642785
2 Jan 2000 05:09:52.000,329.921,63.369,12470.275964
2 Jan 2000 05:10:02.000,329.529,63.494,12465.973211
2 Jan 2000 05:10:12.000,329.134,63.617,12461.734630
2 Jan 2000 05:10:22.000,328.734,63.739,12457.560327
2 Jan 2000 05:10:32.000,328.331,63.860,12453.450403
2 Jan 2000 05:10:42.000,327.923,63.979,12449.404961
2 Jan 2000 05:10:52.000,327.511,64.097,12445.424101
2 Jan 2000 05:11:02.000,327.095,64.214,12441.507921
2 Jan 2000 05:11:12.000,326.675,64.329,12437.656520
2 Jan 2000 05:11:22.000,326.251,64.443,12433.869993
2 Jan 2000 05:11:32.000,325.823,64.555,12430.148434
2 Jan 2000 05:11:42.000,325.390,64.666,12426.491937
2 Jan 2000 05:11:52.000,324.954,64.775,12422.900593
2 Jan 2000 05:12:02.000,324.513,64.883,12419.374494
2 Jan 2000 05:12:12.000,324.068,64.989,12415.913727
2 Jan 2000 05:12:22.000,323.619,65.094,12412.518380
2 Jan 2000 05:12:32.000,323.166,65.197,12409.188538
2 Jan 2000 05:12:42.000,322.708,65.298,12405.924287
2 Jan 2000 05:12:52.000,322.247,65.398,12402.725709
2 Jan 2000 05:13:02.000,321.781,65.496,12399.592886
2 Jan 2000 05:13:12.000,321.312,65.592,12396.525898
2 Jan 2000 05:13:22.000,320.838,65.686,12393.524822
2 Jan 2000 05:13:32.000,320.361,65.779,12390.589737
2 Jan 2000 05:13:42.000,319.879,65.870,12387.720717
2 Jan 2000 05:13:52.000,319.394,65.959,12384.917837
2 Jan 2000 05:14:02.000,318.905,66.047,12382.181168
2 Jan 2000 05:14:12.000,318.411,66.132,12379.510783
2 Jan 2000 05:14:22.000,317.914,66.216,12376.906749
2 Jan 2000 05:14:32.000,317.414,66.298,12374.369135
2 Jan 2000 05:14:42.000,316.909,66.378,12371.898007
2 Jan 2000 05:14:52.000,316.401,66.456,12369.493430
2 Jan 2000 05:15:02.000,315.889,66.532,12367.155468
2 Jan 2000 05:15:12.000,315.374,66.606,12364.884180
2 Jan 2000 05:15:22.000,314.855,66.678,12362.679628
2 Jan 2000 05:15:32.000,314.332,66.748,12360.541870
2 Jan 2000 05:15:42.000,313.807,66.816,12358.470963
2 Jan 2000 05:15:52.000,313.278,66.882,12356.466962
2 Jan 2000 05:16:02.000,312.745,66.946,12354.529921
2 Jan 2000 05:16:12.000,312.210,67.008,12352.659891
2 Jan 2000 05:16:22.000,311.671,67.067,12350.856924
2 Jan 2000 05:16:32.000,311.130,67.125,12349.121068
2 Jan 2000 05:16:42.000,310.585,67.180,12347.452371
2 Jan 2000 05:16:52.000,310.038,67.234,12345.850878
2 Jan 2000 05:17:02.000,309.488,67.285,12344.316633
2 Jan 2000 05:17:12.000,308.935,67.333,12342.849678
2 Jan 2000 05:17:22.000,308.380,67.380,12341.450056
2 Jan 2000 05:17:32.000,307.823,67.424,12340.117803
2 Jan 2000 05:17:42.000,307.263,67.467,12338.852960
2 Jan 2000 05:17:52.000,306.700,67.506,12337.655560
2 Jan 2000 05:18:02.000,306.136,67.544,12336.525639
2 Jan 2000 05:18:12.000,305.570,67.579,12335.463229
2 Jan 2000 05:18:22.000,305.002,67.612,12334.468361
2 Jan 2000 05:18:32.000,304.432,67.643,12333.541065
2 Jan 2000 05:18:42.000,303.860,67.671,12332.681368
2 Jan 2000 05:18:52.000,303.287,67.697,12331.889296
2 Jan 2000 05:19:02.000,302.712,67.721,12331.164875
2 Jan 2000 05:19:12.000,302.136,67.742,12330.508125
2 Jan 2000 05:19:22.000,301.559,67.761,12329.919070
2 Jan 2000 05:19:32.000,300.981,67.778,12329.397728
2 Jan 2000 05:19:42.000,300.402,67.792,12328.944117
2 Jan 2000 05:19:52.000,299.822,67.804,12328.558253
2 Jan 2000 05:20:02.000,299.242,67.814,12328.240150
2 Jan 2000 05:20:12.000,298.661,67.821,12327.989822
2 Jan 2000 05:20:22.000,298.080,67.825,12327.807280
2 Jan 2000 05:20:32.000,297.498,67.828,12327.692533
2 Jan 2000 05:20:42.000,296.916,67.828,12327.645589
2 Jan 2000 05:20:52.000,296.335,67.825,12327.666455
2 Jan 2000 05:21:02.000,295.753,67.820,12327.755134
2 Jan 2000 05:21:12.000,295.172,67.813,12327.911629
2 Jan 2000 05:21:22.000,294.591,67.803,12328.135942
2 Jan 2000 05:21:32.000,294.011,67.791,12328.428073
2 Jan 2000 05:21:42.000,293.431,67.777,12328.788018
2 Jan 2000 05:21:52.000,292.852,67.760,12329.215775
2 Jan 2000 05:22:02.000,292.274,67.741,12329.711337
2 Jan 2000 05:22:12.000,291.697,67.720,12330.274698
2 Jan 2000 05:22:22.000,291.122,67.696,12330.905849
2 Jan 2000 05:22:32.000,290.547,67.670,12331.604779
2 Jan 2000 05:22:42.000,289.974,67.641,12332.371476
2 Jan 2000 05:22:52.000,289.403,67.610,12333.205926
2 Jan 2000 05:23:02.000,288.833,67.577,12334.108114
2 Jan 2000 05:23:12.000,288.265,67.542,12335.078023
2 Jan 2000 05:23:22.000,287.699,67.504,12336.115633
2 Jan 2000 05:23:32.000,287.135,67.464,12337.220925
2 Jan 2000 05:23:42.000,286.573,67.422,12338.393876
2 Jan 2000 05:23:52.000,286.013,67.377,12339.634463
2 Jan 2000 05:24:02.000,285.456,67.330,12340.942659
2 Jan 2000 05:24:12.000,284.901,67.281,12342.318439
2 Jan 2000 05:24:22.000,284.349,67.230,12343.761773
2 Jan 2000 05:24:32.000,283.799,67.176,12345.272630
2 Jan 2000 05:24:42.000,283.252,67.121,12346.850979
2 Jan 2000 05:24:52.000,282.708,67.063,12348.496787
2 Jan 2000 05:25:02.000,282.166,67.003,12350.210017
2 Jan 2000 05:25:12.000,281.628,66.941,12351.990633
2 Jan 2000 05:25:22.000,281.092,66.877,12353.838597
2 Jan 2000 05:25:32.000,280.560,66.811,12355.753868
2 Jan 2000 05:25:42.000,280.031,66.742,12357.736404
2 Jan 2000 05:25:52.000,279.506,66.672,12359.786162
2 Jan 2000 05:26:02.000,278.983,66.600,12361.903097
2 Jan 2000 05:26:12.000,278.464,66.525,12364.087162
2 Jan 2000 05:26:22.000,277.949,66.449,12366.338309
2 Jan 2000 05:26:32.000,277.437,66.371,12368.656488
2 Jan 2000 05:26:42.000,276.929,66.290,12371.041647
2 Jan 2000 05:26:52.000,276.424,66.208,12373.493733
2 Jan 2000 05:27:02.000,275.923,66.124,12376.012693
2 Jan 2000 05:27:12.000,275.426,66.038,12378.598469
2 Jan 2000 05:27:22.000,274.932,65.950,12381.251003
2 Jan 2000 05:27:32.000,274.443,65.861,12383.970236
2 Jan 2000 05:27:42.000,273.957,65.769,12386.756108
2 Jan 2000 05:27:52.000,273.475,65.676,12389.608555
2 Jan 2000 05:28:02.000,272.997,65.581,12392.527513
2 Jan 2000 05:28:12.000,272.523,65.484,12395.512917
2 Jan 2000 05:28:22.000,272.053,65.386,12398.564699
2 Jan 2000 05:28:32.000,271.586,65.285,12401.682791
2 Jan 2000 05:28:42.000,271.124,65.184,12404.867121
2 Jan 2000 05:28:52.000,270.666,65.080,12408.117619
2 Jan 2000 05:29:02.000,270.212,64.975,12411.434211
2 Jan 2000 05:29:12.000,269.762,64.868,12414.816822
2 Jan 2000 05:29:22.000,269.316,64.760,12418.265375
2 Jan 2000 05:29:32.000,268.874,64.650,12421.779792
2 Jan 2000 05:29:42.000,268.436,64.539,12425.359994
2 Jan 2000 05:29:52.000,268.002,64.426,12429.005900
2 Jan 2000 05:30:02.000,267.572,64.312,12432.717427
2 Jan 2000 05:30:12.000,267.146,64.196,12436.494492
2 Jan 2000 05:30:22.000,266.725,64.079,12440.337008
2 Jan 2000 05:30:32.000,266.307,63.960,12444.244890
2 Jan 2000 05:30:42.000,265.894,63.840,12448.218047
2 Jan 2000 05:30:52.000,265.484,63.719,12452.256392
2 Jan 2000 05:31:02.000,265.079,63.596,12456.359831
2 Jan 2000 05:31:12.000,264.677,63.472,12460.528274
2 Jan 2000 05:31:22.000,264.280,63.346,12464.761624
2 Jan 2000 05:31:32.000,263.886,63.220,12469.059787
2 Jan 2000 05:31:42.000,263.496,63.092,12473.422666
2 Jan 2000 05:31:52.000,263.111,62.962,12477.850161
2 Jan 2000 05:32:02.000,262.729,62.832,12482.342174
2 Jan 2000 05:32:12.000,262.351,62.700,12486.898603
2 Jan 2000 05:32:22.000,261.978,62.568,12491.519345
2 Jan 2000 05:32:32.000,261.607,62.434,12496.204296
2 Jan 2000 05:32:42.000,261.241,62.299,12500.953350
2 Jan 2000 05:32:52.000,260.879,62.162,12505.766402
2 Jan 2000 05:33:02.000,260.520,62.025,12510.643342
2 Jan 2000 05:33:12.000,260.166,61.887,12515.584061
2 Jan 2000 05:33:22.000,259.815,61.747,12520.588448
2 Jan 2000 05:33:32.000,259.467,61.607,12525.656391
2 Jan 2000 05:33:42.000,259.123,61.465,12530.787777
2 Jan 2000 05:33:52.000,258.783,61.323,12535.982490
2 Jan 2000 05:34:02.000,258.447,61.179,12541.240414
2 Jan 2000 05:34:12.000,258.114,61.035,12546.561433
2 Jan 2000 05:34:22.000,257.785,60.890,12551.945426
2 Jan 2000 05:34:32.000,257.459,60.743,12557.392274
2 Jan 2000 05:34:42.000,257.137,60.596,12562.901856
2 Jan 2000 05:34:52.000,256.818,60.448,12568.474050
2 Jan 2000 05:35:02.000,256.503,60.299,12574.108730
2 Jan 2000 05:35:12.000,256.191,60.149,12579.805773
2 Jan 2000 05:35:22.000,255.883,59.998,12585.565051
2 Jan 2000 05:35:32.000,255.578,59.847,12591.386438
2 Jan 2000 05:35:42.000,255.276,59.695,12597.269804
2 Jan 2000 05:35:52.000,254.977,59.541,12603.215019
2 Jan 2000 05:36:02.000,254.682,59.388,12609.221953
2 Jan 2000 05:36:12.000,254.390,59.233,12615.290472
2 Jan 2000 05:36:22.000,254.101,59.078,12621.420444
2 Jan 2000 05:36:32.000,253.815,58.921,12627.611733
2 Jan 2000 05:36:42.000,253.532,58.765,12633.864203
2 Jan 2000 05:36:52.000,253.253,58.607,12640.177719
2 Jan 2000 05:37:02.000,252.976,58.449,12646.552140
2 Jan 2000 05:37:12.000,252.702,58.290,12652.987328
2 Jan 2000 05:37:22.000,252.432,58.130,12659.483143
2 Jan 2000 05:37:32.000,252.164,57.970,12666.039443
2 Jan 2000 05:37:42.000,251.900,57.809,12672.656085
2 Jan 2000 05:37:52.000,251.638,57.648,12679.332925
2 Jan 2000 05:38:02.000,251.379,57.486,12686.069819
2 Jan 2000 05:38:12.000,251.122,57.323,12692.866620
2 Jan 2000 05:38:22.000,250.869,57.160,12699.723182
2 Jan 2000 05:38:32.000,250.618,56.996,12706.639357
2 Jan 2000 05:38:42.000,250.370,56.832,12713.614995
2 Jan 2000 05:38:52.000,250.125,56.667,12720.649946
2 Jan 2000 05:39:02.000,249.883,56.501,12727.744060
2 Jan 2000 05:39:12.000,249.643,56.335,12734.897183
2 Jan 2000 05:39:22.000,249.405,56.169,12742.109163
2 Jan 2000 05:39:32.000,249.170,56.002,12749.379845
2 Jan 2000 05:39:42.000,248.938,55.834,12756.709075
2 Jan 2000 05:39:52.000,248.708,55.667,12764.096697
2 Jan 2000 05:40:02.000,248.481,55.498,12771.542552
2 Jan 2000 05:40:12.000,248.256,55.329,12779.046484
2 Jan 2000 05:40:22.000,248.034,55.160,12786.608332
2 Jan 2000 05:40:32.000,247.813,54.990,12794.227938
2 Jan 2000 05:40:42.000,247.596,54.820,12801.905141
2 Jan 2000 05:40:52.000,247.380,54.650,12809.639778
2 Jan 2000 05:41:02.000,247.167,54.479,12817.431687
2 Jan 2000 05:41:12.000,246.956,54.307,12825.280704
2 Jan 2000 05:41:22.000,246.748,54.136,12833.186665
2 Jan 2000 05:41:32.000,246.541,53.964,12841.149405
2 Jan 2000 05:41:42.000,246.337,53.791,12849.168758
2 Jan 2000 05:41:52.000,246.135,53.619,12857.244556
2 Jan 2000 05:42:02.000,245.935,53.445,12865.376632
2 Jan 2000 05:42:12.000,245.737,53.272,12873.564817
2 Jan 2000 05:42:22.000,245.541,53.098,12881.808941
2 Jan 2000 05:42:32.000,245.347,52.924,12890.108835
2 Jan 2000 05:42:42.000,245.156,52.750,12898.464327
2 Jan 2000 05:42:52.000,244.966,52.575,12906.875245
2 Jan 2000 05:43:02.000,244.778,52.400,12915.341417
2 Jan 2000 05:43:12.000,244.592,52.225,12923.862669
2 Jan 2000 05:43:22.000,244.408,52.049,12932.438826
2 Jan 2000 05:43:32.000,244.226,51.873,12941.069715
2 Jan 2000 05:43:42.000,244.046,51.697,12949.755160
2 Jan 2000 05:43:52.000,243.868,51.521,12958.494983
2 Jan 2000 05:44:02.000,243.691,51.344,12967.289009
2 Jan 2000 05:44:12.000,243.517,51.167,12976.137058
2 Jan 2000 05:44:22.000,243.344,50.990,12985.038953
2 Jan 2000 05:44:32.000,243.173,50.813,12993.994515
2 Jan 2000 05:44:42.000,243.003,50.635,13003.003563
2 Jan 2000 05:44:52.000,242.836,50.458,13012.065917
2 Jan 2000 05:45:02.000,242.670,50.280,13021.181396
2 Jan 2000 05:45:12.000,242.506,50.101,13030.349818
2 Jan 2000 05:45:22.000,242.343,49.923,13039.571001
2 Jan 2000 05:45:32.000,242.182,49.745,13048.844761
2 Jan 2000 05:45:42.000,242.022,49.566,13058.170915
2 Jan 2000 05:45:52.000,241.865,49.387,13067.549279
2 Jan 2000 05:46:02.000,241.708,49.208,13076.979667
2 Jan 2000 05:46:12.000,241.554,49.029,13086.461895
2 Jan 2000 05:46:22.000,241.400,48.849,13095.995776
2 Jan 2000 05:46:32.000,241.249,48.670,13105.581123
2 Jan 2000 05:46:42.000,241.099,48.490,13115.217750
2 Jan 2000 05:46:52.000,240.950,48.310,13124.905468
2 Jan 2000 05:47:02.000,240.803,48.130,13134.644090
2 Jan 2000 05:47:12.000,240.657,47.950,13144.433427
2 Jan 2000 05:47:22.000,240.512,47.770,13154.273289
2 Jan 2000 05:47:32.000,240.369,47.590,13164.163487
2 Jan 2000 05:47:42.000,240.228,47.409,13174.103830
2 Jan 2000 05:47:52.000,240.087,47.229,13184.094128
2 Jan 2000 05:48:02.000,239.948,47.048,13194.134189
2 Jan 2000 05:48:12.000,239.811,46.867,13204.223822
2 Jan 2000 05:48:22.000,239.675,46.687,13214.362835
2 Jan 2000 05:48:32.000,239.540,46.506,13224.551034
2 Jan 2000 05:48:42.000,239.406,46.325,13234.788228
2 Jan 2000 05:48:52.000,239.273,46.144,13245.074222
2 Jan 2000 05:49:02.000,239.142,45.962,13255.408822
2 Jan 2000 05:49:12.000,239.012,45.781,13265.791835
2 Jan 2000 05:49:22.000,238.883,45.600,13276.223065
2 Jan 2000 05:49:32.000,238.756,45.419,13286.702318
2 Jan 2000 05:49:42.000,238.629,45.237,13297.229398
2 Jan 2000 05:49:52.000,238.504,45.056,13307.804109
2 Jan 2000 05:50:02.000,238.380,44.874,13318.426255
2 Jan 2000 05:50:12.000,238.257,44.693,13329.095639
2 Jan 2000 05:50:22.000,238.136,44.511,13339.812065
2 Jan 2000 05:50:32.000,238.015,44.329,13350.575335
2 Jan 2000 05:50:42.000,237.895,44.148,13361.385252
2 Jan 2000 05:50:52.000,237.777,43.966,13372.241618
2 Jan 2000 05:51:02.000,237.659,43.784,13383.144234
2 Jan 2000 05:51:12.000,237.543,43.602,13394.092903
2 Jan 2000 05:51:22.000,237.428,43.421,13405.087424
2 Jan 2000 05:51:32.000,237.314,43.239,13416.127600
2 Jan 2000 05:51:42.000,237.200,43.057,13427.213231
2 Jan 2000 05:51:52.000,237.088,42.875,13438.344117
2 Jan 2000 05:52:02.000,236.977,42.693,13449.520059
2 Jan 2000 05:52:12.000,236.867,42.511,13460.740856
2 Jan 2000 05:52:22.000,236.757,42.330,13472.006308
2 Jan 2000 05:52:32.000,236.649,42.148,13483.316214
2 Jan 2000 05:52:42.000,236.542,41.966,13494.670373
2 Jan 2000 05:52:52.000,236.435,41.784,13506.068585
2 Jan 2000 05:53:02.000,236.330,41.602,13517.510648
2 Jan 2000 05:53:12.000,236.225,41.420,13528.996361
2 Jan 2000 05:53:22.000,236.122,41.239,13540.525522
2 Jan 2000 05:53:32.000,236.019,41.057,13552.097929
2 Jan 2000 05:53:42.000,235.917,40.875,13563.713380
2 Jan 2000 05:53:52.000,235.816,40.693,13575.371673
2 Jan 2000 05:54:02.000,235.716,40.512,13587.072606
2 Jan 2000 05:54:12.000,235.616,40.330,13598.815977
2 Jan 2000 05:54:22.000,235.518,40.149,13610.601581
2 Jan 2000 05:54:32.000,235.420,39.967,13622.429218
2 Jan 2000 05:54:42.000,235.323,39.785,13634.298683
2 Jan 2000 05:54:52.000,235.227,39.604,13646.209774
2 Jan 2000 05:55:02.000,235.132,39.422,13658.162288
2 Jan 2000 05:55:12.000,235.038,39.241,13670.156021
2 Jan 2000 05:55:22.000,234.944,39.060,13682.190770
2 Jan 2000 05:55:32.000,234.851,38.878,13694.266332
2 Jan 2000 05:55:42.000,234.759,38.697,13706.382503
2 Jan 2000 05:55:52.000,234.668,38.516,13718.539079
2 Jan 2000 05:56:02.000,234.577,38.335,13730.735857
2 Jan 2000 05:56:12.000,234.487,38.154,13742.972633
2 Jan 2000 05:56:22.000,234.398,37.973,13755.249204
2 Jan 2000 05:56:32.000,234.310,37.792,13767.565364
2 Jan 2000 05:56:42.000,234.222,37.611,13779.920911
2 Jan 2000 05:56:52.000,234.135,37.430,13792.315640
2 Jan 2000 05:57:02.000,234.049,37.249,13804.749348
2 Jan 2000 05:57:12.000,233.963,37.069,13817.221830
2 Jan 2000 05:57:22.000,233.878,36.888,13829.732882
2 Jan 2000 05:57:32.000,233.794,36.708,13842.282301
2 Jan 2000 05:57:42.000,233.710,36.527,13854.869882
2 Jan 2000 05:57:52.000,233.627,36.347,13867.495421
2 Jan 2000 05:58:02.000,233.545,36.166,13880.158715
2 Jan 2000 05:58:12.000,233.463,35.986,13892.859559
2 Jan 2000 05:58:22.000,233.382,35.806,13905.597749
2 Jan 2000 05:58:32.000,233.302,35.626,13918.373081
2 Jan 2000 05:58:42.000,233.222,35.446,13931.185351
2 Jan 2000 05:58:52.000,233.143,35.266,13944.034356
2 Jan 2000 05:59:02.000,233.064,35.087,13956.919891
2 Jan 2000 05:59:06.780,233.027,35.001,13963.092621

Interval Statistics
"Min Elevation",2 Jan 2000 05:59:06.780,233.027,35.001,13963.092621
"Max Elevation",2 Jan 2000 05:20:36.722,297.224,67.828,12327.661919
"Mean Elevation",,,57.168,
"Min Range",2 Jan 2000 05:20:43.923,296.805,67.827,12327.644336
"Max Range",2 Jan 2000 05:59:06.780,233.027,35.001,13963.092621
"Mean Range",,,,12762.060810

"Time (UTCG)","Azimuth (deg)","Elevation (deg)","Range (km)"
2 Jan 2000 17:13:32.148,224.552,50.090,13028.479696
2 Jan 2000 17:13:42.000,224.785,50.232,13021.182667
2 Jan 2000 17:13:52.000,225.022,50.375,13013.821993
2 Jan 2000 17:14:02.000,225.261,50.519,13006.507662
2 Jan 2000 17:14:12.000,225.502,50.662,12999.239768
2 Jan 2000 17:14:22.000,225.744,50.805,12992.018408
2 Jan 2000 17:14:32.000,225.988,50.947,12984.843676
2 Jan 2000 17:14:42.000,226.233,51.089,12977.715667
2 Jan 2000 17:14:52.000,226.480,51.230,12970.634475
2 Jan 2000 17:15:02.000,226.729,51.372,12963.600193
2 Jan 2000 17:15:12.000,226.979,51.512,12956.612913
2 Jan 2000 17:15:22.000,227.231,51.653,12949.672726
2 Jan 2000 17:15:32.000,227.484,51.792,12942.779724
2 Jan 2000 17:15:42.000,227.739,51.932,12935.933997
2 Jan 2000 17:15:52.000,227.996,52.071,12929.135634
2 Jan 2000 17:16:02.000,228.255,52.210,12922.384725
2 Jan 2000 17:16:12.000,228.515,52.348,12915.681356
2 Jan 2000 17:16:22.000,228.777,52.485,12909.025616
2 Jan 2000 17:16:32.000,229.041,52.623,12902.417592
2 Jan 2000 17:16:42.000,229.306,52.759,12895.857368
2 Jan 2000 17:16:52.000,229.573,52.896,12889.345031
2 Jan 2000 17:17:02.000,229.842,53.032,12882.880664
2 Jan 2000 17:17:12.000,230.113,53.167,12876.464352
2 Jan 2000 17:17:22.000,230.385,53.302,12870.096177
2 Jan 2000 17:17:32.000,230.660,53.436,12863.776222
2 Jan 2000 17:17:42.000,230.936,53.570,12857.504567
2 Jan 2000 17:17:52.000,231.214,53.703,12851.281294
2 Jan 2000 17:18:02.000,231.493,53.836,12845.106482
2 Jan 2000 17:18:12.000,231.775,53.968,12838.980211
2 Jan 2000 17:18:22.000,232.059,54.100,12832.902558
2 Jan 2000 17:18:32.000,232.344,54.231,12826.873602
2 Jan 2000 17:18:42.000,232.631,54.362,12820.893419
2 Jan 2000 17:18:52.000,232.920,54.492,12814.962084
2 Jan 2000 17:19:02.000,233.211,54.621,12809.079674
2 Jan 2000 17:19:12.000,233.505,54.750,12803.246262
2 Jan 2000 17:19:22.000,233.799,54.878,12797.461922
2 Jan 2000 17:19:32.000,234.096,55.006,12791.726727
2 Jan 2000 17:19:42.000,234.395,55.133,12786.040749
2 Jan 2000 17:19:52.000,234.696,55.259,12780.404058
2 Jan 2000 17:20:02.000,234.999,55.385,12774.816725
2 Jan 2000 17:20:12.000,235.304,55.510,12769.278819
2 Jan 2000 17:20:22.000,235.610,55.635,12763.790410
2 Jan 2000 17:20:32.000,235.919,55.759,12758.351564
2 Jan 2000 17:20:42.000,236.230,55.882,12752.962349
2 Jan 2000 17:20:52.000,236.543,56.005,12747.622830
2 Jan 2000 17:21:02.000,236.858,56.126,12742.333074
2 Jan 2000 17:21:12.000,237.175,56.248,12737.093144
2 Jan 2000 17:21:22.000,237.494,56.368,12731.903104
2 Jan 2000 17:21:32.000,237.815,56.488,12726.763016
2 Jan 2000 17:21:42.000,238.138,56.607,12721.672943
2 Jan 2000 17:21:52.000,238.464,56.725,12716.632945
2 Jan 2000 17:22:02.000,238.791,56.843,12711.643083
2 Jan 2000 17:22:12.000,239.120,56.960,12706.703415
2 Jan 2000 17:22:22.000,239.452,57.076,12701.813999
2 Jan 2000 17:22:32.000,239.786,57.191,12696.974894
2 Jan 2000 17:22:42.000,240.122,57.306,12692.186156
2 Jan 2000 17:22:52.000,240.460,57.420,12687.447840
2 Jan 2000 17:23:02.000,240.800,57.533,12682.760002
2 Jan 2000 17:23:12.000,241.142,57.645,12678.122694
2 Jan 2000 17:23:22.000,241.486,57.756,12673.535971
2 Jan 2000 17:23:32.000,241.833,57.867,12668.999883
2 Jan 2000 17:23:42.000,242.182,57.976,12664.514483
2 Jan 2000 17:23:52.000,242.533,58.085,12660.079819
2 Jan 2000 17:24:02.000,242.886,58.193,12655.695943
2 Jan 2000 17:24:12.000,243.241,58.300,12651.362902
2 Jan 2000 17:24:22.000,243.599,58.407,12647.080743
2 Jan 2000 17:24:32.000,243.958,58.512,12642.849514
2 Jan 2000 17:24:42.000,244.320,58.617,12638.669259
2 Jan 2000 17:24:52.000,244.684,58.720,12634.540023
2 Jan 2000 17:25:02.000,245.051,58.823,12630.461851
2 Jan 2000 17:25:12.000,245.419,58.925,12626.434785
2 Jan 2000 17:25:22.000,245.790,59.025,12622.458867
2 Jan 2000 17:25:32.000,246.163,59.125,12618.534138
2 Jan 2000 17:25:42.000,246.538,59.224,12614.660638
2 Jan 2000 17:25:52.000,246.915,59.322,12610.838405
2 Jan 2000 17:26:02.000,247.294,59.419,12607.067479
2 Jan 2000 17:26:12.000,247.676,59.515,12603.347896
2 Jan 2000 17:26:22.000,248.060,59.610,12599.679692
2 Jan 2000 17:26:32.000,248.446,59.704,12596.062904
2 Jan 2000 17:26:42.000,248.834,59.797,12592.497564
2 Jan 2000 17:26:52.000,249.224,59.889,12588.983706
2 Jan 2000 17:27:02.000,249.617,59.980,12585.521364
2 Jan 2000 17:27:12.000,250.011,60.069,12582.110567
2 Jan 2000 17:27:22.000,250.408,60.158,12578.751347
2 Jan 2000 17:27:32.000,250.807,60.246,12575.443733
2 Jan 2000 17:27:42.000,251.208,60.332,12572.187753
2 Jan 2000 17:27:52.000,251.612,60.418,12568.983436
2 Jan 2000 17:28:02.000,252.017,60.502,12565.830807
2 Jan 2000 17:28:12.000,252.424,60.585,12562.729892
2 Jan 2000 17:28:22.000,252.834,60.668,12559.680716
2 Jan 2000 17:28:32.000,253.246,60.749,12556.683303
2 Jan 2000 17:28:42.000,253.659,60.828,12553.737674
2 Jan 2000 17:28:52.000,254.075,60.907,12550.843852
2 Jan 2000 17:29:02.000,254.493,60.985,12548.001857
2 Jan 2000 17:29:12.000,254.913,61.061,12545.211710
2 Jan 2000 17:29:22.000,255.335,61.136,12542.473428
2 Jan 2000 17:29:32.000,255.758,61.210,12539.787029
2 Jan 2000 17:29:42.000,256.184,61.283,12537.152530
2 Jan 2000 17:29:52.000,256.612,61.354,12534.569947
2 Jan 2000 17:30:02.000,257.042,61.424,12532.039295
2 Jan 2000 17:30:12.000,257.473,61.494,12529.560587
2 Jan 2000 17:30:22.000,257.907,61.561,12527.133835
2 Jan 2000 17:30:32.000,258.342,61.628,12524.759052
2 Jan 2000 17:30:42.000,258.779,61.693,12522.436249
2 Jan 2000 17:30:52.000,259.218,61.757,12520.165435
2 Jan 2000 17:31:02.000,259.659,61.820,12517.946618
2 Jan 2000 17:31:12.000,260.102,61.881,12515.779807
2 Jan 2000 17:31:22.000,260.546,61.941,12513.665009
2 Jan 2000 17:31:32.000,260.992,62.000,12511.602228
2 Jan 2000 17:31:42.000,261.440,62.057,12509.591470
2 Jan 2000 17:31:52.000,261.889,62.114,12507.632739
2 Jan 2000 17:32:02.000,262.340,62.168,12505.726036
2 Jan 2000 17:32:12.000,262.793,62.222,12503.871365
2 Jan 2000 17:32:22.000,263.247,62.274,12502.068725
2 Jan 2000 17:32:32.000,263.703,62.325,12500.318116
2 Jan 2000 17:32:42.000,264.160,62.374,12498.619538
2 Jan 2000 17:32:52.000,264.619,62.422,12496.972987
2 Jan 2000 17:33:02.000,265.079,62.469,12495.378460
2 Jan 2000 17:33:12.000,265.540,62.514,12493.835954
2 Jan 2000 17:33:22.000,266.003,62.558,12492.345462
2 Jan 2000 17:33:32.000,266.467,62.600,12490.906979
2 Jan 2000 17:33:42.000,266.932,62.641,12489.520497
2 Jan 2000 17:33:52.000,267.399,62.680,12488.186008
2 Jan 2000 17:34:02.000,267.867,62.719,12486.903502
2 Jan 2000 17:34:12.000,268.336,62.755,12485.672969
2 Jan 2000 17:34:22.000,268.806,62.791,12484.494398
2 Jan 2000 17:34:32.000,269.277,62.824,12483.367777
2 Jan 2000 17:34:42.000,269.749,62.857,12482.293092
2 Jan 2000 17:34:52.000,270.222,62.888,12481.270328
2 Jan 2000 17:35:02.000,270.696,62.917,12480.299471
2 Jan 2000 17:35:12.000,271.171,62.945,12479.380504
2 Jan 2000 17:35:22.000,271.647,62.972,12478.513410
2 Jan 2000 17:35:32.000,272.124,62.997,12477.698170
2 Jan 2000 17:35:42.000,272.601,63.020,12476.934766
2 Jan 2000 17:35:52.000,273.079,63.043,12476.223176
2 Jan 2000 17:36:02.000,273.558,63.063,12475.563380
2 Jan 2000 17:36:12.000,274.037,63.082,12474.955355
2 Jan 2000 17:36:22.000,274.517,63.100,12474.399078
2 Jan 2000 17:36:32.000,274.998,63.116,12473.894524
2 Jan 2000 17:36:42.000,275.479,63.131,12473.441669
2 Jan 2000 17:36:52.000,275.960,63.144,12473.040486
2 Jan 2000 17:37:02.000,276.442,63.156,12472.690948
2 Jan 2000 17:37:12.000,276.924,63.166,12472.393026
2 Jan 2000 17:37:22.000,277.406,63.175,12472.146692
2 Jan 2000 17:37:32.000,277.888,63.182,12471.951915
2 Jan 2000 17:37:42.000,278.371,63.188,12471.808663
2 Jan 2000 17:37:52.000,278.854,63.192,12471.716906
2 Jan 2000 17:38:02.000,279.336,63.195,12471.676610
2 Jan 2000 17:38:12.000,279.819,63.196,12471.687740
2 Jan 2000 17:38:22.000,280.302,63.196,12471.750262
2 Jan 2000 17:38:32.000,280.785,63.194,12471.864139
2 Jan 2000 17:38:42.000,281.267,63.191,12472.029335
2 Jan 2000 17:38:52.000,281.750,63.186,12472.245811
2 Jan 2000 17:39:02.000,282.232,63.180,12472.513529
2 Jan 2000 17:39:12.000,282.714,63.172,12472.832449
2 Jan 2000 17:39:22.000,283.195,63.163,12473.202529
2 Jan 2000 17:39:32.000,283.677,63.152,12473.623729
2 Jan 2000 17:39:42.000,284.157,63.140,12474.096005
2 Jan 2000 17:39:52.000,284.638,63.127,12474.619314
2 Jan 2000 17:40:02.000,285.117,63.112,12475.193611
2 Jan 2000 17:40:12.000,285.596,63.095,12475.818850
2 Jan 2000 17:40:22.000,286.075,63.077,12476.494985
2 Jan 2000 17:40:32.000,286.553,63.058,12477.221968
2 Jan 2000 17:40:42.000,287.030,63.037,12477.999751
2 Jan 2000 17:40:52.000,287.506,63.014,12478.828285
2 Jan 2000 17:41:02.000,287.982,62.991,12479.707519
2 Jan 2000 17:41:12.000,288.457,62.965,12480.637403
2 Jan 2000 17:41:22.000,288.930,62.939,12481.617883
2 Jan 2000 17:41:32.000,289.403,62.911,12482.648907
2 Jan 2000 17:41:42.000,289.875,62.881,12483.730421
2 Jan 2000 17:41:52.000,290.346,62.850,12484.862371
2 Jan 2000 17:42:02.000,290.816,62.818,12486.044699
2 Jan 2000 17:42:12.000,291.285,62.784,12487.277351
2 Jan 2000 17:42:22.000,291.752,62.749,12488.560267
2 Jan 2000 17:42:32.000,292.219,62.713,12489.893390
2 Jan 2000 17:42:42.000,292.684,62.675,12491.276659
2 Jan 2000 17:42:52.000,293.148,62.635,12492.710016
2 Jan 2000 17:43:02.000,293.610,62.595,12494.193398
2 Jan 2000 17:43:12.000,294.072,62.553,12495.726744
2 Jan 2000 17:43:22.000,294.531,62.509,12497.309990
2 Jan 2000 17:43:32.000,294.990,62.465,12498.943073
2 Jan 2000 17:43:42.000,295.447,62.419,12500.625929
2 Jan 2000 17:43:52.000,295.903,62.371,12502.358490
2 Jan 2000 17:44:02.000,296.357,62.323,12504.140692
2 Jan 2000 17:44:12.000,296.809,62.273,12505.972466
2 Jan 2000 17:44:22.000,297.260,62.222,12507.853744
2 Jan 2000 17:44:32.000,297.710,62.169,12509.784459
2 Jan 2000 17:44:42.000,298.157,62.115,12511.764538
2 Jan 2000 17:44:52.000,298.603,62.060,12513.793913
2 Jan 2000 17:45:02.000,299.048,62.004,12515.872511
2 Jan 2000 17:45:12.000,299.490,61.946,12518.000259
2 Jan 2000 17:45:22.000,299.931,61.887,12520.177086
2 Jan 2000 17:45:32.000,300.371,61.827,12522.402916
2 Jan 2000 17:45:42.000,300.808,61.766,12524.677674
2 Jan 2000 17:45:52.000,301.244,61.704,12527.001286
2 Jan 2000 17:46:02.000,301.678,61.640,12529.373674
2 Jan 2000 17:46:12.000,302.110,61.575,12531.794761
2 Jan 2000 17:46:22.000,302.540,61.509,12534.264468
2 Jan 2000 17:46:32.000,302.968,61.442,12536.782718
2 Jan 2000 17:46:42.000,303.394,61.374,12539.349430
2 Jan 2000 17:46:52.000,303.819,61.304,12541.964523
2 Jan 2000 17:47:02.000,304.241,61.233,12544.627917
2 Jan 2000 17:47:12.000,304.662,61.162,12547.339529
2 Jan 2000 17:47:22.000,305.080,61.089,12550.099276
2 Jan 2000 17:47:32.000,305.497,61.015,12552.907074
2 Jan 2000 17:47:42.000,305.912,60.940,12555.762840
2 Jan 2000 17:47:52.000,306.324,60.864,12558.666487
2 Jan 2000 17:48:02.000,306.735,60.786,12561.617931
2 Jan 2000 17:48:12.000,307.143,60.708,12564.617083
2 Jan 2000 17:48:22.000,307.550,60.629,12567.663857
2 Jan 2000 17:48:32.000,307.955,60.548,12570.758164
2 Jan 2000 17:48:42.000,308.357,60.467,12573.899916
2 Jan 2000 17:48:52.000,308.757,60.385,12577.089022
2 Jan 2000 17:49:02.000,309.156,60.301,12580.325393
2 Jan 2000 17:49:12.000,309.552,60.217,12583.608936
2 Jan 2000 17:49:22.000,309.946,60.132,12586.939561
2 Jan 2000 17:49:32.000,310.338,60.045,12590.317175
2 Jan 2000 17:49:42.000,310.728,59.958,12593.741683
2 Jan 2000 17:49:52.000,311.116,59.870,12597.212993
2 Jan 2000 17:50:02.000,311.502,59.781,12600.731009
2 Jan 2000 17:50:12.000,311.886,59.690,12604.295637
2 Jan 2000 17:50:22.000,312.268,59.599,12607.906779
2 Jan 2000 17:50:32.000,312.647,59.507,12611.564339
2 Jan 2000 17:50:42.000,313.025,59.415,12615.268221
2 Jan 2000 17:50:52.000,313.400,59.321,12619.018324
2 Jan 2000 17:51:02.000,313.773,59.226,12622.814552
2 Jan 2000 17:51:12.000,314.144,59.131,12626.656804
2 Jan 2000 17:51:22.000,314.514,59.035,12630.544980
2 Jan 2000 17:51:32.000,314.881,58.938,12634.478979
2 Jan 2000 17:51:42.000,315.245,58.840,12638.458700
2 Jan 2000 17:51:52.000,315.608,58.741,12642.484041
2 Jan 2000 17:52:02.000,315.969,58.641,12646.554900
2 Jan 2000 17:52:12.000,316.328,58.541,12650.671172
2 Jan 2000 17:52:22.000,316.684,58.440,12654.832753
2 Jan 2000 17:52:32.000,317.039,58.338,12659.039541
2 Jan 2000 17:52:42.000,317.391,58.235,12663.291428
2 Jan 2000 17:52:52.000,317.742,58.132,12667.588310
2 Jan 2000 17:53:02.000,318.090,58.028,12671.930079
2 Jan 2000 17:53:12.000,318.436,57.923,12676.316629
2 Jan 2000 17:53:22.000,318.781,57.817,12680.747853
2 Jan 2000 17:53:32.000,319.123,57.711,12685.223642
2 Jan 2000 17:53:42.000,319.463,57.604,12689.743887
2 Jan 2000 17:53:52.000,319.801,57.496,12694.308479
2 Jan 2000 17:54:02.000,320.138,57.387,12698.917308
2 Jan 2000 17:54:12.000,320.472,57.278,12703.570264
2 Jan 2000 17:54:22.000,320.804,57.168,12708.267236
2 Jan 2000 17:54:32.000,321.134,57.058,12713.008112
2 Jan 2000 17:54:42.000,321.463,56.947,12717.792780
2 Jan 2000 17:54:52.000,321.789,56.835,12722.621127
2 Jan 2000 17:55:02.000,322.113,56.723,12727.493040
2 Jan 2000 17:55:12.000,322.436,56.610,12732.408406
2 Jan 2000 17:55:22.000,322.756,56.496,12737.367110
2 Jan 2000 17:55:32.000,323.075,56.382,12742.369037
2 Jan 2000 17:55:42.000,323.391,56.267,12747.414073
2 Jan 2000 17:55:52.000,323.706,56.152,12752.502101
2 Jan 2000 17:56:02.000,324.019,56.036,12757.633005
2 Jan 2000 17:56:12.000,324.330,55.920,12762.806668
2 Jan 2000 17:56:22.000,324.639,55.802,12768.022974
2 Jan 2000 17:56:32.000,324.946,55.685,12773.281804
2 Jan 2000 17:56:42.000,325.252,55.567,12778.583040
2 Jan 2000 17:56:52.000,325.555,55.448,12783.926564
2 Jan 2000 17:57:02.000,325.857,55.329,12789.312256
2 Jan 2000 17:57:12.000,326.157,55.209,12794.739997
2 Jan 2000 17:57:22.000,326.455,55.089,12800.209666
2 Jan 2000 17:57:32.000,326.752,54.968,12805.721144
2 Jan 2000 17:57:42.000,327.046,54.847,12811.274309
2 Jan 2000 17:57:52.000,327.339,54.725,12816.869039
2 Jan 2000 17:58:02.000,327.630,54.603,12822.505214
2 Jan 2000 17:58:12.000,327.920,54.481,12828.182710
2 Jan 2000 17:58:22.000,328.207,54.357,12833.901406
2 Jan 2000 17:58:32.000,328.493,54.234,12839.661177
2 Jan 2000 17:58:42.000,328.777,54.110,12845.461901
2 Jan 2000 17:58:52.000,329.060,53.985,12851.303454
2 Jan 2000 17:59:02.000,329.341,53.861,12857.185710
2 Jan 2000 17:59:12.000,329.620,53.735,12863.108547
2 Jan 2000 17:59:22.000,329.897,53.610,12869.071838
2 Jan 2000 17:59:32.000,330.173,53.484,12875.075458
2 Jan 2000 17:59:42.000,330.448,53.357,12881.119282
2 Jan 2000 17:59:52.000,330.720,53.230,12887.203183
2 Jan 2000 18:00:02.000,330.991,53.103,12893.327034
2 Jan 2000 18:00:12.000,331.261,52.975,12899.490709
2 Jan 2000 18:00:22.000,331.529,52.847,12905.694081
2 Jan 2000 18:00:32.000,331.795,52.719,12911.937021
2 Jan 2000 18:00:42.000,332.060,52.590,12918.219402
2 Jan 2000 18:00:52.000,332.323,52.461,12924.541096
2 Jan 2000 18:01:02.000,332.585,52.332,12930.901974
2 Jan 2000 18:01:12.000,332.845,52.202,12937.301907
2 Jan 2000 18:01:22.000,333.104,52.072,12943.740765
2 Jan 2000 18:01:32.000,333.361,51.941,12950.218420
2 Jan 2000 18:01:42.000,333.617,51.811,12956.734742
2 Jan 2000 18:01:52.000,333.871,51.679,12963.289599
2 Jan 2000 18:02:02.000,334.124,51.548,12969.882862
2 Jan 2000 18:02:12.000,334.375,51.416,12976.514401
2 Jan 2000 18:02:22.000,334.625,51.284,12983.184083
2 Jan 2000 18:02:32.000,334.874,51.152,12989.891777
2 Jan 2000 18:02:42.000,335.121,51.020,12996.637353
2 Jan 2000 18:02:52.000,335.367,50.887,13003.420678
2 Jan 2000 18:03:02.000,335.611,50.754,13010.241620
2 Jan 2000 18:03:12.000,335.854,50.620,13017.100047
2 Jan 2000 18:03:22.000,336.096,50.487,13023.995826
2 Jan 2000 18:03:32.000,336.336,50.353,13030.928823
2 Jan 2000 18:03:42.000,336.575,50.218,13037.898907
2 Jan 2000 18:03:52.000,336.813,50.084,13044.905943
2 Jan 2000 18:04:02.000,337.049,49.949,13051.949799
2 Jan 2000 18:04:12.000,337.284,49.814,13059.030339
2 Jan 2000 18:04:22.000,337.518,49.679,13066.147431
2 Jan 2000 18:04:32.000,337.751,49.544,13073.300940
2 Jan 2000 18:04:42.000,337.982,49.408,13080.490731
2 Jan 2000 18:04:52.000,338.212,49.273,13087.716669
2 Jan 2000 18:05:02.000,338.441,49.137,13094.978621
2 Jan 2000 18:05:12.000,338.669,49.000,13102.276450
2 Jan 2000 18:05:22.000,338.895,48.864,13109.610022
2 Jan 2000 18:05:32.000,339.120,48.727,13116.979201
2 Jan 2000 18:05:42.000,339.344,48.591,13124.383852
2 Jan 2000 18:05:52.000,339.567,48.454,13131.823838
2 Jan 2000 18:06:02.000,339.789,48.317,13139.299023
2 Jan 2000 18:06:12.000,340.009,48.179,13146.809273
2 Jan 2000 18:06:22.000,340.228,48.042,13154.354449
2 Jan 2000 18:06:32.000,340.447,47.904,13161.934417
2 Jan 2000 18:06:42.000,340.664,47.766,13169.549038
2 Jan 2000 18:06:52.000,340.879,47.628,13177.198177
2 Jan 2000 18:07:02.000,341.094,47.490,13184.881697
2 Jan 2000 18:07:12.000,341.308,47.352,13192.599460
2 Jan 2000 18:07:22.000,341.521,47.213,13200.351329
2 Jan 2000 18:07:32.000,341.732,47.074,13208.137167
2 Jan 2000 18:07:42.000,341.943,46.936,13215.956838
2 Jan 2000 18:07:52.000,342.152,46.797,13223.810202
2 Jan 2000 18:08:02.000,342.361,46.658,13231.697123
2 Jan 2000 18:08:12.000,342.568,46.518,13239.617463
2 Jan 2000 18:08:22.000,342.774,46.379,13247.571083
2 Jan 2000 18:08:32.000,342.980,46.240,13255.557847
2 Jan 2000 18:08:42.000,343.184,46.100,13263.577616
2 Jan 2000 18:08:52.000,343.387,45.960,13271.630251
2 Jan 2000 18:09:02.000,343.590,45.821,13279.715616
2 Jan 2000 18:09:12.000,343.791,45.681,13287.833570
2 Jan 2000 18:09:22.000,343.991,45.541,13295.983977
2 Jan 2000 18:09:32.000,344.191,45.401,13304.166697
2 Jan 2000 18:09:42.000,344.389,45.260,13312.381593
2 Jan 2000 18:09:52.000,344.587,45.120,13320.628525
2 Jan 2000 18:10:02.000,344.783,44.980,13328.907355
2 Jan 2000 18:10:12.000,344.979,44.839,13337.217945
2 Jan 2000 18:10:22.000,345.174,44.699,13345.560155
2 Jan 2000 18:10:32.000,345.368,44.558,13353.933846
2 Jan 2000 18:10:42.000,345.561,44.417,13362.338881
2 Jan 2000 18:10:52.000,345.753,44.277,13370.775121
2 Jan 2000 18:11:02.000,345.944,44.136,13379.242425
2 Jan 2000 18:11:12.000,346.134,43.995,13387.740656
2 Jan 2000 18:11:22.000,346.324,43.854,13396.269675
2 Jan 2000 18:11:32.000,346.512,43.713,13404.829342
2 Jan 2000 18:11:42.000,346.700,43.571,13413.419519
2 Jan 2000 18:11:52.000,346.887,43.430,13422.040067
2 Jan 2000 18:12:02.000,347.073,43.289,13430.690846
2 Jan 2000 18:12:12.000,347.258,43.148,13439.371718
2 Jan 2000 18:12:22.000,347.443,43.006,13448.082544
2 Jan 2000 18:12:32.000,347.626,42.865,13456.823185
2 Jan 2000 18:12:42.000,347.809,42.723,13465.593502
2 Jan 2000 18:12:52.000,347.991,42.582,13474.393356
2 Jan 2000 18:13:02.000,348.172,42.440,13483.222608
2 Jan 2000 18:13:12.000,348.353,42.299,13492.081120
2 Jan 2000 18:13:22.000,348.533,42.157,13500.968751
2 Jan 2000 18:13:32.000,348.712,42.016,13509.885364
2 Jan 2000 18:13:42.000,348.890,41.874,13518.830820
2 Jan 2000 18:13:52.000,349.067,41.732,13527.804980
2 Jan 2000 18:14:02.000,349.244,41.591,13536.807705
2 Jan 2000 18:14:12.000,349.420,41.449,13545.838856
2 Jan 2000 18:14:22.000,349.595,41.307,13554.898295
2 Jan 2000 18:14:32.000,349.770,41.165,13563.985884
2 Jan 2000 18:14:42.000,349.943,41.023,13573.101483
2 Jan 2000 18:14:52.000,350.116,40.882,13582.244954
2 Jan 2000 18:15:02.000,350.289,40.740,13591.416159
2 Jan 2000 18:15:12.000,350.461,40.598,13600.614960
2 Jan 2000 18:15:22.000,350.632,40.456,13609.841217
2 Jan 2000 18:15:32.000,350.802,40.314,13619.094794
2 Jan 2000 18:15:42.000,350.972,40.172,13628.375551
2 Jan 2000 18:15:52.000,351.141,40.031,13637.683352
2 Jan 2000 18:16:02.000,351.309,39.889,13647.018056
2 Jan 2000 18:16:12.000,351.477,39.747,13656.379528
2 Jan 2000 18:16:22.000,351.644,39.605,13665.767629
2 Jan 2000 18:16:32.000,351.810,39.463,13675.182221
2 Jan 2000 18:16:42.000,351.976,39.321,13684.623167
2 Jan 2000 18:16:52.000,352.141,39.179,13694.090329
2 Jan 2000 18:17:02.000,352.305,39.038,13703.583570
2 Jan 2000 18:17:12.000,352.469,38.896,13713.102752
2 Jan 2000 18:17:22.000,352.633,38.754,13722.647739
2 Jan 2000 18:17:32.000,352.795,38.612,13732.218393
2 Jan 2000 18:17:42.000,352.957,38.471,13741.814577
2 Jan 2000 18:17:52.000,353.119,38.329,13751.436154
2 Jan 2000 18:18:02.000,353.280,38.187,13761.082987
2 Jan 2000 18:18:12.000,353.440,38.046,13770.754941
2 Jan 2000 18:18:22.000,353.600,37.904,13780.451878
2 Jan 2000 18:18:32.000,353.759,37.762,13790.173662
2 Jan 2000 18:18:42.000,353.917,37.621,13799.920157
2 Jan 2000 18:18:52.000,354.076,37.479,13809.691226
2 Jan 2000 18:19:02.000,354.233,37.338,13819.486735
2 Jan 2000 18:19:12.000,354.390,37.196,13829.306546
2 Jan 2000 18:19:22.000,354.546,37.055,13839.150524
2 Jan 2000 18:19:32.000,354.702,36.913,13849.018534
2 Jan 2000 18:19:42.000,354.857,36.772,13858.910440
2 Jan 2000 18:19:52.000,355.012,36.631,13868.826107
2 Jan 2000 18:20:02.000,355.166,36.489,13878.765400
2 Jan 2000 18:20:12.000,355.320,36.348,13888.728184
2 Jan 2000 18:20:22.000,355.473,36.207,13898.714324
2 Jan 2000 18:20:32.000,355.626,36.066,13908.723686
2 Jan 2000 18:20:42.000,355.778,35.925,13918.756135
2 Jan 2000 18:20:52.000,355.930,35.784,13928.811537
2 Jan 2000 18:21:02.000,356.081,35.643,13938.889757
2 Jan 2000 18:21:12.000,356.232,35.502,13948.990662
2 Jan 2000 18:21:22.000,356.382,35.361,13959.114118
2 Jan 2000 18:21:32.000,356.532,35.220,13969.259991
2 Jan 2000 18:21:42.000,356.681,35.079,13979.428148
2 Jan 2000 18:21:47.578,356.764,35.001,13985.109353

Interval Statistics
"Min Elevation",2 Jan 2000 18:21:47.578,356.764,35.001,13985.109353
"Max Elevation",2 Jan 2000 17:38:15.431,279.985,63.196,12471.703403
"Mean Elevation",,,54.197,
"Min Range",2 Jan 2000 17:38:04.835,279.473,63.195,12471.674543
"Max Range",2 Jan 2000 18:21:47.578,356.764,35.001,13985.109353
"Mean Range",,,,12881.923980

"Time (UTCG)","Azimuth (deg)","Elevation (deg)","Range (km)"
3 Jan 2000 01:47:00.689,32.525,55.972,12760.745469
3 Jan 2000 01:47:10.000,32.800,56.091,12755.462623
3 Jan 2000 01:47:20.000,33.098,56.219,12749.829989
3 Jan 2000 01:47:30.000,33.398,56.346,12744.240170
3 Jan 2000 01:47:40.000,33.699,56.473,12738.693290
3 Jan 2000 01:47:50.000,34.003,56.599,12733.189471
3 Jan 2000 01:48:00.000,34.308,56.724,12727.728838
3 Jan 2000 01:48:10.000,34.616,56.849,12722.311512
3 Jan 2000 01:48:20.000,34.925,56.974,12716.937616
3 Jan 2000 01:48:30.000,35.237,57.098,12711.607271
3 Jan 2000 01:48:40.000,35.551,57.222,12706.320597
3 Jan 2000 01:48:50.000,35.867,57.344,12701.077716
3 Jan 2000 01:49:00.000,36.184,57.467,12695.878748
3 Jan 2000 01:49:10.000,36.504,57.589,12690.723811
3 Jan 2000 01:49:20.000,36.827,57.710,12685.613025
3 Jan 2000 01:49:30.000,37.151,57.830,12680.546508
3 Jan 2000 01:49:40.000,37.477,57.950,12675.524378
3 Jan 2000 01:49:50.000,37.806,58.070,12670.546753
3 Jan 2000 01:50:00.000,38.137,58.188,12665.613748
3 Jan 2000 01:50:10.000,38.470,58.307,12660.725481
3 Jan 2000 01:50:20.000,38.805,58.424,12655.882066
3 Jan 2000 01:50:30.000,39.143,58.541,12651.083619
3 Jan 2000 01:50:40.000,39.482,58.657,12646.330254
3 Jan 2000 01:50:50.000,39.824,58.772,12641.622086
3 Jan 2000 01:51:00.000,40.169,58.887,12636.959227
3 Jan 2000 01:51:10.000,40.515,59.001,12632.341791
3 Jan 2000 01:51:20.000,40.864,59.115,12627.769889
3 Jan 2000 01:51:30.000,41.215,59.227,12623.243633
3 Jan 2000 01:51:40.000,41.568,59.339,12618.763134
3 Jan 2000 01:51:50.000,41.924,59.450,12614.328502
3 Jan 2000 01:52:00.000,42.282,59.561,12609.939847
3 Jan 2000 01:52:10.000,42.643,59.670,12605.597278
3 Jan 2000 01:52:20.000,43.006,59.779,12601.300903
3 Jan 2000 01:52:30.000,43.371,59.887,12597.050830
3 Jan 2000 01:52:40.000,43.738,59.994,12592.847167
3 Jan 2000 01:52:50.000,44.108,60.101,12588.690019
3 Jan 2000 01:53:00.000,44.481,60.206,12584.579493
3 Jan 2000 01:53:10.000,44.855,60.311,12580.515693
3 Jan 2000 01:53:20.000,45.232,60.415,12576.498725
