cemeouhf_ael/Place-CEMID-Sensor-Sensor1-To-Satellite-POLMEO15_AER.csv

"Time (UTCG)","Azimuth (deg)","Elevation (deg)","Range (km)"
1 Jan 2000 14:49:11.891,144.127,53.078,12879.170740
1 Jan 2000 14:49:21.000,144.063,53.265,12870.298029
1 Jan 2000 14:49:31.000,143.992,53.470,12860.606264
1 Jan 2000 14:49:41.000,143.920,53.675,12850.965914
1 Jan 2000 14:49:51.000,143.846,53.881,12841.377160
1 Jan 2000 14:50:01.000,143.772,54.086,12831.840181
1 Jan 2000 14:50:11.000,143.696,54.292,12822.355160
1 Jan 2000 14:50:21.000,143.619,54.498,12812.922274
1 Jan 2000 14:50:31.000,143.541,54.703,12803.541703
1 Jan 2000 14:50:41.000,143.462,54.909,12794.213625
1 Jan 2000 14:50:51.000,143.382,55.115,12784.938217
1 Jan 2000 14:51:01.000,143.301,55.321,12775.715658
1 Jan 2000 14:51:11.000,143.218,55.528,12766.546122
1 Jan 2000 14:51:21.000,143.135,55.734,12757.429786
1 Jan 2000 14:51:31.000,143.049,55.940,12748.366825
1 Jan 2000 14:51:41.000,142.963,56.147,12739.357413
1 Jan 2000 14:51:51.000,142.875,56.353,12730.401724
1 Jan 2000 14:52:01.000,142.786,56.560,12721.499931
1 Jan 2000 14:52:11.000,142.696,56.766,12712.652207
1 Jan 2000 14:52:21.000,142.604,56.973,12703.858723
1 Jan 2000 14:52:31.000,142.511,57.180,12695.119650
1 Jan 2000 14:52:41.000,142.416,57.386,12686.435158
1 Jan 2000 14:52:51.000,142.320,57.593,12677.805417
1 Jan 2000 14:53:01.000,142.223,57.800,12669.230595
1 Jan 2000 14:53:11.000,142.123,58.007,12660.710861
1 Jan 2000 14:53:21.000,142.023,58.214,12652.246382
1 Jan 2000 14:53:31.000,141.920,58.421,12643.837323
1 Jan 2000 14:53:41.000,141.816,58.628,12635.483851
1 Jan 2000 14:53:51.000,141.711,58.835,12627.186131
1 Jan 2000 14:54:01.000,141.603,59.042,12618.944326
1 Jan 2000 14:54:11.000,141.494,59.249,12610.758600
1 Jan 2000 14:54:21.000,141.383,59.457,12602.629116
1 Jan 2000 14:54:31.000,141.270,59.664,12594.556034
1 Jan 2000 14:54:41.000,141.156,59.871,12586.539515
1 Jan 2000 14:54:51.000,141.039,60.078,12578.579720
1 Jan 2000 14:55:01.000,140.921,60.285,12570.676807
1 Jan 2000 14:55:11.000,140.801,60.492,12562.830934
1 Jan 2000 14:55:21.000,140.678,60.699,12555.042259
1 Jan 2000 14:55:31.000,140.554,60.907,12547.310938
1 Jan 2000 14:55:41.000,140.427,61.114,12539.637126
1 Jan 2000 14:55:51.000,140.299,61.321,12532.020977
1 Jan 2000 14:56:01.000,140.168,61.528,12524.462646
1 Jan 2000 14:56:11.000,140.035,61.735,12516.962285
1 Jan 2000 14:56:21.000,139.899,61.942,12509.520046
1 Jan 2000 14:56:31.000,139.761,62.149,12502.136078
1 Jan 2000 14:56:41.000,139.621,62.355,12494.810533
1 Jan 2000 14:56:51.000,139.479,62.562,12487.543558
1 Jan 2000 14:57:01.000,139.333,62.769,12480.335302
1 Jan 2000 14:57:11.000,139.186,62.975,12473.185911
1 Jan 2000 14:57:21.000,139.035,63.182,12466.095532
1 Jan 2000 14:57:31.000,138.882,63.388,12459.064307
1 Jan 2000 14:57:41.000,138.726,63.595,12452.092383
1 Jan 2000 14:57:51.000,138.568,63.801,12445.179900
1 Jan 2000 14:58:01.000,138.406,64.007,12438.327001
1 Jan 2000 14:58:11.000,138.242,64.213,12431.533826
1 Jan 2000 14:58:21.000,138.074,64.419,12424.800515
1 Jan 2000 14:58:31.000,137.904,64.625,12418.127206
1 Jan 2000 14:58:41.000,137.730,64.830,12411.514037
1 Jan 2000 14:58:51.000,137.553,65.036,12404.961143
1 Jan 2000 14:59:01.000,137.372,65.241,12398.468660
1 Jan 2000 14:59:11.000,137.189,65.446,12392.036721
1 Jan 2000 14:59:21.000,137.001,65.651,12385.665461
1 Jan 2000 14:59:31.000,136.810,65.856,12379.355009
1 Jan 2000 14:59:41.000,136.616,66.061,12373.105497
1 Jan 2000 14:59:51.000,136.417,66.265,12366.917055
1 Jan 2000 15:00:01.000,136.215,66.469,12360.789810
1 Jan 2000 15:00:11.000,136.009,66.673,12354.723890
1 Jan 2000 15:00:21.000,135.799,66.876,12348.719420
1 Jan 2000 15:00:31.000,135.585,67.080,12342.776526
1 Jan 2000 15:00:41.000,135.366,67.283,12336.895330
1 Jan 2000 15:00:51.000,135.143,67.486,12331.075955
1 Jan 2000 15:01:01.000,134.915,67.688,12325.318522
1 Jan 2000 15:01:11.000,134.683,67.891,12319.623151
1 Jan 2000 15:01:21.000,134.446,68.092,12313.989961
1 Jan 2000 15:01:31.000,134.204,68.294,12308.419068
1 Jan 2000 15:01:41.000,133.958,68.495,12302.910589
1 Jan 2000 15:01:51.000,133.706,68.696,12297.464639
1 Jan 2000 15:02:01.000,133.449,68.897,12292.081331
1 Jan 2000 15:02:11.000,133.186,69.097,12286.760778
1 Jan 2000 15:02:21.000,132.918,69.296,12281.503090
1 Jan 2000 15:02:31.000,132.644,69.496,12276.308378
1 Jan 2000 15:02:41.000,132.365,69.695,12271.176749
1 Jan 2000 15:02:51.000,132.079,69.893,12266.108310
1 Jan 2000 15:03:01.000,131.787,70.091,12261.103168
1 Jan 2000 15:03:11.000,131.489,70.288,12256.161427
1 Jan 2000 15:03:21.000,131.184,70.485,12251.283189
1 Jan 2000 15:03:31.000,130.872,70.681,12246.468557
1 Jan 2000 15:03:41.000,130.554,70.877,12241.717631
1 Jan 2000 15:03:51.000,130.229,71.072,12237.030509
1 Jan 2000 15:04:01.000,129.896,71.267,12232.407290
1 Jan 2000 15:04:11.000,129.555,71.460,12227.848070
1 Jan 2000 15:04:21.000,129.207,71.654,12223.352942
1 Jan 2000 15:04:31.000,128.851,71.846,12218.922002
1 Jan 2000 15:04:41.000,128.487,72.038,12214.555341
1 Jan 2000 15:04:51.000,128.115,72.229,12210.253049
1 Jan 2000 15:05:01.000,127.734,72.419,12206.015216
1 Jan 2000 15:05:11.000,127.343,72.609,12201.841929
1 Jan 2000 15:05:21.000,126.944,72.798,12197.733275
1 Jan 2000 15:05:31.000,126.536,72.985,12193.689339
1 Jan 2000 15:05:41.000,126.117,73.172,12189.710205
1 Jan 2000 15:05:51.000,125.689,73.358,12185.795953
1 Jan 2000 15:06:01.000,125.251,73.543,12181.946665
1 Jan 2000 15:06:11.000,124.801,73.727,12178.162420
1 Jan 2000 15:06:21.000,124.342,73.910,12174.443296
1 Jan 2000 15:06:31.000,123.871,74.092,12170.789368
1 Jan 2000 15:06:41.000,123.388,74.272,12167.200711
1 Jan 2000 15:06:51.000,122.894,74.452,12163.677399
1 Jan 2000 15:07:01.000,122.387,74.630,12160.219503
1 Jan 2000 15:07:11.000,121.869,74.807,12156.827093
1 Jan 2000 15:07:21.000,121.337,74.983,12153.500238
1 Jan 2000 15:07:31.000,120.792,75.157,12150.239005
1 Jan 2000 15:07:41.000,120.234,75.330,12147.043459
1 Jan 2000 15:07:51.000,119.662,75.501,12143.913665
1 Jan 2000 15:08:01.000,119.075,75.671,12140.849685
1 Jan 2000 15:08:11.000,118.474,75.840,12137.851581
1 Jan 2000 15:08:21.000,117.858,76.006,12134.919411
1 Jan 2000 15:08:31.000,117.227,76.171,12132.053234
1 Jan 2000 15:08:41.000,116.579,76.334,12129.253106
1 Jan 2000 15:08:51.000,115.916,76.495,12126.519081
1 Jan 2000 15:09:01.000,115.236,76.654,12123.851214
1 Jan 2000 15:09:11.000,114.539,76.812,12121.249555
1 Jan 2000 15:09:21.000,113.825,76.967,12118.714156
1 Jan 2000 15:09:31.000,113.093,77.120,12116.245063
1 Jan 2000 15:09:41.000,112.342,77.271,12113.842325
1 Jan 2000 15:09:51.000,111.574,77.419,12111.505987
1 Jan 2000 15:10:01.000,110.786,77.565,12109.236092
1 Jan 2000 15:10:11.000,109.980,77.708,12107.032684
1 Jan 2000 15:10:21.000,109.154,77.849,12104.895801
1 Jan 2000 15:10:31.000,108.308,77.987,12102.825484
1 Jan 2000 15:10:41.000,107.442,78.123,12100.821770
1 Jan 2000 15:10:51.000,106.556,78.255,12098.884694
1 Jan 2000 15:11:01.000,105.649,78.385,12097.014291
1 Jan 2000 15:11:11.000,104.721,78.511,12095.210594
1 Jan 2000 15:11:21.000,103.772,78.634,12093.473633
1 Jan 2000 15:11:31.000,102.803,78.754,12091.803438
1 Jan 2000 15:11:41.000,101.812,78.871,12090.200036
1 Jan 2000 15:11:51.000,100.800,78.984,12088.663454
1 Jan 2000 15:12:01.000,99.767,79.093,12087.193716
1 Jan 2000 15:12:11.000,98.713,79.198,12085.790846
1 Jan 2000 15:12:21.000,97.638,79.300,12084.454863
1 Jan 2000 15:12:31.000,96.542,79.398,12083.185789
1 Jan 2000 15:12:41.000,95.426,79.491,12081.983640
1 Jan 2000 15:12:51.000,94.290,79.580,12080.848434
1 Jan 2000 15:13:01.000,93.134,79.665,12079.780184
1 Jan 2000 15:13:11.000,91.960,79.746,12078.778905
1 Jan 2000 15:13:21.000,90.766,79.822,12077.844608
1 Jan 2000 15:13:31.000,89.556,79.893,12076.977302
1 Jan 2000 15:13:41.000,88.328,79.960,12076.176995
1 Jan 2000 15:13:51.000,87.084,80.022,12075.443695
1 Jan 2000 15:14:01.000,85.825,80.079,12074.777405
1 Jan 2000 15:14:11.000,84.552,80.130,12074.178130
1 Jan 2000 15:14:21.000,83.266,80.177,12073.645871
1 Jan 2000 15:14:31.000,81.968,80.219,12073.180628
1 Jan 2000 15:14:41.000,80.660,80.255,12072.782399
1 Jan 2000 15:14:51.000,79.343,80.286,12072.451181
1 Jan 2000 15:15:01.000,78.017,80.312,12072.186970
1 Jan 2000 15:15:11.000,76.686,80.332,12071.989757
1 Jan 2000 15:15:21.000,75.350,80.347,12071.859536
1 Jan 2000 15:15:31.000,74.010,80.356,12071.796297
1 Jan 2000 15:15:41.000,72.669,80.360,12071.800027
1 Jan 2000 15:15:51.000,71.327,80.359,12071.870714
1 Jan 2000 15:16:01.000,69.987,80.352,12072.008343
1 Jan 2000 15:16:11.000,68.650,80.339,12072.212898
1 Jan 2000 15:16:21.000,67.317,80.321,12072.484360
1 Jan 2000 15:16:31.000,65.990,80.298,12072.822711
1 Jan 2000 15:16:41.000,64.670,80.270,12073.227928
1 Jan 2000 15:16:51.000,63.359,80.236,12073.699989
1 Jan 2000 15:17:01.000,62.059,80.196,12074.238869
1 Jan 2000 15:17:11.000,60.770,80.152,12074.844542
1 Jan 2000 15:17:21.000,59.493,80.103,12075.516980
1 Jan 2000 15:17:31.000,58.231,80.048,12076.256154
1 Jan 2000 15:17:41.000,56.983,79.989,12077.062033
1 Jan 2000 15:17:51.000,55.751,79.924,12077.934585
1 Jan 2000 15:18:01.000,54.536,79.855,12078.873774
1 Jan 2000 15:18:11.000,53.338,79.782,12079.879565
1 Jan 2000 15:18:21.000,52.159,79.703,12080.951921
1 Jan 2000 15:18:31.000,50.999,79.620,12082.090802
1 Jan 2000 15:18:41.000,49.858,79.533,12083.296168
1 Jan 2000 15:18:51.000,48.737,79.442,12084.567977
1 Jan 2000 15:19:01.000,47.636,79.347,12085.906184
1 Jan 2000 15:19:11.000,46.556,79.247,12087.310745
1 Jan 2000 15:19:21.000,45.498,79.144,12088.781612
1 Jan 2000 15:19:31.000,44.460,79.037,12090.318736
1 Jan 2000 15:19:41.000,43.443,78.926,12091.922068
1 Jan 2000 15:19:51.000,42.448,78.812,12093.591555
1 Jan 2000 15:20:01.000,41.474,78.694,12095.327145
1 Jan 2000 15:20:11.000,40.521,78.573,12097.128782
1 Jan 2000 15:20:21.000,39.589,78.448,12098.996410
1 Jan 2000 15:20:31.000,38.678,78.321,12100.929971
1 Jan 2000 15:20:41.000,37.787,78.190,12102.929406
1 Jan 2000 15:20:51.000,36.918,78.057,12104.994652
1 Jan 2000 15:21:01.000,36.068,77.921,12107.125649
1 Jan 2000 15:21:11.000,35.239,77.782,12109.322330
1 Jan 2000 15:21:21.000,34.429,77.641,12111.584632
1 Jan 2000 15:21:31.000,33.639,77.497,12113.912485
1 Jan 2000 15:21:41.000,32.867,77.350,12116.305823
1 Jan 2000 15:21:51.000,32.114,77.201,12118.764573
1 Jan 2000 15:22:01.000,31.380,77.051,12121.288666
1 Jan 2000 15:22:11.000,30.663,76.897,12123.878027
1 Jan 2000 15:22:21.000,29.964,76.742,12126.532581
1 Jan 2000 15:22:31.000,29.283,76.585,12129.252253
1 Jan 2000 15:22:41.000,28.618,76.426,12132.036964
1 Jan 2000 15:22:51.000,27.969,76.265,12134.886635
1 Jan 2000 15:23:01.000,27.336,76.102,12137.801187
1 Jan 2000 15:23:11.000,26.719,75.937,12140.780535
1 Jan 2000 15:23:21.000,26.118,75.771,12143.824598
1 Jan 2000 15:23:31.000,25.531,75.603,12146.933289
1 Jan 2000 15:23:41.000,24.958,75.434,12150.106522
1 Jan 2000 15:23:51.000,24.400,75.263,12153.344210
1 Jan 2000 15:24:01.000,23.855,75.091,12156.646263
1 Jan 2000 15:24:11.000,23.324,74.917,12160.012590
1 Jan 2000 15:24:21.000,22.806,74.743,12163.443099
1 Jan 2000 15:24:31.000,22.300,74.566,12166.937696
1 Jan 2000 15:24:41.000,21.807,74.389,12170.496286
1 Jan 2000 15:24:51.000,21.325,74.210,12174.118773
1 Jan 2000 15:25:01.000,20.856,74.031,12177.805060
1 Jan 2000 15:25:11.000,20.397,73.850,12181.555046
1 Jan 2000 15:25:21.000,19.950,73.668,12185.368632
1 Jan 2000 15:25:31.000,19.513,73.485,12189.245715
1 Jan 2000 15:25:41.000,19.087,73.302,12193.186192
1 Jan 2000 15:25:51.000,18.671,73.117,12197.189959
1 Jan 2000 15:26:01.000,18.265,72.932,12201.256909
1 Jan 2000 15:26:11.000,17.868,72.745,12205.386936
1 Jan 2000 15:26:21.000,17.481,72.558,12209.579930
1 Jan 2000 15:26:31.000,17.103,72.370,12213.835783
1 Jan 2000 15:26:41.000,16.733,72.181,12218.154382
1 Jan 2000 15:26:51.000,16.372,71.992,12222.535615
1 Jan 2000 15:27:01.000,16.020,71.802,12226.979369
1 Jan 2000 15:27:11.000,15.675,71.611,12231.485528
1 Jan 2000 15:27:21.000,15.339,71.419,12236.053976
1 Jan 2000 15:27:31.000,15.010,71.227,12240.684595
1 Jan 2000 15:27:41.000,14.689,71.034,12245.377267
1 Jan 2000 15:27:51.000,14.375,70.841,12250.131871
1 Jan 2000 15:28:01.000,14.067,70.647,12254.948287
1 Jan 2000 15:28:11.000,13.767,70.453,12259.826391
1 Jan 2000 15:28:21.000,13.474,70.258,12264.766059
1 Jan 2000 15:28:31.000,13.187,70.063,12269.767168
1 Jan 2000 15:28:41.000,12.906,69.867,12274.829591
1 Jan 2000 15:28:51.000,12.631,69.671,12279.953200
1 Jan 2000 15:29:01.000,12.363,69.474,12285.137867
1 Jan 2000 15:29:11.000,12.100,69.277,12290.383462
1 Jan 2000 15:29:21.000,11.843,69.080,12295.689854
1 Jan 2000 15:29:31.000,11.592,68.882,12301.056912
1 Jan 2000 15:29:41.000,11.346,68.684,12306.484501
1 Jan 2000 15:29:51.000,11.105,68.485,12311.972489
1 Jan 2000 15:30:01.000,10.869,68.286,12317.520740
1 Jan 2000 15:30:11.000,10.639,68.087,12323.129116
1 Jan 2000 15:30:21.000,10.413,67.888,12328.797481
1 Jan 2000 15:30:31.000,10.192,67.688,12334.525696
1 Jan 2000 15:30:41.000,9.975,67.488,12340.313621
1 Jan 2000 15:30:51.000,9.763,67.288,12346.161116
1 Jan 2000 15:31:01.000,9.556,67.087,12352.068037
1 Jan 2000 15:31:11.000,9.353,66.887,12358.034243
1 Jan 2000 15:31:21.000,9.154,66.686,12364.059590
1 Jan 2000 15:31:31.000,8.959,66.484,12370.143932
1 Jan 2000 15:31:41.000,8.768,66.283,12376.287123
1 Jan 2000 15:31:51.000,8.581,66.081,12382.489017
1 Jan 2000 15:32:01.000,8.397,65.880,12388.749465
1 Jan 2000 15:32:11.000,8.218,65.678,12395.068319
1 Jan 2000 15:32:21.000,8.042,65.476,12401.445428
1 Jan 2000 15:32:31.000,7.869,65.274,12407.880641
1 Jan 2000 15:32:41.000,7.700,65.071,12414.373807
1 Jan 2000 15:32:51.000,7.535,64.869,12420.924773
1 Jan 2000 15:33:01.000,7.372,64.666,12427.533384
1 Jan 2000 15:33:11.000,7.213,64.463,12434.199486
1 Jan 2000 15:33:21.000,7.057,64.261,12440.922924
1 Jan 2000 15:33:31.000,6.905,64.058,12447.703541
1 Jan 2000 15:33:41.000,6.755,63.855,12454.541179
1 Jan 2000 15:33:51.000,6.608,63.652,12461.435680
1 Jan 2000 15:34:01.000,6.464,63.448,12468.386885
1 Jan 2000 15:34:11.000,6.322,63.245,12475.394634
1 Jan 2000 15:34:21.000,6.184,63.042,12482.458765
1 Jan 2000 15:34:31.000,6.048,62.838,12489.579118
1 Jan 2000 15:34:41.000,5.915,62.635,12496.755529
1 Jan 2000 15:34:51.000,5.784,62.432,12503.987835
1 Jan 2000 15:35:01.000,5.656,62.228,12511.275872
1 Jan 2000 15:35:11.000,5.530,62.025,12518.619475
1 Jan 2000 15:35:21.000,5.407,61.821,12526.018478
1 Jan 2000 15:35:31.000,5.286,61.617,12533.472714
1 Jan 2000 15:35:41.000,5.168,61.414,12540.982015
1 Jan 2000 15:35:51.000,5.051,61.210,12548.546215
1 Jan 2000 15:36:01.000,4.937,61.007,12556.165144
1 Jan 2000 15:36:11.000,4.825,60.803,12563.838631
1 Jan 2000 15:36:21.000,4.715,60.600,12571.566508
1 Jan 2000 15:36:31.000,4.608,60.396,12579.348602
1 Jan 2000 15:36:41.000,4.502,60.193,12587.184743
1 Jan 2000 15:36:51.000,4.398,59.989,12595.074757
1 Jan 2000 15:37:01.000,4.297,59.786,12603.018471
1 Jan 2000 15:37:11.000,4.197,59.582,12611.015712
1 Jan 2000 15:37:21.000,4.099,59.379,12619.066304
1 Jan 2000 15:37:31.000,4.003,59.175,12627.170074
1 Jan 2000 15:37:41.000,3.908,58.972,12635.326844
1 Jan 2000 15:37:51.000,3.816,58.769,12643.536439
1 Jan 2000 15:38:01.000,3.725,58.565,12651.798682
1 Jan 2000 15:38:11.000,3.636,58.362,12660.113394
1 Jan 2000 15:38:21.000,3.549,58.159,12668.480397
1 Jan 2000 15:38:31.000,3.463,57.956,12676.899513
1 Jan 2000 15:38:41.000,3.379,57.753,12685.370562
1 Jan 2000 15:38:51.000,3.296,57.550,12693.893365
1 Jan 2000 15:39:01.000,3.215,57.347,12702.467739
1 Jan 2000 15:39:11.000,3.136,57.145,12711.093505
1 Jan 2000 15:39:21.000,3.058,56.942,12719.770480
1 Jan 2000 15:39:31.000,2.981,56.739,12728.498482
1 Jan 2000 15:39:41.000,2.906,56.537,12737.277329
1 Jan 2000 15:39:51.000,2.833,56.334,12746.106837
1 Jan 2000 15:40:01.000,2.760,56.132,12754.986822
1 Jan 2000 15:40:11.000,2.690,55.930,12763.917101
1 Jan 2000 15:40:21.000,2.620,55.728,12772.897487
1 Jan 2000 15:40:31.000,2.552,55.526,12781.927797
1 Jan 2000 15:40:41.000,2.485,55.324,12791.007844
1 Jan 2000 15:40:51.000,2.419,55.122,12800.137442
1 Jan 2000 15:41:01.000,2.355,54.920,12809.316405
1 Jan 2000 15:41:11.000,2.292,54.719,12818.544545
1 Jan 2000 15:41:21.000,2.230,54.517,12827.821675
1 Jan 2000 15:41:31.000,2.169,54.316,12837.147607
1 Jan 2000 15:41:41.000,2.109,54.115,12846.522154
1 Jan 2000 15:41:51.000,2.051,53.913,12855.945125
1 Jan 2000 15:42:01.000,1.994,53.712,12865.416332
1 Jan 2000 15:42:11.000,1.937,53.512,12874.935586
1 Jan 2000 15:42:21.000,1.882,53.311,12884.502696
1 Jan 2000 15:42:31.000,1.828,53.110,12894.117473
1 Jan 2000 15:42:41.000,1.775,52.910,12903.779726
1 Jan 2000 15:42:51.000,1.723,52.709,12913.489264
1 Jan 2000 15:43:01.000,1.672,52.509,12923.245896
1 Jan 2000 15:43:11.000,1.622,52.309,12933.049431
1 Jan 2000 15:43:21.000,1.574,52.109,12942.899675
1 Jan 2000 15:43:31.000,1.526,51.909,12952.796438
1 Jan 2000 15:43:41.000,1.479,51.710,12962.739527
1 Jan 2000 15:43:51.000,1.433,51.510,12972.728749
1 Jan 2000 15:44:01.000,1.388,51.311,12982.763911
1 Jan 2000 15:44:11.000,1.343,51.112,12992.844820
1 Jan 2000 15:44:21.000,1.300,50.913,13002.971281
1 Jan 2000 15:44:31.000,1.258,50.714,13013.143103
1 Jan 2000 15:44:41.000,1.216,50.515,13023.360089
1 Jan 2000 15:44:51.000,1.176,50.317,13033.622047
1 Jan 2000 15:45:01.000,1.136,50.118,13043.928781
1 Jan 2000 15:45:11.000,1.097,49.920,13054.280097
1 Jan 2000 15:45:21.000,1.059,49.722,13064.675800
1 Jan 2000 15:45:31.000,1.021,49.524,13075.115695
1 Jan 2000 15:45:41.000,0.985,49.326,13085.599586
1 Jan 2000 15:45:51.000,0.949,49.128,13096.127278
1 Jan 2000 15:46:01.000,0.914,48.931,13106.698575
1 Jan 2000 15:46:11.000,0.880,48.734,13117.313281
1 Jan 2000 15:46:21.000,0.847,48.537,13127.971201
1 Jan 2000 15:46:31.000,0.814,48.340,13138.672137
1 Jan 2000 15:46:41.000,0.782,48.143,13149.415895
1 Jan 2000 15:46:51.000,0.751,47.946,13160.202277
1 Jan 2000 15:47:01.000,0.720,47.750,13171.031086
1 Jan 2000 15:47:11.000,0.691,47.554,13181.902127
1 Jan 2000 15:47:21.000,0.662,47.358,13192.815202
1 Jan 2000 15:47:31.000,0.633,47.162,13203.770114
1 Jan 2000 15:47:41.000,0.606,46.966,13214.766667
1 Jan 2000 15:47:51.000,0.578,46.771,13225.804662
1 Jan 2000 15:48:01.000,0.552,46.575,13236.883904
1 Jan 2000 15:48:11.000,0.526,46.380,13248.004195
1 Jan 2000 15:48:21.000,0.501,46.185,13259.165337
1 Jan 2000 15:48:31.000,0.477,45.990,13270.367133
1 Jan 2000 15:48:41.000,0.453,45.796,13281.609385
1 Jan 2000 15:48:51.000,0.430,45.601,13292.891897
1 Jan 2000 15:49:01.000,0.407,45.407,13304.214470
1 Jan 2000 15:49:11.000,0.385,45.213,13315.576907
1 Jan 2000 15:49:21.000,0.364,45.019,13326.979011
1 Jan 2000 15:49:31.000,0.343,44.825,13338.420583
1 Jan 2000 15:49:41.000,0.322,44.632,13349.901427
1 Jan 2000 15:49:51.000,0.303,44.439,13361.421344
1 Jan 2000 15:50:01.000,0.284,44.246,13372.980138
1 Jan 2000 15:50:11.000,0.265,44.053,13384.577610
1 Jan 2000 15:50:21.000,0.247,43.860,13396.213562
1 Jan 2000 15:50:31.000,0.230,43.668,13407.887798
1 Jan 2000 15:50:41.000,0.213,43.475,13419.600120
1 Jan 2000 15:50:51.000,0.196,43.283,13431.350330
1 Jan 2000 15:51:01.000,0.180,43.091,13443.138231
1 Jan 2000 15:51:11.000,0.165,42.899,13454.963625
1 Jan 2000 15:51:21.000,0.150,42.708,13466.826315
1 Jan 2000 15:51:31.000,0.136,42.517,13478.726104
1 Jan 2000 15:51:41.000,0.122,42.325,13490.662795
1 Jan 2000 15:51:51.000,0.108,42.135,13502.636190
1 Jan 2000 15:52:01.000,0.096,41.944,13514.646092
1 Jan 2000 15:52:11.000,0.083,41.753,13526.692305
1 Jan 2000 15:52:21.000,0.071,41.563,13538.774632
1 Jan 2000 15:52:31.000,0.060,41.373,13550.892875
1 Jan 2000 15:52:41.000,0.049,41.183,13563.046838
1 Jan 2000 15:52:51.000,0.038,40.993,13575.236325
1 Jan 2000 15:53:01.000,0.028,40.804,13587.461139
1 Jan 2000 15:53:11.000,0.019,40.614,13599.721083
1 Jan 2000 15:53:21.000,0.009,40.425,13612.015962
1 Jan 2000 15:53:31.000,0.001,40.236,13624.345580
1 Jan 2000 15:53:41.000,359.992,40.048,13636.709740
1 Jan 2000 15:53:51.000,359.985,39.859,13649.108246
1 Jan 2000 15:54:01.000,359.977,39.671,13661.540904
1 Jan 2000 15:54:11.000,359.970,39.483,13674.007517
1 Jan 2000 15:54:21.000,359.963,39.295,13686.507890
1 Jan 2000 15:54:31.000,359.957,39.107,13699.041829
1 Jan 2000 15:54:41.000,359.951,38.920,13711.609137
1 Jan 2000 15:54:51.000,359.946,38.733,13724.209621
1 Jan 2000 15:55:01.000,359.941,38.545,13736.843085
1 Jan 2000 15:55:11.000,359.936,38.359,13749.509336
1 Jan 2000 15:55:21.000,359.932,38.172,13762.208178
1 Jan 2000 15:55:31.000,359.928,37.986,13774.939417
1 Jan 2000 15:55:41.000,359.925,37.799,13787.702861
1 Jan 2000 15:55:51.000,359.922,37.613,13800.498315
1 Jan 2000 15:56:01.000,359.919,37.428,13813.325585
1 Jan 2000 15:56:11.000,359.917,37.242,13826.184479
1 Jan 2000 15:56:21.000,359.915,37.057,13839.074803
1 Jan 2000 15:56:31.000,359.913,36.872,13851.996364
1 Jan 2000 15:56:41.000,359.912,36.687,13864.948970
1 Jan 2000 15:56:51.000,359.911,36.502,13877.932429
1 Jan 2000 15:57:01.000,359.911,36.317,13890.946548
1 Jan 2000 15:57:11.000,359.911,36.133,13903.991135
1 Jan 2000 15:57:21.000,359.911,35.949,13917.066000
1 Jan 2000 15:57:31.000,359.911,35.765,13930.170949
1 Jan 2000 15:57:41.000,359.912,35.581,13943.305793
1 Jan 2000 15:57:51.000,359.913,35.398,13956.470339
1 Jan 2000 15:58:01.000,359.915,35.215,13969.664399
1 Jan 2000 15:58:11.000,359.917,35.032,13982.887780
1 Jan 2000 15:58:12.683,359.917,35.001,13985.116266

Interval Statistics
"Min Elevation",1 Jan 2000 15:58:12.683,359.917,35.001,13985.116266
"Max Elevation",1 Jan 2000 15:15:43.221,72.371,80.360,12071.809945
"Mean Elevation",,,62.952,
"Min Range",1 Jan 2000 15:15:35.443,73.414,80.359,12071.789687
"Max Range",1 Jan 2000 15:58:12.683,359.917,35.001,13985.116266
"Mean Range",,,,12595.351415

"Time (UTCG)","Azimuth (deg)","Elevation (deg)","Range (km)"
1 Jan 2000 23:25:42.693,43.193,35.857,13919.945851
1 Jan 2000 23:25:52.000,43.415,35.847,13920.604245
1 Jan 2000 23:26:02.000,43.653,35.836,13921.337095
1 Jan 2000 23:26:12.000,43.891,35.825,13922.096334
1 Jan 2000 23:26:22.000,44.129,35.814,13922.881985
1 Jan 2000 23:26:32.000,44.367,35.802,13923.694070
1 Jan 2000 23:26:42.000,44.605,35.789,13924.532608
1 Jan 2000 23:26:52.000,44.842,35.777,13925.397622
1 Jan 2000 23:27:02.000,45.080,35.764,13926.289132
1 Jan 2000 23:27:12.000,45.318,35.750,13927.207159
1 Jan 2000 23:27:22.000,45.555,35.736,13928.151722
1 Jan 2000 23:27:32.000,45.793,35.722,13929.122842
1 Jan 2000 23:27:42.000,46.030,35.708,13930.120539
1 Jan 2000 23:27:52.000,46.268,35.693,13931.144833
1 Jan 2000 23:28:02.000,46.505,35.677,13932.195742
1 Jan 2000 23:28:12.000,46.742,35.662,13933.273286
1 Jan 2000 23:28:22.000,46.979,35.646,13934.377484
1 Jan 2000 23:28:32.000,47.216,35.629,13935.508355
1 Jan 2000 23:28:42.000,47.453,35.613,13936.665917
1 Jan 2000 23:28:52.000,47.690,35.595,13937.850188
1 Jan 2000 23:29:02.000,47.927,35.578,13939.061187
1 Jan 2000 23:29:12.000,48.163,35.560,13940.298931
1 Jan 2000 23:29:22.000,48.400,35.542,13941.563437
1 Jan 2000 23:29:32.000,48.636,35.523,13942.854724
1 Jan 2000 23:29:42.000,48.873,35.504,13944.172808
1 Jan 2000 23:29:52.000,49.109,35.485,13945.517706
1 Jan 2000 23:30:02.000,49.345,35.465,13946.889435
1 Jan 2000 23:30:12.000,49.581,35.445,13948.288011
1 Jan 2000 23:30:22.000,49.817,35.425,13949.713451
1 Jan 2000 23:30:32.000,50.053,35.404,13951.165769
1 Jan 2000 23:30:42.000,50.288,35.382,13952.644983
1 Jan 2000 23:30:52.000,50.524,35.361,13954.151107
1 Jan 2000 23:31:02.000,50.759,35.339,13955.684156
1 Jan 2000 23:31:12.000,50.994,35.317,13957.244146
1 Jan 2000 23:31:22.000,51.230,35.294,13958.831092
1 Jan 2000 23:31:32.000,51.465,35.271,13960.445007
1 Jan 2000 23:31:42.000,51.699,35.248,13962.085906
1 Jan 2000 23:31:52.000,51.934,35.224,13963.753803
1 Jan 2000 23:32:02.000,52.169,35.200,13965.448712
1 Jan 2000 23:32:12.000,52.403,35.175,13967.170646
1 Jan 2000 23:32:22.000,52.638,35.150,13968.919619
1 Jan 2000 23:32:32.000,52.872,35.125,13970.695644
1 Jan 2000 23:32:42.000,53.106,35.099,13972.498733
1 Jan 2000 23:32:52.000,53.340,35.073,13974.328899
1 Jan 2000 23:33:02.000,53.574,35.047,13976.186154
1 Jan 2000 23:33:12.000,53.807,35.020,13978.070511
1 Jan 2000 23:33:19.427,53.981,35.000,13979.487632

Interval Statistics
"Min Elevation",1 Jan 2000 23:33:19.427,53.981,35.000,13979.487632
"Max Elevation",1 Jan 2000 23:25:42.693,43.193,35.857,13919.945851
"Mean Elevation",,,35.489,
"Min Range",1 Jan 2000 23:25:42.693,43.193,35.857,13919.945851
"Max Range",1 Jan 2000 23:33:19.427,53.981,35.000,13979.487632
"Mean Range",,,,13945.309983

"Time (UTCG)","Azimuth (deg)","Elevation (deg)","Range (km)"
2 Jan 2000 06:07:30.923,339.497,48.531,13127.609335
2 Jan 2000 06:07:40.000,339.264,48.632,13122.158492
2 Jan 2000 06:07:50.000,339.007,48.742,13116.210510
2 Jan 2000 06:08:00.000,338.747,48.851,13110.322726
2 Jan 2000 06:08:10.000,338.487,48.959,13104.495270
2 Jan 2000 06:08:20.000,338.224,49.066,13098.728268
2 Jan 2000 06:08:30.000,337.960,49.173,13093.021846
2 Jan 2000 06:08:40.000,337.695,49.278,13087.376129
2 Jan 2000 06:08:50.000,337.427,49.383,13081.791239
2 Jan 2000 06:09:00.000,337.159,49.487,13076.267300
2 Jan 2000 06:09:10.000,336.888,49.590,13070.804432
2 Jan 2000 06:09:20.000,336.616,49.692,13065.402755
2 Jan 2000 06:09:30.000,336.342,49.794,13060.062389
2 Jan 2000 06:09:40.000,336.067,49.894,13054.783450
2 Jan 2000 06:09:50.000,335.790,49.993,13049.566056
2 Jan 2000 06:10:00.000,335.512,50.092,13044.410320
2 Jan 2000 06:10:10.000,335.232,50.189,13039.316358
2 Jan 2000 06:10:20.000,334.950,50.286,13034.284282
2 Jan 2000 06:10:30.000,334.667,50.382,13029.314203
2 Jan 2000 06:10:40.000,334.382,50.476,13024.406232
2 Jan 2000 06:10:50.000,334.096,50.570,13019.560478
2 Jan 2000 06:11:00.000,333.808,50.663,13014.777048
2 Jan 2000 06:11:10.000,333.518,50.754,13010.056049
2 Jan 2000 06:11:20.000,333.227,50.845,13005.397586
2 Jan 2000 06:11:30.000,332.935,50.935,13000.801764
2 Jan 2000 06:11:40.000,332.640,51.023,12996.268684
2 Jan 2000 06:11:50.000,332.345,51.111,12991.798448
2 Jan 2000 06:12:00.000,332.047,51.197,12987.391157
2 Jan 2000 06:12:10.000,331.749,51.283,12983.046908
2 Jan 2000 06:12:20.000,331.448,51.367,12978.765800
2 Jan 2000 06:12:30.000,331.146,51.451,12974.547928
2 Jan 2000 06:12:40.000,330.843,51.533,12970.393387
2 Jan 2000 06:12:50.000,330.538,51.614,12966.302271
2 Jan 2000 06:13:00.000,330.232,51.694,12962.274672
2 Jan 2000 06:13:10.000,329.924,51.773,12958.310680
2 Jan 2000 06:13:20.000,329.615,51.851,12954.410384
2 Jan 2000 06:13:30.000,329.305,51.928,12950.573874
2 Jan 2000 06:13:40.000,328.992,52.003,12946.801234
2 Jan 2000 06:13:50.000,328.679,52.078,12943.092552
2 Jan 2000 06:14:00.000,328.364,52.151,12939.447909
2 Jan 2000 06:14:10.000,328.048,52.223,12935.867390
2 Jan 2000 06:14:20.000,327.730,52.294,12932.351074
2 Jan 2000 06:14:30.000,327.411,52.364,12928.899042
2 Jan 2000 06:14:40.000,327.091,52.432,12925.511372
2 Jan 2000 06:14:50.000,326.769,52.500,12922.188140
2 Jan 2000 06:15:00.000,326.446,52.566,12918.929422
2 Jan 2000 06:15:10.000,326.122,52.631,12915.735292
2 Jan 2000 06:15:20.000,325.796,52.695,12912.605823
2 Jan 2000 06:15:30.000,325.469,52.757,12909.541085
2 Jan 2000 06:15:40.000,325.141,52.819,12906.541148
2 Jan 2000 06:15:50.000,324.812,52.879,12903.606080
2 Jan 2000 06:16:00.000,324.481,52.938,12900.735949
2 Jan 2000 06:16:10.000,324.149,52.995,12897.930818
2 Jan 2000 06:16:20.000,323.817,53.051,12895.190752
2 Jan 2000 06:16:30.000,323.482,53.106,12892.515814
2 Jan 2000 06:16:40.000,323.147,53.160,12889.906064
2 Jan 2000 06:16:50.000,322.811,53.213,12887.361561
2 Jan 2000 06:17:00.000,322.474,53.264,12884.882363
2 Jan 2000 06:17:10.000,322.135,53.314,12882.468527
2 Jan 2000 06:17:20.000,321.796,53.362,12880.120108
2 Jan 2000 06:17:30.000,321.455,53.409,12877.837158
2 Jan 2000 06:17:40.000,321.113,53.455,12875.619729
2 Jan 2000 06:17:50.000,320.771,53.500,12873.467873
2 Jan 2000 06:18:00.000,320.428,53.543,12871.381637
2 Jan 2000 06:18:10.000,320.083,53.585,12869.361069
2 Jan 2000 06:18:20.000,319.738,53.625,12867.406215
2 Jan 2000 06:18:30.000,319.392,53.665,12865.517119
2 Jan 2000 06:18:40.000,319.045,53.703,12863.693823
2 Jan 2000 06:18:50.000,318.697,53.739,12861.936369
2 Jan 2000 06:19:00.000,318.348,53.774,12860.244797
2 Jan 2000 06:19:10.000,317.999,53.808,12858.619144
2 Jan 2000 06:19:20.000,317.649,53.840,12857.059447
2 Jan 2000 06:19:30.000,317.298,53.871,12855.565741
2 Jan 2000 06:19:40.000,316.946,53.901,12854.138060
2 Jan 2000 06:19:50.000,316.594,53.929,12852.776434
2 Jan 2000 06:20:00.000,316.241,53.956,12851.480896
2 Jan 2000 06:20:10.000,315.888,53.981,12850.251473
2 Jan 2000 06:20:20.000,315.534,54.005,12849.088192
2 Jan 2000 06:20:30.000,315.180,54.028,12847.991080
2 Jan 2000 06:20:40.000,314.825,54.049,12846.960160
2 Jan 2000 06:20:50.000,314.469,54.069,12845.995454
2 Jan 2000 06:21:00.000,314.113,54.087,12845.096985
2 Jan 2000 06:21:10.000,313.757,54.104,12844.264770
2 Jan 2000 06:21:20.000,313.400,54.120,12843.498828
2 Jan 2000 06:21:30.000,313.043,54.134,12842.799176
2 Jan 2000 06:21:40.000,312.685,54.147,12842.165827
2 Jan 2000 06:21:50.000,312.328,54.158,12841.598794
2 Jan 2000 06:22:00.000,311.970,54.168,12841.098090
2 Jan 2000 06:22:10.000,311.611,54.177,12840.663724
2 Jan 2000 06:22:20.000,311.253,54.184,12840.295705
2 Jan 2000 06:22:30.000,310.894,54.189,12839.994038
2 Jan 2000 06:22:40.000,310.535,54.193,12839.758730
2 Jan 2000 06:22:50.000,310.177,54.196,12839.589783
2 Jan 2000 06:23:00.000,309.818,54.197,12839.487201
2 Jan 2000 06:23:10.000,309.459,54.197,12839.450982
2 Jan 2000 06:23:20.000,309.100,54.196,12839.481127
2 Jan 2000 06:23:30.000,308.741,54.193,12839.577631
2 Jan 2000 06:23:40.000,308.382,54.188,12839.740492
2 Jan 2000 06:23:50.000,308.023,54.182,12839.969702
2 Jan 2000 06:24:00.000,307.664,54.175,12840.265255
2 Jan 2000 06:24:10.000,307.305,54.166,12840.627141
2 Jan 2000 06:24:20.000,306.947,54.156,12841.055350
2 Jan 2000 06:24:30.000,306.589,54.145,12841.549869
2 Jan 2000 06:24:40.000,306.231,54.132,12842.110684
2 Jan 2000 06:24:50.000,305.873,54.117,12842.737780
2 Jan 2000 06:25:00.000,305.515,54.101,12843.431140
2 Jan 2000 06:25:10.000,305.158,54.084,12844.190746
2 Jan 2000 06:25:20.000,304.801,54.065,12845.016576
2 Jan 2000 06:25:30.000,304.445,54.045,12845.908610
2 Jan 2000 06:25:40.000,304.089,54.024,12846.866824
2 Jan 2000 06:25:50.000,303.734,54.001,12847.891193
2 Jan 2000 06:26:00.000,303.379,53.977,12848.981691
2 Jan 2000 06:26:10.000,303.024,53.951,12850.138290
2 Jan 2000 06:26:20.000,302.670,53.924,12851.360959
2 Jan 2000 06:26:30.000,302.317,53.895,12852.649669
2 Jan 2000 06:26:40.000,301.964,53.865,12854.004385
2 Jan 2000 06:26:50.000,301.612,53.834,12855.425075
2 Jan 2000 06:27:00.000,301.260,53.802,12856.911701
2 Jan 2000 06:27:10.000,300.909,53.768,12858.464227
2 Jan 2000 06:27:20.000,300.559,53.732,12860.082614
2 Jan 2000 06:27:30.000,300.210,53.695,12861.766820
2 Jan 2000 06:27:40.000,299.861,53.657,12863.516805
2 Jan 2000 06:27:50.000,299.513,53.618,12865.332525
2 Jan 2000 06:28:00.000,299.166,53.577,12867.213934
2 Jan 2000 06:28:10.000,298.820,53.535,12869.160985
2 Jan 2000 06:28:20.000,298.474,53.492,12871.173631
2 Jan 2000 06:28:30.000,298.130,53.447,12873.251822
2 Jan 2000 06:28:40.000,297.786,53.401,12875.395507
2 Jan 2000 06:28:50.000,297.443,53.353,12877.604632
2 Jan 2000 06:29:00.000,297.102,53.304,12879.879144
2 Jan 2000 06:29:10.000,296.761,53.254,12882.218987
2 Jan 2000 06:29:20.000,296.421,53.203,12884.624103
2 Jan 2000 06:29:30.000,296.083,53.150,12887.094433
2 Jan 2000 06:29:40.000,295.745,53.096,12889.629918
2 Jan 2000 06:29:50.000,295.408,53.041,12892.230496
2 Jan 2000 06:30:00.000,295.073,52.985,12894.896103
2 Jan 2000 06:30:10.000,294.738,52.927,12897.626674
2 Jan 2000 06:30:20.000,294.405,52.868,12900.422144
2 Jan 2000 06:30:30.000,294.073,52.808,12903.282444
2 Jan 2000 06:30:40.000,293.742,52.746,12906.207505
2 Jan 2000 06:30:50.000,293.412,52.683,12909.197257
2 Jan 2000 06:31:00.000,293.084,52.619,12912.251628
2 Jan 2000 06:31:10.000,292.756,52.554,12915.370543
2 Jan 2000 06:31:20.000,292.430,52.488,12918.553929
2 Jan 2000 06:31:30.000,292.105,52.420,12921.801708
2 Jan 2000 06:31:40.000,291.781,52.352,12925.113802
2 Jan 2000 06:31:50.000,291.459,52.282,12928.490133
2 Jan 2000 06:32:00.000,291.138,52.210,12931.930619
2 Jan 2000 06:32:10.000,290.818,52.138,12935.435179
2 Jan 2000 06:32:20.000,290.500,52.065,12939.003728
2 Jan 2000 06:32:30.000,290.183,51.990,12942.636182
2 Jan 2000 06:32:40.000,289.867,51.914,12946.332455
2 Jan 2000 06:32:50.000,289.553,51.837,12950.092458
2 Jan 2000 06:33:00.000,289.240,51.759,12953.916102
2 Jan 2000 06:33:10.000,288.928,51.680,12957.803297
2 Jan 2000 06:33:20.000,288.618,51.600,12961.753951
2 Jan 2000 06:33:30.000,288.309,51.519,12965.767970
2 Jan 2000 06:33:40.000,288.002,51.436,12969.845261
2 Jan 2000 06:33:50.000,287.696,51.353,12973.985726
2 Jan 2000 06:34:00.000,287.391,51.268,12978.189269
2 Jan 2000 06:34:10.000,287.088,51.183,12982.455791
2 Jan 2000 06:34:20.000,286.786,51.096,12986.785191
2 Jan 2000 06:34:30.000,286.486,51.008,12991.177369
2 Jan 2000 06:34:40.000,286.188,50.920,12995.632222
2 Jan 2000 06:34:50.000,285.890,50.830,13000.149645
2 Jan 2000 06:35:00.000,285.595,50.739,13004.729534
2 Jan 2000 06:35:10.000,285.300,50.648,13009.371782
2 Jan 2000 06:35:20.000,285.008,50.555,13014.076281
2 Jan 2000 06:35:30.000,284.716,50.461,13018.842921
2 Jan 2000 06:35:40.000,284.427,50.366,13023.671594
2 Jan 2000 06:35:50.000,284.138,50.271,13028.562186
2 Jan 2000 06:36:00.000,283.852,50.174,13033.514584
2 Jan 2000 06:36:10.000,283.567,50.076,13038.528676
2 Jan 2000 06:36:20.000,283.283,49.978,13043.604344
2 Jan 2000 06:36:30.000,283.001,49.878,13048.741473
2 Jan 2000 06:36:40.000,282.720,49.778,13053.939945
2 Jan 2000 06:36:50.000,282.441,49.677,13059.199640
2 Jan 2000 06:37:00.000,282.163,49.575,13064.520439
2 Jan 2000 06:37:10.000,281.887,49.472,13069.902219
2 Jan 2000 06:37:20.000,281.613,49.368,13075.344858
2 Jan 2000 06:37:30.000,281.340,49.263,13080.848232
2 Jan 2000 06:37:40.000,281.069,49.157,13086.412217
2 Jan 2000 06:37:50.000,280.799,49.051,13092.036685
2 Jan 2000 06:38:00.000,280.530,48.943,13097.721509
2 Jan 2000 06:38:10.000,280.264,48.835,13103.466562
2 Jan 2000 06:38:20.000,279.998,48.726,13109.271712
2 Jan 2000 06:38:30.000,279.735,48.616,13115.136831
2 Jan 2000 06:38:40.000,279.472,48.505,13121.061784
2 Jan 2000 06:38:50.000,279.212,48.394,13127.046441
2 Jan 2000 06:39:00.000,278.953,48.282,13133.090665
2 Jan 2000 06:39:10.000,278.695,48.169,13139.194323
2 Jan 2000 06:39:20.000,278.439,48.055,13145.357277
2 Jan 2000 06:39:30.000,278.184,47.940,13151.579391
2 Jan 2000 06:39:40.000,277.931,47.825,13157.860526
2 Jan 2000 06:39:50.000,277.680,47.709,13164.200543
2 Jan 2000 06:40:00.000,277.430,47.592,13170.599300
2 Jan 2000 06:40:10.000,277.181,47.475,13177.056657
2 Jan 2000 06:40:20.000,276.934,47.356,13183.572470
2 Jan 2000 06:40:30.000,276.689,47.237,13190.146596
2 Jan 2000 06:40:40.000,276.445,47.118,13196.778890
2 Jan 2000 06:40:50.000,276.203,46.997,13203.469208
2 Jan 2000 06:41:00.000,275.962,46.876,13210.217401
2 Jan 2000 06:41:10.000,275.722,46.755,13217.023322
2 Jan 2000 06:41:20.000,275.484,46.632,13223.886823
2 Jan 2000 06:41:30.000,275.248,46.509,13230.807755
2 Jan 2000 06:41:40.000,275.013,46.386,13237.785965
2 Jan 2000 06:41:50.000,274.779,46.261,13244.821304
2 Jan 2000 06:42:00.000,274.547,46.136,13251.913619
2 Jan 2000 06:42:10.000,274.316,46.011,13259.062755
2 Jan 2000 06:42:20.000,274.087,45.885,13266.268560
2 Jan 2000 06:42:30.000,273.859,45.758,13273.530878
2 Jan 2000 06:42:40.000,273.633,45.631,13280.849552
2 Jan 2000 06:42:50.000,273.408,45.503,13288.224426
2 Jan 2000 06:43:00.000,273.185,45.374,13295.655342
2 Jan 2000 06:43:10.000,272.963,45.245,13303.142141
2 Jan 2000 06:43:20.000,272.742,45.115,13310.684664
2 Jan 2000 06:43:30.000,272.523,44.985,13318.282749
2 Jan 2000 06:43:40.000,272.305,44.854,13325.936237
2 Jan 2000 06:43:50.000,272.089,44.723,13333.644964
2 Jan 2000 06:44:00.000,271.874,44.591,13341.408769
2 Jan 2000 06:44:10.000,271.660,44.459,13349.227486
2 Jan 2000 06:44:20.000,271.448,44.326,13357.100952
2 Jan 2000 06:44:30.000,271.237,44.192,13365.029001
2 Jan 2000 06:44:40.000,271.028,44.058,13373.011467
2 Jan 2000 06:44:50.000,270.820,43.924,13381.048183
2 Jan 2000 06:45:00.000,270.613,43.789,13389.138982
2 Jan 2000 06:45:10.000,270.407,43.653,13397.283695
2 Jan 2000 06:45:20.000,270.203,43.517,13405.482153
2 Jan 2000 06:45:30.000,270.001,43.381,13413.734186
2 Jan 2000 06:45:40.000,269.799,43.244,13422.039623
2 Jan 2000 06:45:50.000,269.599,43.107,13430.398293
2 Jan 2000 06:46:00.000,269.400,42.969,13438.810024
2 Jan 2000 06:46:10.000,269.203,42.831,13447.274644
2 Jan 2000 06:46:20.000,269.006,42.692,13455.791978
2 Jan 2000 06:46:30.000,268.811,42.553,13464.361853
2 Jan 2000 06:46:40.000,268.618,42.414,13472.984094
2 Jan 2000 06:46:50.000,268.425,42.274,13481.658526
2 Jan 2000 06:47:00.000,268.234,42.134,13490.384971
2 Jan 2000 06:47:10.000,268.044,41.993,13499.163255
2 Jan 2000 06:47:20.000,267.855,41.852,13507.993198
2 Jan 2000 06:47:30.000,267.668,41.710,13516.874624
2 Jan 2000 06:47:40.000,267.481,41.568,13525.807354
2 Jan 2000 06:47:50.000,267.296,41.426,13534.791208
2 Jan 2000 06:48:00.000,267.113,41.284,13543.826007
2 Jan 2000 06:48:10.000,266.930,41.141,13552.911570
2 Jan 2000 06:48:20.000,266.749,40.997,13562.047716
2 Jan 2000 06:48:30.000,266.568,40.854,13571.234264
2 Jan 2000 06:48:40.000,266.389,40.710,13580.471032
2 Jan 2000 06:48:50.000,266.211,40.565,13589.757837
2 Jan 2000 06:49:00.000,266.035,40.420,13599.094496
2 Jan 2000 06:49:10.000,265.859,40.275,13608.480825
2 Jan 2000 06:49:20.000,265.685,40.130,13617.916640
2 Jan 2000 06:49:30.000,265.511,39.984,13627.401757
2 Jan 2000 06:49:40.000,265.339,39.838,13636.935989
2 Jan 2000 06:49:50.000,265.168,39.692,13646.519152
2 Jan 2000 06:50:00.000,264.998,39.545,13656.151059
2 Jan 2000 06:50:10.000,264.829,39.398,13665.831524
2 Jan 2000 06:50:20.000,264.661,39.251,13675.560359
2 Jan 2000 06:50:30.000,264.495,39.104,13685.337376
2 Jan 2000 06:50:40.000,264.329,38.956,13695.162389
2 Jan 2000 06:50:50.000,264.165,38.808,13705.035207
2 Jan 2000 06:51:00.000,264.001,38.660,13714.955643
2 Jan 2000 06:51:10.000,263.839,38.511,13724.923507
2 Jan 2000 06:51:20.000,263.678,38.362,13734.938609
2 Jan 2000 06:51:30.000,263.517,38.213,13745.000759
2 Jan 2000 06:51:40.000,263.358,38.064,13755.109767
2 Jan 2000 06:51:50.000,263.200,37.914,13765.265441
2 Jan 2000 06:52:00.000,263.043,37.764,13775.467591
2 Jan 2000 06:52:10.000,262.886,37.614,13785.716024
2 Jan 2000 06:52:20.000,262.731,37.464,13796.010549
2 Jan 2000 06:52:30.000,262.577,37.314,13806.350973
2 Jan 2000 06:52:40.000,262.424,37.163,13816.737103
2 Jan 2000 06:52:50.000,262.272,37.012,13827.168747
2 Jan 2000 06:53:00.000,262.120,36.861,13837.645710
2 Jan 2000 06:53:10.000,261.970,36.709,13848.167800
2 Jan 2000 06:53:20.000,261.821,36.558,13858.734822
2 Jan 2000 06:53:30.000,261.672,36.406,13869.346582
2 Jan 2000 06:53:40.000,261.525,36.254,13880.002885
2 Jan 2000 06:53:50.000,261.378,36.102,13890.703537
2 Jan 2000 06:54:00.000,261.233,35.949,13901.448342
2 Jan 2000 06:54:10.000,261.088,35.797,13912.237104
2 Jan 2000 06:54:20.000,260.944,35.644,13923.069628
2 Jan 2000 06:54:30.000,260.802,35.491,13933.945719
2 Jan 2000 06:54:40.000,260.660,35.338,13944.865179
2 Jan 2000 06:54:50.000,260.519,35.185,13955.827812
2 Jan 2000 06:55:00.000,260.378,35.032,13966.833423
2 Jan 2000 06:55:02.026,260.350,35.001,13969.068434

Interval Statistics
"Min Elevation",2 Jan 2000 06:55:02.026,260.350,35.001,13969.068434
"Max Elevation",2 Jan 2000 06:23:04.032,309.673,54.197,12839.464611
"Mean Elevation",,,48.678,
"Min Range",2 Jan 2000 06:23:10.458,309.442,54.197,12839.450913
"Max Range",2 Jan 2000 06:55:02.026,260.350,35.001,13969.068434
"Mean Range",,,,13134.607121

"Time (UTCG)","Azimuth (deg)","Elevation (deg)","Range (km)"
2 Jan 2000 12:14:44.564,36.118,43.066,13442.441984
2 Jan 2000 12:14:54.000,35.861,43.064,13442.562097
2 Jan 2000 12:15:04.000,35.587,43.062,13442.751223
2 Jan 2000 12:15:14.000,35.314,43.058,13443.003976
2 Jan 2000 12:15:24.000,35.041,43.054,13443.320355
2 Jan 2000 12:15:34.000,34.768,43.048,13443.700359
2 Jan 2000 12:15:44.000,34.495,43.041,13444.143983
2 Jan 2000 12:15:54.000,34.222,43.034,13444.651224
2 Jan 2000 12:16:04.000,33.949,43.025,13445.222074
2 Jan 2000 12:16:14.000,33.677,43.015,13445.856526
2 Jan 2000 12:16:24.000,33.404,43.004,13446.554571
2 Jan 2000 12:16:34.000,33.132,42.992,13447.316198
2 Jan 2000 12:16:44.000,32.860,42.980,13448.141394
2 Jan 2000 12:16:54.000,32.588,42.966,13449.030147
2 Jan 2000 12:17:04.000,32.317,42.951,13449.982441
2 Jan 2000 12:17:14.000,32.045,42.935,13450.998260
2 Jan 2000 12:17:24.000,31.774,42.918,13452.077585
2 Jan 2000 12:17:34.000,31.503,42.900,13453.220398
2 Jan 2000 12:17:44.000,31.232,42.881,13454.426678
2 Jan 2000 12:17:54.000,30.962,42.860,13455.696402
2 Jan 2000 12:18:04.000,30.692,42.839,13457.029547
2 Jan 2000 12:18:14.000,30.422,42.817,13458.426087
2 Jan 2000 12:18:24.000,30.152,42.794,13459.885996
2 Jan 2000 12:18:34.000,29.883,42.770,13461.409247
2 Jan 2000 12:18:44.000,29.615,42.745,13462.995809
2 Jan 2000 12:18:54.000,29.346,42.719,13464.645652
2 Jan 2000 12:19:04.000,29.078,42.691,13466.358743
2 Jan 2000 12:19:14.000,28.810,42.663,13468.135049
2 Jan 2000 12:19:24.000,28.543,42.634,13469.974536
2 Jan 2000 12:19:34.000,28.276,42.604,13471.877165
2 Jan 2000 12:19:44.000,28.009,42.573,13473.842900
2 Jan 2000 12:19:54.000,27.743,42.541,13475.871701
2 Jan 2000 12:20:04.000,27.478,42.507,13477.963528
2 Jan 2000 12:20:14.000,27.213,42.473,13480.118337
2 Jan 2000 12:20:24.000,26.948,42.438,13482.336086
2 Jan 2000 12:20:34.000,26.684,42.402,13484.616730
2 Jan 2000 12:20:44.000,26.420,42.365,13486.960223
2 Jan 2000 12:20:54.000,26.156,42.327,13489.366516
2 Jan 2000 12:21:04.000,25.894,42.288,13491.835560
2 Jan 2000 12:21:14.000,25.631,42.248,13494.367306
2 Jan 2000 12:21:24.000,25.370,42.207,13496.961700
2 Jan 2000 12:21:34.000,25.109,42.165,13499.618691
2 Jan 2000 12:21:44.000,24.848,42.122,13502.338223
2 Jan 2000 12:21:54.000,24.588,42.078,13505.120241
2 Jan 2000 12:22:04.000,24.328,42.033,13507.964686
2 Jan 2000 12:22:14.000,24.069,41.987,13510.871501
2 Jan 2000 12:22:24.000,23.811,41.940,13513.840624
2 Jan 2000 12:22:34.000,23.553,41.893,13516.871996
2 Jan 2000 12:22:44.000,23.296,41.844,13519.965553
2 Jan 2000 12:22:54.000,23.040,41.794,13523.121231
2 Jan 2000 12:23:04.000,22.784,41.744,13526.338964
2 Jan 2000 12:23:14.000,22.529,41.693,13529.618686
2 Jan 2000 12:23:24.000,22.274,41.640,13532.960329
2 Jan 2000 12:23:34.000,22.020,41.587,13536.363823
2 Jan 2000 12:23:44.000,21.767,41.533,13539.829098
2 Jan 2000 12:23:54.000,21.515,41.478,13543.356081
2 Jan 2000 12:24:04.000,21.263,41.422,13546.944699
2 Jan 2000 12:24:14.000,21.012,41.365,13550.594878
2 Jan 2000 12:24:24.000,20.761,41.307,13554.306542
2 Jan 2000 12:24:34.000,20.511,41.248,13558.079613
2 Jan 2000 12:24:44.000,20.262,41.189,13561.914012
2 Jan 2000 12:24:54.000,20.014,41.128,13565.809661
2 Jan 2000 12:25:04.000,19.766,41.067,13569.766478
2 Jan 2000 12:25:14.000,19.520,41.005,13573.784381
2 Jan 2000 12:25:24.000,19.273,40.942,13577.863286
2 Jan 2000 12:25:34.000,19.028,40.878,13582.003108
2 Jan 2000 12:25:44.000,18.784,40.813,13586.203761
2 Jan 2000 12:25:54.000,18.540,40.747,13590.465158
2 Jan 2000 12:26:04.000,18.297,40.681,13594.787211
2 Jan 2000 12:26:14.000,18.054,40.613,13599.169829
2 Jan 2000 12:26:24.000,17.813,40.545,13603.612921
2 Jan 2000 12:26:34.000,17.572,40.476,13608.116396
2 Jan 2000 12:26:44.000,17.333,40.406,13612.680159
2 Jan 2000 12:26:54.000,17.093,40.336,13617.304117
2 Jan 2000 12:27:04.000,16.855,40.264,13621.988173
2 Jan 2000 12:27:14.000,16.618,40.192,13626.732230
2 Jan 2000 12:27:24.000,16.381,40.119,13631.536190
2 Jan 2000 12:27:34.000,16.145,40.045,13636.399953
2 Jan 2000 12:27:44.000,15.911,39.970,13641.323420
2 Jan 2000 12:27:54.000,15.676,39.895,13646.306488
2 Jan 2000 12:28:04.000,15.443,39.818,13651.349054
2 Jan 2000 12:28:14.000,15.211,39.741,13656.451014
2 Jan 2000 12:28:24.000,14.979,39.663,13661.612264
2 Jan 2000 12:28:34.000,14.749,39.585,13666.832696
2 Jan 2000 12:28:44.000,14.519,39.505,13672.112204
2 Jan 2000 12:28:54.000,14.290,39.425,13677.450678
2 Jan 2000 12:29:04.000,14.062,39.344,13682.848009
2 Jan 2000 12:29:14.000,13.835,39.262,13688.304087
2 Jan 2000 12:29:24.000,13.608,39.180,13693.818799
2 Jan 2000 12:29:34.000,13.383,39.097,13699.392032
2 Jan 2000 12:29:44.000,13.158,39.013,13705.023673
2 Jan 2000 12:29:54.000,12.935,38.928,13710.713605
2 Jan 2000 12:30:04.000,12.712,38.843,13716.461713
2 Jan 2000 12:30:14.000,12.490,38.757,13722.267880
2 Jan 2000 12:30:24.000,12.269,38.670,13728.131987
2 Jan 2000 12:30:34.000,12.049,38.583,13734.053915
2 Jan 2000 12:30:44.000,11.830,38.494,13740.033543
2 Jan 2000 12:30:54.000,11.611,38.405,13746.070750
2 Jan 2000 12:31:04.000,11.394,38.316,13752.165414
2 Jan 2000 12:31:14.000,11.178,38.226,13758.317410
2 Jan 2000 12:31:24.000,10.962,38.135,13764.526615
2 Jan 2000 12:31:34.000,10.747,38.043,13770.792902
2 Jan 2000 12:31:44.000,10.534,37.951,13777.116146
2 Jan 2000 12:31:54.000,10.321,37.858,13783.496219
2 Jan 2000 12:32:04.000,10.109,37.764,13789.932992
2 Jan 2000 12:32:14.000,9.898,37.670,13796.426337
2 Jan 2000 12:32:24.000,9.688,37.575,13802.976121
2 Jan 2000 12:32:34.000,9.479,37.479,13809.582215
2 Jan 2000 12:32:44.000,9.271,37.383,13816.244486
2 Jan 2000 12:32:54.000,9.064,37.286,13822.962801
2 Jan 2000 12:33:04.000,8.857,37.189,13829.737025
2 Jan 2000 12:33:14.000,8.652,37.091,13836.567024
2 Jan 2000 12:33:24.000,8.447,36.992,13843.452661
2 Jan 2000 12:33:34.000,8.244,36.892,13850.393799
2 Jan 2000 12:33:44.000,8.041,36.793,13857.390302
2 Jan 2000 12:33:54.000,7.839,36.692,13864.442029
2 Jan 2000 12:34:04.000,7.639,36.591,13871.548842
2 Jan 2000 12:34:14.000,7.439,36.489,13878.710601
2 Jan 2000 12:34:24.000,7.240,36.387,13885.927163
2 Jan 2000 12:34:34.000,7.042,36.284,13893.198387
2 Jan 2000 12:34:44.000,6.845,36.181,13900.524130
2 Jan 2000 12:34:54.000,6.649,36.077,13907.904248
2 Jan 2000 12:35:04.000,6.453,35.972,13915.338596
2 Jan 2000 12:35:14.000,6.259,35.867,13922.827029
2 Jan 2000 12:35:24.000,6.066,35.761,13930.369400
2 Jan 2000 12:35:34.000,5.873,35.655,13937.965563
2 Jan 2000 12:35:44.000,5.682,35.548,13945.615370
2 Jan 2000 12:35:54.000,5.491,35.441,13953.318672
2 Jan 2000 12:36:04.000,5.301,35.333,13961.075319
2 Jan 2000 12:36:14.000,5.113,35.225,13968.885162
2 Jan 2000 12:36:24.000,4.925,35.116,13976.748049
2 Jan 2000 12:36:34.000,4.738,35.006,13984.663829
2 Jan 2000 12:36:34.541,4.728,35.001,13985.093313

Interval Statistics
"Min Elevation",2 Jan 2000 12:36:34.541,4.728,35.001,13985.093313
"Max Elevation",2 Jan 2000 12:14:44.564,36.118,43.066,13442.441984
"Mean Elevation",,,40.190,
"Min Range",2 Jan 2000 12:14:44.564,36.118,43.066,13442.441984
"Max Range",2 Jan 2000 12:36:34.541,4.728,35.001,13985.093313
"Mean Range",,,,13630.715134

"Time (UTCG)","Azimuth (deg)","Elevation (deg)","Range (km)"
2 Jan 2000 18:55:54.234,303.056,47.902,13157.903198
2 Jan 2000 18:56:04.000,303.354,47.888,13158.728137
2 Jan 2000 18:56:14.000,303.659,47.872,13159.610431
2 Jan 2000 18:56:24.000,303.964,47.857,13160.530674
2 Jan 2000 18:56:34.000,304.269,47.840,13161.488813
2 Jan 2000 18:56:44.000,304.573,47.823,13162.484800
2 Jan 2000 18:56:54.000,304.877,47.805,13163.518582
2 Jan 2000 18:57:04.000,305.181,47.786,13164.590109
2 Jan 2000 18:57:14.000,305.485,47.767,13165.699326
2 Jan 2000 18:57:24.000,305.788,47.747,13166.846184
2 Jan 2000 18:57:34.000,306.091,47.726,13168.030627
2 Jan 2000 18:57:44.000,306.394,47.705,13169.252602
2 Jan 2000 18:57:54.000,306.697,47.683,13170.512055
2 Jan 2000 18:58:04.000,306.999,47.660,13171.808933
2 Jan 2000 18:58:14.000,307.301,47.637,13173.143179
2 Jan 2000 18:58:24.000,307.603,47.613,13174.514738
2 Jan 2000 18:58:34.000,307.904,47.588,13175.923554
2 Jan 2000 18:58:44.000,308.205,47.563,13177.369570
2 Jan 2000 18:58:54.000,308.505,47.537,13178.852731
2 Jan 2000 18:59:04.000,308.806,47.510,13180.372977
2 Jan 2000 18:59:14.000,309.106,47.483,13181.930253
2 Jan 2000 18:59:24.000,309.405,47.455,13183.524498
2 Jan 2000 18:59:34.000,309.704,47.427,13185.155655
2 Jan 2000 18:59:44.000,310.003,47.397,13186.823664
2 Jan 2000 18:59:54.000,310.302,47.367,13188.528465
2 Jan 2000 19:00:04.000,310.600,47.337,13190.269999
2 Jan 2000 19:00:14.000,310.897,47.306,13192.048205
2 Jan 2000 19:00:24.000,311.195,47.274,13193.863022
2 Jan 2000 19:00:34.000,311.491,47.242,13195.714389
2 Jan 2000 19:00:44.000,311.788,47.209,13197.602243
2 Jan 2000 19:00:54.000,312.084,47.175,13199.526522
2 Jan 2000 19:01:04.000,312.379,47.141,13201.487164
2 Jan 2000 19:01:14.000,312.675,47.106,13203.484106
2 Jan 2000 19:01:24.000,312.969,47.070,13205.517283
2 Jan 2000 19:01:34.000,313.264,47.034,13207.586632
2 Jan 2000 19:01:44.000,313.557,46.997,13209.692089
2 Jan 2000 19:01:54.000,313.851,46.960,13211.833589
2 Jan 2000 19:02:04.000,314.144,46.922,13214.011066
2 Jan 2000 19:02:14.000,314.436,46.883,13216.224455
2 Jan 2000 19:02:24.000,314.728,46.844,13218.473689
2 Jan 2000 19:02:34.000,315.020,46.804,13220.758703
2 Jan 2000 19:02:44.000,315.311,46.764,13223.079429
2 Jan 2000 19:02:54.000,315.601,46.723,13225.435800
2 Jan 2000 19:03:04.000,315.891,46.681,13227.827749
2 Jan 2000 19:03:14.000,316.181,46.639,13230.255207
2 Jan 2000 19:03:24.000,316.470,46.596,13232.718106
2 Jan 2000 19:03:34.000,316.758,46.553,13235.216377
2 Jan 2000 19:03:44.000,317.046,46.509,13237.749951
2 Jan 2000 19:03:54.000,317.334,46.465,13240.318758
2 Jan 2000 19:04:04.000,317.621,46.419,13242.922729
2 Jan 2000 19:04:14.000,317.907,46.374,13245.561792
2 Jan 2000 19:04:24.000,318.193,46.328,13248.235878
2 Jan 2000 19:04:34.000,318.478,46.281,13250.944915
2 Jan 2000 19:04:44.000,318.763,46.234,13253.688832
2 Jan 2000 19:04:54.000,319.047,46.186,13256.467556
2 Jan 2000 19:05:04.000,319.331,46.137,13259.281016
2 Jan 2000 19:05:14.000,319.614,46.088,13262.129139
2 Jan 2000 19:05:24.000,319.897,46.039,13265.011852
2 Jan 2000 19:05:34.000,320.179,45.989,13267.929083
2 Jan 2000 19:05:44.000,320.461,45.938,13270.880756
2 Jan 2000 19:05:54.000,320.742,45.887,13273.866799
2 Jan 2000 19:06:04.000,321.022,45.835,13276.887137
2 Jan 2000 19:06:14.000,321.302,45.783,13279.941695
2 Jan 2000 19:06:24.000,321.581,45.730,13283.030399
2 Jan 2000 19:06:34.000,321.860,45.677,13286.153173
2 Jan 2000 19:06:44.000,322.138,45.623,13289.309942
2 Jan 2000 19:06:54.000,322.415,45.569,13292.500629
2 Jan 2000 19:07:04.000,322.692,45.514,13295.725158
2 Jan 2000 19:07:14.000,322.969,45.458,13298.983453
2 Jan 2000 19:07:24.000,323.244,45.402,13302.275436
2 Jan 2000 19:07:34.000,323.519,45.346,13305.601031
2 Jan 2000 19:07:44.000,323.794,45.289,13308.960160
2 Jan 2000 19:07:54.000,324.068,45.232,13312.352745
2 Jan 2000 19:08:04.000,324.341,45.174,13315.778707
2 Jan 2000 19:08:14.000,324.614,45.116,13319.237969
2 Jan 2000 19:08:24.000,324.886,45.057,13322.730452
2 Jan 2000 19:08:34.000,325.158,44.997,13326.256076
2 Jan 2000 19:08:44.000,325.429,44.938,13329.814762
2 Jan 2000 19:08:54.000,325.699,44.877,13333.406430
2 Jan 2000 19:09:04.000,325.968,44.816,13337.031001
2 Jan 2000 19:09:14.000,326.238,44.755,13340.688394
2 Jan 2000 19:09:24.000,326.506,44.693,13344.378529
2 Jan 2000 19:09:34.000,326.774,44.631,13348.101324
2 Jan 2000 19:09:44.000,327.041,44.569,13351.856700
2 Jan 2000 19:09:54.000,327.308,44.505,13355.644573
2 Jan 2000 19:10:04.000,327.574,44.442,13359.464864
2 Jan 2000 19:10:14.000,327.839,44.378,13363.317490
2 Jan 2000 19:10:24.000,328.104,44.313,13367.202368
2 Jan 2000 19:10:34.000,328.368,44.248,13371.119417
2 Jan 2000 19:10:44.000,328.631,44.183,13375.068553
2 Jan 2000 19:10:54.000,328.894,44.117,13379.049694
2 Jan 2000 19:11:04.000,329.156,44.051,13383.062757
2 Jan 2000 19:11:14.000,329.418,43.984,13387.107657
2 Jan 2000 19:11:24.000,329.678,43.917,13391.184313
2 Jan 2000 19:11:34.000,329.939,43.850,13395.292638
2 Jan 2000 19:11:44.000,330.198,43.782,13399.432550
2 Jan 2000 19:11:54.000,330.457,43.713,13403.603964
2 Jan 2000 19:12:04.000,330.716,43.645,13407.806796
2 Jan 2000 19:12:14.000,330.974,43.575,13412.040960
2 Jan 2000 19:12:24.000,331.231,43.506,13416.306371
2 Jan 2000 19:12:34.000,331.487,43.436,13420.602944
2 Jan 2000 19:12:44.000,331.743,43.365,13424.930594
2 Jan 2000 19:12:54.000,331.998,43.294,13429.289235
2 Jan 2000 19:13:04.000,332.253,43.223,13433.678780
2 Jan 2000 19:13:14.000,332.507,43.152,13438.099144
2 Jan 2000 19:13:24.000,332.760,43.080,13442.550241
2 Jan 2000 19:13:34.000,333.012,43.007,13447.031983
2 Jan 2000 19:13:44.000,333.264,42.934,13451.544284
2 Jan 2000 19:13:54.000,333.516,42.861,13456.087057
2 Jan 2000 19:14:04.000,333.766,42.788,13460.660214
2 Jan 2000 19:14:14.000,334.017,42.714,13465.263669
2 Jan 2000 19:14:24.000,334.266,42.640,13469.897334
2 Jan 2000 19:14:34.000,334.515,42.565,13474.561120
2 Jan 2000 19:14:44.000,334.763,42.490,13479.254941
2 Jan 2000 19:14:54.000,335.010,42.415,13483.978707
2 Jan 2000 19:15:04.000,335.257,42.339,13488.732331
2 Jan 2000 19:15:14.000,335.504,42.263,13493.515724
2 Jan 2000 19:15:24.000,335.749,42.186,13498.328797
2 Jan 2000 19:15:34.000,335.994,42.110,13503.171462
2 Jan 2000 19:15:44.000,336.239,42.032,13508.043630
2 Jan 2000 19:15:54.000,336.482,41.955,13512.945211
2 Jan 2000 19:16:04.000,336.725,41.877,13517.876116
2 Jan 2000 19:16:14.000,336.968,41.799,13522.836255
2 Jan 2000 19:16:24.000,337.210,41.721,13527.825540
2 Jan 2000 19:16:34.000,337.451,41.642,13532.843879
2 Jan 2000 19:16:44.000,337.691,41.563,13537.891184
2 Jan 2000 19:16:54.000,337.931,41.483,13542.967364
2 Jan 2000 19:17:04.000,338.171,41.403,13548.072328
2 Jan 2000 19:17:14.000,338.409,41.323,13553.205988
2 Jan 2000 19:17:24.000,338.647,41.243,13558.368251
2 Jan 2000 19:17:34.000,338.885,41.162,13563.559027
2 Jan 2000 19:17:44.000,339.122,41.081,13568.778226
2 Jan 2000 19:17:54.000,339.358,41.000,13574.025757
2 Jan 2000 19:18:04.000,339.593,40.918,13579.301528
2 Jan 2000 19:18:14.000,339.828,40.836,13584.605449
2 Jan 2000 19:18:24.000,340.063,40.754,13589.937428
2 Jan 2000 19:18:34.000,340.296,40.671,13595.297373
2 Jan 2000 19:18:44.000,340.529,40.589,13600.685194
2 Jan 2000 19:18:54.000,340.762,40.505,13606.100798
2 Jan 2000 19:19:04.000,340.994,40.422,13611.544094
2 Jan 2000 19:19:14.000,341.225,40.338,13617.014990
2 Jan 2000 19:19:24.000,341.456,40.254,13622.513394
2 Jan 2000 19:19:34.000,341.686,40.170,13628.039214
2 Jan 2000 19:19:44.000,341.915,40.086,13633.592358
2 Jan 2000 19:19:54.000,342.144,40.001,13639.172733
2 Jan 2000 19:20:04.000,342.372,39.916,13644.780248
2 Jan 2000 19:20:14.000,342.600,39.831,13650.414809
2 Jan 2000 19:20:24.000,342.827,39.745,13656.076324
2 Jan 2000 19:20:34.000,343.053,39.659,13661.764701
2 Jan 2000 19:20:44.000,343.279,39.573,13667.479847
2 Jan 2000 19:20:54.000,343.505,39.487,13673.221669
2 Jan 2000 19:21:04.000,343.729,39.400,13678.990075
2 Jan 2000 19:21:14.000,343.953,39.313,13684.784970
2 Jan 2000 19:21:24.000,344.177,39.226,13690.606264
2 Jan 2000 19:21:34.000,344.400,39.139,13696.453861
2 Jan 2000 19:21:44.000,344.622,39.051,13702.327669
2 Jan 2000 19:21:54.000,344.844,38.964,13708.227596
2 Jan 2000 19:22:04.000,345.065,38.875,13714.153547
2 Jan 2000 19:22:14.000,345.285,38.787,13720.105429
2 Jan 2000 19:22:24.000,345.505,38.699,13726.083149
2 Jan 2000 19:22:34.000,345.725,38.610,13732.086614
2 Jan 2000 19:22:44.000,345.944,38.521,13738.115730
2 Jan 2000 19:22:54.000,346.162,38.432,13744.170404
2 Jan 2000 19:23:04.000,346.380,38.342,13750.250541
2 Jan 2000 19:23:14.000,346.597,38.253,13756.356048
2 Jan 2000 19:23:24.000,346.813,38.163,13762.486832
2 Jan 2000 19:23:34.000,347.029,38.073,13768.642799
2 Jan 2000 19:23:44.000,347.245,37.983,13774.823856
2 Jan 2000 19:23:54.000,347.460,37.892,13781.029907
2 Jan 2000 19:24:04.000,347.674,37.801,13787.260860
2 Jan 2000 19:24:14.000,347.888,37.711,13793.516621
2 Jan 2000 19:24:24.000,348.101,37.619,13799.797096
2 Jan 2000 19:24:34.000,348.314,37.528,13806.102190
2 Jan 2000 19:24:44.000,348.526,37.437,13812.431811
2 Jan 2000 19:24:54.000,348.737,37.345,13818.785863
2 Jan 2000 19:25:04.000,348.948,37.253,13825.164254
2 Jan 2000 19:25:14.000,349.159,37.161,13831.566889
2 Jan 2000 19:25:24.000,349.369,37.069,13837.993674
2 Jan 2000 19:25:34.000,349.578,36.977,13844.444515
2 Jan 2000 19:25:44.000,349.787,36.884,13850.919318
2 Jan 2000 19:25:54.000,349.995,36.791,13857.417990
2 Jan 2000 19:26:04.000,350.203,36.698,13863.940436
2 Jan 2000 19:26:14.000,350.410,36.605,13870.486561
2 Jan 2000 19:26:24.000,350.617,36.512,13877.056273
2 Jan 2000 19:26:34.000,350.823,36.418,13883.649477
2 Jan 2000 19:26:44.000,351.029,36.325,13890.266079
2 Jan 2000 19:26:54.000,351.234,36.231,13896.905986
2 Jan 2000 19:27:04.000,351.439,36.137,13903.569102
2 Jan 2000 19:27:14.000,351.643,36.043,13910.255334
2 Jan 2000 19:27:24.000,351.847,35.948,13916.964589
2 Jan 2000 19:27:34.000,352.050,35.854,13923.696772
2 Jan 2000 19:27:44.000,352.253,35.759,13930.451789
2 Jan 2000 19:27:54.000,352.455,35.665,13937.229547
2 Jan 2000 19:28:04.000,352.656,35.570,13944.029951
2 Jan 2000 19:28:14.000,352.857,35.475,13950.852907
2 Jan 2000 19:28:24.000,353.058,35.379,13957.698323
2 Jan 2000 19:28:34.000,353.258,35.284,13964.566103
2 Jan 2000 19:28:44.000,353.458,35.189,13971.456155
2 Jan 2000 19:28:54.000,353.657,35.093,13978.368384
2 Jan 2000 19:29:03.662,353.849,35.000,13985.067611

Interval Statistics
"Min Elevation",2 Jan 2000 19:29:03.662,353.849,35.000,13985.067611
"Max Elevation",2 Jan 2000 18:55:54.234,303.056,47.902,13157.903198
"Mean Elevation",,,42.792,
"Min Range",2 Jan 2000 18:55:54.234,303.056,47.902,13157.903198
"Max Range",2 Jan 2000 19:29:03.662,353.849,35.000,13985.067611
"Mean Range",,,,13470.130161

"Time (UTCG)","Azimuth (deg)","Elevation (deg)","Range (km)"
3 Jan 2000 02:47:51.305,10.802,53.657,12867.874285
3 Jan 2000 02:48:01.000,10.915,53.844,12859.069366
3 Jan 2000 02:48:11.000,11.032,54.036,12850.029303
3 Jan 2000 02:48:21.000,11.149,54.229,12841.031665
3 Jan 2000 02:48:31.000,11.268,54.422,12832.076626
3 Jan 2000 02:48:41.000,11.387,54.615,12823.164361
3 Jan 2000 02:48:51.000,11.507,54.808,12814.295042
3 Jan 2000 02:49:01.000,11.628,55.001,12805.468842
3 Jan 2000 02:49:11.000,11.749,55.194,12796.685935
3 Jan 2000 02:49:21.000,11.872,55.388,12787.946494
3 Jan 2000 02:49:31.000,11.996,55.582,12779.250690
3 Jan 2000 02:49:41.000,12.120,55.775,12770.598697
3 Jan 2000 02:49:51.000,12.246,55.969,12761.990685
3 Jan 2000 02:50:01.000,12.372,56.163,12753.426827
3 Jan 2000 02:50:11.000,12.499,56.358,12744.907293
3 Jan 2000 02:50:21.000,12.628,56.552,12736.432255
3 Jan 2000 02:50:31.000,12.757,56.746,12728.001882
3 Jan 2000 02:50:41.000,12.887,56.941,12719.616346
3 Jan 2000 02:50:51.000,13.019,57.136,12711.275817
3 Jan 2000 02:51:01.000,13.151,57.331,12702.980463
3 Jan 2000 02:51:11.000,13.285,57.526,12694.730454
3 Jan 2000 02:51:21.000,13.420,57.721,12686.525958
3 Jan 2000 02:51:31.000,13.556,57.916,12678.367146
3 Jan 2000 02:51:41.000,13.693,58.111,12670.254183
3 Jan 2000 02:51:51.000,13.831,58.307,12662.187238
3 Jan 2000 02:52:01.000,13.970,58.502,12654.166479
3 Jan 2000 02:52:11.000,14.111,58.698,12646.192071
3 Jan 2000 02:52:21.000,14.253,58.894,12638.264182
3 Jan 2000 02:52:31.000,14.396,59.090,12630.382978
3 Jan 2000 02:52:41.000,14.540,59.286,12622.548624
3 Jan 2000 02:52:51.000,14.686,59.482,12614.761285
3 Jan 2000 02:53:01.000,14.833,59.678,12607.021126
3 Jan 2000 02:53:11.000,14.982,59.874,12599.328311
3 Jan 2000 02:53:21.000,15.132,60.070,12591.683004
3 Jan 2000 02:53:31.000,15.283,60.267,12584.085369
3 Jan 2000 02:53:41.000,15.436,60.463,12576.535567
3 Jan 2000 02:53:51.000,15.591,60.660,12569.033762
3 Jan 2000 02:54:01.000,15.747,60.857,12561.580115
3 Jan 2000 02:54:11.000,15.904,61.053,12554.174787
3 Jan 2000 02:54:21.000,16.064,61.250,12546.817940
3 Jan 2000 02:54:31.000,16.224,61.447,12539.509733
3 Jan 2000 02:54:41.000,16.387,61.644,12532.250327
3 Jan 2000 02:54:51.000,16.551,61.841,12525.039880
