cemeouhf_ael/Place-CEMID-Sensor-Sensor1-To-Satellite-POLMEO12_AER.csv

"Time (UTCG)","Azimuth (deg)","Elevation (deg)","Range (km)"
1 Jan 2000 12:09:52.332,33.454,41.733,13525.971756
1 Jan 2000 12:10:02.000,33.197,41.730,13526.218919
1 Jan 2000 12:10:12.000,32.931,41.725,13526.536734
1 Jan 2000 12:10:22.000,32.665,41.720,13526.917767
1 Jan 2000 12:10:32.000,32.400,41.713,13527.362016
1 Jan 2000 12:10:42.000,32.135,41.706,13527.869475
1 Jan 2000 12:10:52.000,31.870,41.697,13528.440139
1 Jan 2000 12:11:02.000,31.604,41.687,13529.073999
1 Jan 2000 12:11:12.000,31.339,41.677,13529.771048
1 Jan 2000 12:11:22.000,31.075,41.665,13530.531273
1 Jan 2000 12:11:32.000,30.810,41.653,13531.354664
1 Jan 2000 12:11:42.000,30.546,41.639,13532.241207
1 Jan 2000 12:11:52.000,30.281,41.625,13533.190888
1 Jan 2000 12:12:02.000,30.017,41.609,13534.203690
1 Jan 2000 12:12:12.000,29.754,41.593,13535.279595
1 Jan 2000 12:12:22.000,29.490,41.575,13536.418586
1 Jan 2000 12:12:32.000,29.227,41.557,13537.620640
1 Jan 2000 12:12:42.000,28.964,41.537,13538.885737
1 Jan 2000 12:12:52.000,28.701,41.517,13540.213852
1 Jan 2000 12:13:02.000,28.438,41.496,13541.604962
1 Jan 2000 12:13:12.000,28.176,41.473,13543.059041
1 Jan 2000 12:13:22.000,27.914,41.450,13544.576060
1 Jan 2000 12:13:32.000,27.652,41.425,13546.155991
1 Jan 2000 12:13:42.000,27.391,41.400,13547.798803
1 Jan 2000 12:13:52.000,27.130,41.374,13549.504466
1 Jan 2000 12:14:02.000,26.870,41.346,13551.272944
1 Jan 2000 12:14:12.000,26.609,41.318,13553.104205
1 Jan 2000 12:14:22.000,26.349,41.289,13554.998212
1 Jan 2000 12:14:32.000,26.090,41.259,13556.954928
1 Jan 2000 12:14:42.000,25.831,41.227,13558.974314
1 Jan 2000 12:14:52.000,25.572,41.195,13561.056329
1 Jan 2000 12:15:02.000,25.314,41.162,13563.200933
1 Jan 2000 12:15:12.000,25.056,41.128,13565.408083
1 Jan 2000 12:15:22.000,24.799,41.093,13567.677734
1 Jan 2000 12:15:32.000,24.542,41.057,13570.009840
1 Jan 2000 12:15:42.000,24.285,41.020,13572.404355
1 Jan 2000 12:15:52.000,24.029,40.983,13574.861230
1 Jan 2000 12:16:02.000,23.773,40.944,13577.380416
1 Jan 2000 12:16:12.000,23.518,40.904,13579.961860
1 Jan 2000 12:16:22.000,23.264,40.863,13582.605512
1 Jan 2000 12:16:32.000,23.010,40.822,13585.311316
1 Jan 2000 12:16:42.000,22.756,40.779,13588.079218
1 Jan 2000 12:16:52.000,22.503,40.736,13590.909162
1 Jan 2000 12:17:02.000,22.251,40.691,13593.801089
1 Jan 2000 12:17:12.000,21.999,40.646,13596.754939
1 Jan 2000 12:17:22.000,21.747,40.600,13599.770654
1 Jan 2000 12:17:32.000,21.497,40.553,13602.848170
1 Jan 2000 12:17:42.000,21.246,40.505,13605.987425
1 Jan 2000 12:17:52.000,20.997,40.456,13609.188353
1 Jan 2000 12:18:02.000,20.748,40.406,13612.450890
1 Jan 2000 12:18:12.000,20.499,40.356,13615.774968
1 Jan 2000 12:18:22.000,20.251,40.304,13619.160518
1 Jan 2000 12:18:32.000,20.004,40.251,13622.607471
1 Jan 2000 12:18:42.000,19.757,40.198,13626.115755
1 Jan 2000 12:18:52.000,19.511,40.144,13629.685299
1 Jan 2000 12:19:02.000,19.266,40.089,13633.316029
1 Jan 2000 12:19:12.000,19.021,40.033,13637.007869
1 Jan 2000 12:19:22.000,18.777,39.976,13640.760745
1 Jan 2000 12:19:32.000,18.534,39.918,13644.574577
1 Jan 2000 12:19:42.000,18.291,39.860,13648.449287
1 Jan 2000 12:19:52.000,18.049,39.800,13652.384797
1 Jan 2000 12:20:02.000,17.808,39.740,13656.381023
1 Jan 2000 12:20:12.000,17.567,39.679,13660.437884
1 Jan 2000 12:20:22.000,17.327,39.617,13664.555296
1 Jan 2000 12:20:32.000,17.088,39.554,13668.733174
1 Jan 2000 12:20:42.000,16.849,39.490,13672.971432
1 Jan 2000 12:20:52.000,16.612,39.426,13677.269982
1 Jan 2000 12:21:02.000,16.375,39.360,13681.628737
1 Jan 2000 12:21:12.000,16.138,39.294,13686.047605
1 Jan 2000 12:21:22.000,15.903,39.227,13690.526496
1 Jan 2000 12:21:32.000,15.668,39.160,13695.065318
1 Jan 2000 12:21:42.000,15.434,39.091,13699.663977
1 Jan 2000 12:21:52.000,15.200,39.022,13704.322378
1 Jan 2000 12:22:02.000,14.968,38.952,13709.040427
1 Jan 2000 12:22:12.000,14.736,38.881,13713.818025
1 Jan 2000 12:22:22.000,14.505,38.809,13718.655075
1 Jan 2000 12:22:32.000,14.275,38.736,13723.551477
1 Jan 2000 12:22:42.000,14.045,38.663,13728.507132
1 Jan 2000 12:22:52.000,13.816,38.589,13733.521936
1 Jan 2000 12:23:02.000,13.588,38.514,13738.595788
1 Jan 2000 12:23:12.000,13.361,38.439,13743.728584
1 Jan 2000 12:23:22.000,13.135,38.362,13748.920219
1 Jan 2000 12:23:32.000,12.910,38.285,13754.170586
1 Jan 2000 12:23:42.000,12.685,38.207,13759.479579
1 Jan 2000 12:23:52.000,12.461,38.129,13764.847088
1 Jan 2000 12:24:02.000,12.238,38.050,13770.273005
1 Jan 2000 12:24:12.000,12.016,37.969,13775.757219
1 Jan 2000 12:24:22.000,11.794,37.889,13781.299619
1 Jan 2000 12:24:32.000,11.574,37.807,13786.900091
1 Jan 2000 12:24:42.000,11.354,37.725,13792.558523
1 Jan 2000 12:24:52.000,11.135,37.642,13798.274798
1 Jan 2000 12:25:02.000,10.917,37.558,13804.048802
1 Jan 2000 12:25:12.000,10.699,37.474,13809.880417
1 Jan 2000 12:25:22.000,10.483,37.389,13815.769526
1 Jan 2000 12:25:32.000,10.267,37.303,13821.716009
1 Jan 2000 12:25:42.000,10.053,37.217,13827.719747
1 Jan 2000 12:25:52.000,9.839,37.130,13833.780618
1 Jan 2000 12:26:02.000,9.626,37.042,13839.898501
1 Jan 2000 12:26:12.000,9.414,36.954,13846.073272
1 Jan 2000 12:26:22.000,9.202,36.865,13852.304807
1 Jan 2000 12:26:32.000,8.992,36.775,13858.592982
1 Jan 2000 12:26:42.000,8.782,36.685,13864.937670
1 Jan 2000 12:26:52.000,8.573,36.593,13871.338744
1 Jan 2000 12:27:02.000,8.365,36.502,13877.796078
1 Jan 2000 12:27:12.000,8.158,36.409,13884.309540
1 Jan 2000 12:27:22.000,7.952,36.316,13890.879003
1 Jan 2000 12:27:32.000,7.747,36.223,13897.504334
1 Jan 2000 12:27:42.000,7.543,36.129,13904.185403
1 Jan 2000 12:27:52.000,7.339,36.034,13910.922077
1 Jan 2000 12:28:02.000,7.136,35.938,13917.714222
1 Jan 2000 12:28:12.000,6.935,35.842,13924.561704
1 Jan 2000 12:28:22.000,6.734,35.746,13931.464388
1 Jan 2000 12:28:32.000,6.534,35.648,13938.422137
1 Jan 2000 12:28:42.000,6.334,35.551,13945.434814
1 Jan 2000 12:28:52.000,6.136,35.452,13952.502281
1 Jan 2000 12:29:02.000,5.939,35.353,13959.624400
1 Jan 2000 12:29:12.000,5.742,35.253,13966.801031
1 Jan 2000 12:29:22.000,5.546,35.153,13974.032033
1 Jan 2000 12:29:32.000,5.351,35.053,13981.317264
1 Jan 2000 12:29:37.143,5.252,35.000,13985.084888

Interval Statistics
"Min Elevation",1 Jan 2000 12:29:37.143,5.252,35.000,13985.084888
"Max Elevation",1 Jan 2000 12:09:52.332,33.454,41.733,13525.971756
"Mean Elevation",,,39.323,
"Min Range",1 Jan 2000 12:09:52.332,33.454,41.733,13525.971756
"Max Range",1 Jan 2000 12:29:37.143,5.252,35.000,13985.084888
"Mean Range",,,,13686.697749

"Time (UTCG)","Azimuth (deg)","Elevation (deg)","Range (km)"
1 Jan 2000 18:49:01.833,302.422,49.927,13049.278485
1 Jan 2000 18:49:11.000,302.715,49.908,13050.316732
1 Jan 2000 18:49:21.000,303.034,49.887,13051.487363
1 Jan 2000 18:49:31.000,303.353,49.865,13052.697606
1 Jan 2000 18:49:41.000,303.672,49.842,13053.947405
1 Jan 2000 18:49:51.000,303.991,49.818,13055.236705
1 Jan 2000 18:50:01.000,304.309,49.793,13056.565450
1 Jan 2000 18:50:11.000,304.626,49.768,13057.933583
1 Jan 2000 18:50:21.000,304.944,49.742,13059.341047
1 Jan 2000 18:50:31.000,305.261,49.715,13060.787783
1 Jan 2000 18:50:41.000,305.577,49.688,13062.273735
1 Jan 2000 18:50:51.000,305.893,49.660,13063.798842
1 Jan 2000 18:51:01.000,306.209,49.631,13065.363045
1 Jan 2000 18:51:11.000,306.524,49.601,13066.966285
1 Jan 2000 18:51:21.000,306.839,49.571,13068.608502
1 Jan 2000 18:51:31.000,307.154,49.540,13070.289633
1 Jan 2000 18:51:41.000,307.468,49.508,13072.009619
1 Jan 2000 18:51:51.000,307.781,49.476,13073.768396
1 Jan 2000 18:52:01.000,308.094,49.443,13075.565903
1 Jan 2000 18:52:11.000,308.407,49.409,13077.402076
1 Jan 2000 18:52:21.000,308.719,49.374,13079.276852
1 Jan 2000 18:52:31.000,309.030,49.339,13081.190168
1 Jan 2000 18:52:41.000,309.341,49.303,13083.141958
1 Jan 2000 18:52:51.000,309.652,49.266,13085.132159
1 Jan 2000 18:53:01.000,309.962,49.229,13087.160704
1 Jan 2000 18:53:11.000,310.271,49.191,13089.227527
1 Jan 2000 18:53:21.000,310.580,49.152,13091.332563
1 Jan 2000 18:53:31.000,310.889,49.112,13093.475745
1 Jan 2000 18:53:41.000,311.197,49.072,13095.657004
1 Jan 2000 18:53:51.000,311.504,49.032,13097.876274
1 Jan 2000 18:54:01.000,311.811,48.990,13100.133486
1 Jan 2000 18:54:11.000,312.117,48.948,13102.428572
1 Jan 2000 18:54:21.000,312.423,48.905,13104.761462
1 Jan 2000 18:54:31.000,312.728,48.862,13107.132087
1 Jan 2000 18:54:41.000,313.032,48.818,13109.540377
1 Jan 2000 18:54:51.000,313.336,48.773,13111.986260
1 Jan 2000 18:55:01.000,313.640,48.728,13114.469667
1 Jan 2000 18:55:11.000,313.942,48.682,13116.990526
1 Jan 2000 18:55:21.000,314.245,48.635,13119.548765
1 Jan 2000 18:55:31.000,314.546,48.588,13122.144311
1 Jan 2000 18:55:41.000,314.847,48.540,13124.777092
1 Jan 2000 18:55:51.000,315.147,48.491,13127.447035
1 Jan 2000 18:56:01.000,315.447,48.442,13130.154066
1 Jan 2000 18:56:11.000,315.746,48.392,13132.898111
1 Jan 2000 18:56:21.000,316.044,48.341,13135.679096
1 Jan 2000 18:56:31.000,316.342,48.290,13138.496946
1 Jan 2000 18:56:41.000,316.639,48.239,13141.351585
1 Jan 2000 18:56:51.000,316.935,48.186,13144.242939
1 Jan 2000 18:57:01.000,317.231,48.133,13147.170930
1 Jan 2000 18:57:11.000,317.526,48.080,13150.135482
1 Jan 2000 18:57:21.000,317.821,48.026,13153.136518
1 Jan 2000 18:57:31.000,318.114,47.971,13156.173962
1 Jan 2000 18:57:41.000,318.407,47.916,13159.247735
1 Jan 2000 18:57:51.000,318.700,47.860,13162.357760
1 Jan 2000 18:58:01.000,318.992,47.803,13165.503957
1 Jan 2000 18:58:11.000,319.283,47.746,13168.686248
1 Jan 2000 18:58:21.000,319.573,47.689,13171.904553
1 Jan 2000 18:58:31.000,319.863,47.631,13175.158794
1 Jan 2000 18:58:41.000,320.151,47.572,13178.448890
1 Jan 2000 18:58:51.000,320.440,47.512,13181.774760
1 Jan 2000 18:59:01.000,320.727,47.453,13185.136324
1 Jan 2000 18:59:11.000,321.014,47.392,13188.533501
1 Jan 2000 18:59:21.000,321.300,47.331,13191.966210
1 Jan 2000 18:59:31.000,321.586,47.270,13195.434367
1 Jan 2000 18:59:41.000,321.870,47.208,13198.937892
1 Jan 2000 18:59:51.000,322.154,47.145,13202.476702
1 Jan 2000 19:00:01.000,322.438,47.082,13206.050713
1 Jan 2000 19:00:11.000,322.720,47.018,13209.659843
1 Jan 2000 19:00:21.000,323.002,46.954,13213.304008
1 Jan 2000 19:00:31.000,323.283,46.889,13216.983124
1 Jan 2000 19:00:41.000,323.563,46.824,13220.697107
1 Jan 2000 19:00:51.000,323.843,46.758,13224.445872
1 Jan 2000 19:01:01.000,324.122,46.692,13228.229334
1 Jan 2000 19:01:11.000,324.400,46.625,13232.047408
1 Jan 2000 19:01:21.000,324.677,46.558,13235.900008
1 Jan 2000 19:01:31.000,324.954,46.490,13239.787050
1 Jan 2000 19:01:41.000,325.230,46.421,13243.708445
1 Jan 2000 19:01:51.000,325.505,46.353,13247.664108
1 Jan 2000 19:02:01.000,325.780,46.283,13251.653953
1 Jan 2000 19:02:11.000,326.053,46.214,13255.677891
1 Jan 2000 19:02:21.000,326.326,46.143,13259.735836
1 Jan 2000 19:02:31.000,326.599,46.073,13263.827699
1 Jan 2000 19:02:41.000,326.870,46.001,13267.953393
1 Jan 2000 19:02:51.000,327.141,45.930,13272.112830
1 Jan 2000 19:03:01.000,327.411,45.857,13276.305920
1 Jan 2000 19:03:11.000,327.680,45.785,13280.532576
1 Jan 2000 19:03:21.000,327.949,45.712,13284.792707
1 Jan 2000 19:03:31.000,328.216,45.638,13289.086224
1 Jan 2000 19:03:41.000,328.483,45.564,13293.413038
1 Jan 2000 19:03:51.000,328.750,45.490,13297.773059
1 Jan 2000 19:04:01.000,329.015,45.415,13302.166196
1 Jan 2000 19:04:11.000,329.280,45.340,13306.592359
1 Jan 2000 19:04:21.000,329.544,45.264,13311.051457
1 Jan 2000 19:04:31.000,329.807,45.188,13315.543399
1 Jan 2000 19:04:41.000,330.070,45.111,13320.068093
1 Jan 2000 19:04:51.000,330.332,45.034,13324.625449
1 Jan 2000 19:05:01.000,330.593,44.957,13329.215375
1 Jan 2000 19:05:11.000,330.853,44.879,13333.837778
1 Jan 2000 19:05:21.000,331.112,44.801,13338.492566
1 Jan 2000 19:05:31.000,331.371,44.722,13343.179646
1 Jan 2000 19:05:41.000,331.629,44.643,13347.898927
1 Jan 2000 19:05:51.000,331.886,44.563,13352.650314
1 Jan 2000 19:06:01.000,332.143,44.484,13357.433716
1 Jan 2000 19:06:11.000,332.399,44.403,13362.249037
1 Jan 2000 19:06:21.000,332.654,44.323,13367.096186
1 Jan 2000 19:06:31.000,332.908,44.242,13371.975067
1 Jan 2000 19:06:41.000,333.162,44.160,13376.885587
1 Jan 2000 19:06:51.000,333.415,44.078,13381.827652
1 Jan 2000 19:07:01.000,333.667,43.996,13386.801167
1 Jan 2000 19:07:11.000,333.918,43.914,13391.806037
1 Jan 2000 19:07:21.000,334.169,43.831,13396.842167
1 Jan 2000 19:07:31.000,334.419,43.747,13401.909464
1 Jan 2000 19:07:41.000,334.668,43.664,13407.007830
1 Jan 2000 19:07:51.000,334.916,43.580,13412.137171
1 Jan 2000 19:08:01.000,335.164,43.495,13417.297391
1 Jan 2000 19:08:11.000,335.411,43.411,13422.488394
1 Jan 2000 19:08:21.000,335.657,43.326,13427.710085
1 Jan 2000 19:08:31.000,335.902,43.240,13432.962366
1 Jan 2000 19:08:41.000,336.147,43.154,13438.245143
1 Jan 2000 19:08:51.000,336.391,43.068,13443.558317
1 Jan 2000 19:09:01.000,336.635,42.982,13448.901793
1 Jan 2000 19:09:11.000,336.877,42.895,13454.275474
1 Jan 2000 19:09:21.000,337.119,42.808,13459.679262
1 Jan 2000 19:09:31.000,337.360,42.721,13465.113061
1 Jan 2000 19:09:41.000,337.601,42.633,13470.576772
1 Jan 2000 19:09:51.000,337.840,42.545,13476.070300
1 Jan 2000 19:10:01.000,338.079,42.457,13481.593545
1 Jan 2000 19:10:11.000,338.318,42.368,13487.146411
1 Jan 2000 19:10:21.000,338.555,42.279,13492.728799
1 Jan 2000 19:10:31.000,338.792,42.190,13498.340611
1 Jan 2000 19:10:41.000,339.028,42.101,13503.981749
1 Jan 2000 19:10:51.000,339.264,42.011,13509.652115
1 Jan 2000 19:11:01.000,339.499,41.921,13515.351611
1 Jan 2000 19:11:11.000,339.733,41.830,13521.080137
1 Jan 2000 19:11:21.000,339.966,41.739,13526.837596
1 Jan 2000 19:11:31.000,340.199,41.648,13532.623887
1 Jan 2000 19:11:41.000,340.431,41.557,13538.438913
1 Jan 2000 19:11:51.000,340.662,41.466,13544.282575
1 Jan 2000 19:12:01.000,340.893,41.374,13550.154772
1 Jan 2000 19:12:11.000,341.123,41.282,13556.055406
1 Jan 2000 19:12:21.000,341.352,41.189,13561.984378
1 Jan 2000 19:12:31.000,341.581,41.097,13567.941588
1 Jan 2000 19:12:41.000,341.809,41.004,13573.926937
1 Jan 2000 19:12:51.000,342.036,40.911,13579.940324
1 Jan 2000 19:13:01.000,342.263,40.817,13585.981651
1 Jan 2000 19:13:11.000,342.489,40.724,13592.050817
1 Jan 2000 19:13:21.000,342.714,40.630,13598.147722
1 Jan 2000 19:13:31.000,342.939,40.536,13604.272267
1 Jan 2000 19:13:41.000,343.163,40.442,13610.424350
1 Jan 2000 19:13:51.000,343.386,40.347,13616.603873
1 Jan 2000 19:14:01.000,343.608,40.252,13622.810735
1 Jan 2000 19:14:11.000,343.830,40.157,13629.044836
1 Jan 2000 19:14:21.000,344.052,40.062,13635.306074
1 Jan 2000 19:14:31.000,344.272,39.966,13641.594351
1 Jan 2000 19:14:41.000,344.492,39.870,13647.909564
1 Jan 2000 19:14:51.000,344.712,39.774,13654.251615
1 Jan 2000 19:15:01.000,344.931,39.678,13660.620401
1 Jan 2000 19:15:11.000,345.149,39.582,13667.015823
1 Jan 2000 19:15:21.000,345.366,39.485,13673.437780
1 Jan 2000 19:15:31.000,345.583,39.388,13679.886170
1 Jan 2000 19:15:41.000,345.799,39.291,13686.360893
1 Jan 2000 19:15:51.000,346.015,39.194,13692.861849
1 Jan 2000 19:16:01.000,346.230,39.097,13699.388936
1 Jan 2000 19:16:11.000,346.444,38.999,13705.942053
1 Jan 2000 19:16:21.000,346.658,38.901,13712.521100
1 Jan 2000 19:16:31.000,346.871,38.803,13719.125975
1 Jan 2000 19:16:41.000,347.084,38.705,13725.756578
1 Jan 2000 19:16:51.000,347.296,38.606,13732.412806
1 Jan 2000 19:17:01.000,347.507,38.508,13739.094560
1 Jan 2000 19:17:11.000,347.718,38.409,13745.801738
1 Jan 2000 19:17:21.000,347.928,38.310,13752.534239
1 Jan 2000 19:17:31.000,348.137,38.211,13759.291961
1 Jan 2000 19:17:41.000,348.346,38.111,13766.074804
1 Jan 2000 19:17:51.000,348.554,38.012,13772.882667
1 Jan 2000 19:18:01.000,348.762,37.912,13779.715447
1 Jan 2000 19:18:11.000,348.969,37.812,13786.573045
1 Jan 2000 19:18:21.000,349.176,37.712,13793.455359
1 Jan 2000 19:18:31.000,349.382,37.612,13800.362287
1 Jan 2000 19:18:41.000,349.587,37.512,13807.293729
1 Jan 2000 19:18:51.000,349.792,37.411,13814.249583
1 Jan 2000 19:19:01.000,349.996,37.311,13821.229748
1 Jan 2000 19:19:11.000,350.200,37.210,13828.234122
1 Jan 2000 19:19:21.000,350.403,37.109,13835.262606
1 Jan 2000 19:19:31.000,350.606,37.008,13842.315097
1 Jan 2000 19:19:41.000,350.808,36.906,13849.391495
1 Jan 2000 19:19:51.000,351.009,36.805,13856.491698
1 Jan 2000 19:20:01.000,351.210,36.703,13863.615605
1 Jan 2000 19:20:11.000,351.410,36.602,13870.763115
1 Jan 2000 19:20:21.000,351.610,36.500,13877.934128
1 Jan 2000 19:20:31.000,351.810,36.398,13885.128541
1 Jan 2000 19:20:41.000,352.008,36.296,13892.346255
1 Jan 2000 19:20:51.000,352.206,36.193,13899.587167
1 Jan 2000 19:21:01.000,352.404,36.091,13906.851178
1 Jan 2000 19:21:11.000,352.601,35.989,13914.138186
1 Jan 2000 19:21:21.000,352.798,35.886,13921.448091
1 Jan 2000 19:21:31.000,352.994,35.783,13928.780791
1 Jan 2000 19:21:41.000,353.189,35.680,13936.136186
1 Jan 2000 19:21:51.000,353.384,35.577,13943.514175
1 Jan 2000 19:22:01.000,353.579,35.474,13950.914658
1 Jan 2000 19:22:11.000,353.773,35.371,13958.337534
1 Jan 2000 19:22:21.000,353.966,35.267,13965.782702
1 Jan 2000 19:22:31.000,354.159,35.164,13973.250061
1 Jan 2000 19:22:41.000,354.352,35.060,13980.739512
1 Jan 2000 19:22:46.782,354.463,35.000,13985.080013

Interval Statistics
"Min Elevation",1 Jan 2000 19:22:46.782,354.463,35.000,13985.080013
"Max Elevation",1 Jan 2000 18:49:01.833,302.422,49.927,13049.278485
"Mean Elevation",,,43.829,
"Min Range",1 Jan 2000 18:49:01.833,302.422,49.927,13049.278485
"Max Range",1 Jan 2000 19:22:46.782,354.463,35.000,13985.080013
"Mean Range",,,,13410.251867

"Time (UTCG)","Azimuth (deg)","Elevation (deg)","Range (km)"
2 Jan 2000 02:40:10.933,11.696,52.028,12946.742766
2 Jan 2000 02:40:20.000,11.815,52.196,12938.413829
2 Jan 2000 02:40:30.000,11.948,52.382,12929.266483
2 Jan 2000 02:40:40.000,12.082,52.568,12920.159531
2 Jan 2000 02:40:50.000,12.217,52.755,12911.093144
2 Jan 2000 02:41:00.000,12.352,52.941,12902.067492
2 Jan 2000 02:41:10.000,12.489,53.127,12893.082747
2 Jan 2000 02:41:20.000,12.626,53.314,12884.139080
2 Jan 2000 02:41:30.000,12.765,53.501,12875.236659
2 Jan 2000 02:41:40.000,12.904,53.687,12866.375656
2 Jan 2000 02:41:50.000,13.044,53.874,12857.556241
2 Jan 2000 02:42:00.000,13.186,54.061,12848.778583
2 Jan 2000 02:42:10.000,13.328,54.249,12840.042852
2 Jan 2000 02:42:20.000,13.472,54.436,12831.349217
2 Jan 2000 02:42:30.000,13.616,54.623,12822.697847
2 Jan 2000 02:42:40.000,13.762,54.811,12814.088911
2 Jan 2000 02:42:50.000,13.908,54.998,12805.522577
2 Jan 2000 02:43:00.000,14.056,55.186,12796.999014
2 Jan 2000 02:43:10.000,14.205,55.373,12788.518389
2 Jan 2000 02:43:20.000,14.355,55.561,12780.080870
2 Jan 2000 02:43:30.000,14.507,55.749,12771.686624
2 Jan 2000 02:43:40.000,14.659,55.937,12763.335819
2 Jan 2000 02:43:50.000,14.813,56.125,12755.028621
2 Jan 2000 02:44:00.000,14.968,56.313,12746.765197
2 Jan 2000 02:44:10.000,15.124,56.501,12738.545713
2 Jan 2000 02:44:20.000,15.282,56.690,12730.370334
2 Jan 2000 02:44:30.000,15.441,56.878,12722.239226
2 Jan 2000 02:44:40.000,15.601,57.066,12714.152554
2 Jan 2000 02:44:50.000,15.763,57.255,12706.110484
2 Jan 2000 02:45:00.000,15.926,57.443,12698.113178
2 Jan 2000 02:45:10.000,16.090,57.632,12690.160802
2 Jan 2000 02:45:20.000,16.256,57.820,12682.253519
2 Jan 2000 02:45:30.000,16.424,58.009,12674.391491
2 Jan 2000 02:45:40.000,16.592,58.198,12666.574883
2 Jan 2000 02:45:50.000,16.763,58.387,12658.803857
2 Jan 2000 02:46:00.000,16.935,58.575,12651.078574
2 Jan 2000 02:46:10.000,17.108,58.764,12643.399196
2 Jan 2000 02:46:20.000,17.284,58.953,12635.765885
2 Jan 2000 02:46:30.000,17.460,59.142,12628.178801
2 Jan 2000 02:46:40.000,17.639,59.331,12620.638104
2 Jan 2000 02:46:50.000,17.819,59.520,12613.143955
2 Jan 2000 02:47:00.000,18.001,59.708,12605.696513
2 Jan 2000 02:47:10.000,18.185,59.897,12598.295937
2 Jan 2000 02:47:20.000,18.370,60.086,12590.942385
2 Jan 2000 02:47:30.000,18.558,60.275,12583.636015
2 Jan 2000 02:47:40.000,18.747,60.464,12576.376986
2 Jan 2000 02:47:50.000,18.938,60.653,12569.165453
2 Jan 2000 02:48:00.000,19.132,60.842,12562.001574
2 Jan 2000 02:48:10.000,19.327,61.031,12554.885504
2 Jan 2000 02:48:20.000,19.524,61.220,12547.817399
2 Jan 2000 02:48:30.000,19.723,61.409,12540.797414
2 Jan 2000 02:48:40.000,19.925,61.597,12533.825704
2 Jan 2000 02:48:50.000,20.129,61.786,12526.902421
2 Jan 2000 02:49:00.000,20.334,61.975,12520.027721
2 Jan 2000 02:49:10.000,20.543,62.163,12513.201754
2 Jan 2000 02:49:20.000,20.753,62.352,12506.424674
2 Jan 2000 02:49:30.000,20.966,62.541,12499.696632
2 Jan 2000 02:49:40.000,21.181,62.729,12493.017779
2 Jan 2000 02:49:50.000,21.399,62.917,12486.388265
2 Jan 2000 02:50:00.000,21.619,63.106,12479.808241
2 Jan 2000 02:50:10.000,21.842,63.294,12473.277855
2 Jan 2000 02:50:20.000,22.067,63.482,12466.797256
2 Jan 2000 02:50:30.000,22.295,63.670,12460.366592
2 Jan 2000 02:50:40.000,22.526,63.858,12453.986011
2 Jan 2000 02:50:50.000,22.760,64.046,12447.655658
2 Jan 2000 02:51:00.000,22.996,64.233,12441.375680
2 Jan 2000 02:51:10.000,23.236,64.421,12435.146222
2 Jan 2000 02:51:20.000,23.478,64.608,12428.967429
2 Jan 2000 02:51:30.000,23.723,64.795,12422.839445
2 Jan 2000 02:51:40.000,23.972,64.983,12416.762413
2 Jan 2000 02:51:50.000,24.224,65.169,12410.736476
2 Jan 2000 02:52:00.000,24.479,65.356,12404.761775
2 Jan 2000 02:52:10.000,24.737,65.543,12398.838452
2 Jan 2000 02:52:20.000,24.999,65.729,12392.966647
2 Jan 2000 02:52:30.000,25.264,65.915,12387.146499
2 Jan 2000 02:52:40.000,25.532,66.101,12381.378149
2 Jan 2000 02:52:50.000,25.805,66.287,12375.661733
2 Jan 2000 02:53:00.000,26.081,66.472,12369.997390
2 Jan 2000 02:53:10.000,26.361,66.657,12364.385256
2 Jan 2000 02:53:20.000,26.645,66.842,12358.825467
2 Jan 2000 02:53:30.000,26.932,67.027,12353.318158
2 Jan 2000 02:53:40.000,27.224,67.212,12347.863464
2 Jan 2000 02:53:50.000,27.520,67.396,12342.461518
2 Jan 2000 02:54:00.000,27.821,67.580,12337.112452
2 Jan 2000 02:54:10.000,28.125,67.763,12331.816399
2 Jan 2000 02:54:20.000,28.434,67.946,12326.573490
2 Jan 2000 02:54:30.000,28.748,68.129,12321.383855
2 Jan 2000 02:54:40.000,29.067,68.311,12316.247623
2 Jan 2000 02:54:50.000,29.390,68.494,12311.164923
2 Jan 2000 02:55:00.000,29.718,68.675,12306.135883
2 Jan 2000 02:55:10.000,30.051,68.857,12301.160629
2 Jan 2000 02:55:20.000,30.389,69.037,12296.239288
2 Jan 2000 02:55:30.000,30.733,69.218,12291.371985
2 Jan 2000 02:55:40.000,31.082,69.398,12286.558843
2 Jan 2000 02:55:50.000,31.437,69.577,12281.799987
2 Jan 2000 02:56:00.000,31.797,69.756,12277.095538
2 Jan 2000 02:56:10.000,32.163,69.935,12272.445618
2 Jan 2000 02:56:20.000,32.535,70.113,12267.850348
2 Jan 2000 02:56:30.000,32.913,70.290,12263.309847
2 Jan 2000 02:56:40.000,33.297,70.467,12258.824234
2 Jan 2000 02:56:50.000,33.688,70.644,12254.393626
2 Jan 2000 02:57:00.000,34.085,70.819,12250.018141
2 Jan 2000 02:57:10.000,34.489,70.994,12245.697894
2 Jan 2000 02:57:20.000,34.899,71.169,12241.433001
2 Jan 2000 02:57:30.000,35.317,71.342,12237.223575
2 Jan 2000 02:57:40.000,35.742,71.515,12233.069728
2 Jan 2000 02:57:50.000,36.175,71.688,12228.971574
2 Jan 2000 02:58:00.000,36.615,71.859,12224.929222
2 Jan 2000 02:58:10.000,37.062,72.030,12220.942783
2 Jan 2000 02:58:20.000,37.518,72.200,12217.012366
2 Jan 2000 02:58:30.000,37.982,72.369,12213.138079
2 Jan 2000 02:58:40.000,38.454,72.537,12209.320028
2 Jan 2000 02:58:50.000,38.935,72.705,12205.558319
2 Jan 2000 02:59:00.000,39.424,72.871,12201.853058
2 Jan 2000 02:59:10.000,39.922,73.036,12198.204347
2 Jan 2000 02:59:20.000,40.430,73.201,12194.612289
2 Jan 2000 02:59:30.000,40.947,73.364,12191.076987
2 Jan 2000 02:59:40.000,41.473,73.527,12187.598541
2 Jan 2000 02:59:50.000,42.009,73.688,12184.177049
2 Jan 2000 03:00:00.000,42.556,73.848,12180.812611
2 Jan 2000 03:00:10.000,43.112,74.007,12177.505324
2 Jan 2000 03:00:20.000,43.679,74.164,12174.255284
2 Jan 2000 03:00:30.000,44.257,74.321,12171.062585
2 Jan 2000 03:00:40.000,44.845,74.476,12167.927323
2 Jan 2000 03:00:50.000,45.445,74.630,12164.849590
2 Jan 2000 03:01:00.000,46.057,74.782,12161.829477
2 Jan 2000 03:01:10.000,46.680,74.933,12158.867075
2 Jan 2000 03:01:20.000,47.315,75.082,12155.962475
2 Jan 2000 03:01:30.000,47.962,75.230,12153.115763
2 Jan 2000 03:01:40.000,48.621,75.376,12150.327027
2 Jan 2000 03:01:50.000,49.293,75.520,12147.596353
2 Jan 2000 03:02:00.000,49.978,75.663,12144.923827
2 Jan 2000 03:02:10.000,50.676,75.804,12142.309531
2 Jan 2000 03:02:20.000,51.388,75.943,12139.753548
2 Jan 2000 03:02:30.000,52.113,76.081,12137.255960
2 Jan 2000 03:02:40.000,52.851,76.216,12134.816847
2 Jan 2000 03:02:50.000,53.604,76.349,12132.436287
2 Jan 2000 03:03:00.000,54.371,76.480,12130.114359
2 Jan 2000 03:03:10.000,55.152,76.609,12127.851138
2 Jan 2000 03:03:20.000,55.947,76.736,12125.646701
2 Jan 2000 03:03:30.000,56.758,76.861,12123.501121
2 Jan 2000 03:03:40.000,57.583,76.983,12121.414471
2 Jan 2000 03:03:50.000,58.423,77.103,12119.386823
2 Jan 2000 03:04:00.000,59.278,77.220,12117.418248
2 Jan 2000 03:04:10.000,60.148,77.335,12115.508814
2 Jan 2000 03:04:20.000,61.034,77.447,12113.658590
2 Jan 2000 03:04:30.000,61.935,77.556,12111.867642
2 Jan 2000 03:04:40.000,62.851,77.662,12110.136036
2 Jan 2000 03:04:50.000,63.782,77.766,12108.463835
2 Jan 2000 03:05:00.000,64.729,77.867,12106.851104
2 Jan 2000 03:05:10.000,65.690,77.964,12105.297904
2 Jan 2000 03:05:20.000,66.667,78.059,12103.804294
2 Jan 2000 03:05:30.000,67.659,78.150,12102.370335
2 Jan 2000 03:05:40.000,68.665,78.238,12100.996084
2 Jan 2000 03:05:50.000,69.686,78.322,12099.681597
2 Jan 2000 03:06:00.000,70.721,78.403,12098.426931
2 Jan 2000 03:06:10.000,71.770,78.481,12097.232139
2 Jan 2000 03:06:20.000,72.833,78.555,12096.097273
2 Jan 2000 03:06:30.000,73.909,78.625,12095.022386
2 Jan 2000 03:06:40.000,74.998,78.692,12094.007526
2 Jan 2000 03:06:50.000,76.099,78.755,12093.052745
2 Jan 2000 03:07:00.000,77.211,78.814,12092.158087
2 Jan 2000 03:07:10.000,78.335,78.869,12091.323601
2 Jan 2000 03:07:20.000,79.470,78.920,12090.549330
2 Jan 2000 03:07:30.000,80.614,78.967,12089.835319
2 Jan 2000 03:07:40.000,81.768,79.010,12089.181609
2 Jan 2000 03:07:50.000,82.930,79.048,12088.588242
2 Jan 2000 03:08:00.000,84.100,79.083,12088.055257
2 Jan 2000 03:08:10.000,85.276,79.113,12087.582692
2 Jan 2000 03:08:20.000,86.459,79.139,12087.170585
2 Jan 2000 03:08:30.000,87.647,79.160,12086.818970
2 Jan 2000 03:08:40.000,88.839,79.177,12086.527883
2 Jan 2000 03:08:50.000,90.035,79.190,12086.297355
2 Jan 2000 03:09:00.000,91.232,79.199,12086.127420
2 Jan 2000 03:09:10.000,92.432,79.203,12086.018106
2 Jan 2000 03:09:20.000,93.632,79.202,12085.969443
2 Jan 2000 03:09:30.000,94.831,79.197,12085.981458
2 Jan 2000 03:09:40.000,96.029,79.188,12086.054177
2 Jan 2000 03:09:50.000,97.225,79.174,12086.187626
2 Jan 2000 03:10:00.000,98.417,79.156,12086.381828
2 Jan 2000 03:10:10.000,99.605,79.134,12086.636804
2 Jan 2000 03:10:20.000,100.788,79.107,12086.952576
2 Jan 2000 03:10:30.000,101.966,79.076,12087.329163
2 Jan 2000 03:10:40.000,103.136,79.040,12087.766583
2 Jan 2000 03:10:50.000,104.298,79.001,12088.264852
2 Jan 2000 03:11:00.000,105.453,78.957,12088.823987
2 Jan 2000 03:11:10.000,106.597,78.909,12089.444000
2 Jan 2000 03:11:20.000,107.733,78.857,12090.124905
2 Jan 2000 03:11:30.000,108.857,78.801,12090.866713
2 Jan 2000 03:11:40.000,109.970,78.741,12091.669433
2 Jan 2000 03:11:50.000,111.072,78.677,12092.533074
2 Jan 2000 03:12:00.000,112.161,78.609,12093.457643
2 Jan 2000 03:12:10.000,113.238,78.537,12094.443146
2 Jan 2000 03:12:20.000,114.301,78.462,12095.489588
2 Jan 2000 03:12:30.000,115.350,78.383,12096.596970
2 Jan 2000 03:12:40.000,116.386,78.300,12097.765296
2 Jan 2000 03:12:50.000,117.407,78.214,12098.994564
2 Jan 2000 03:13:00.000,118.414,78.125,12100.284775
2 Jan 2000 03:13:10.000,119.406,78.032,12101.635925
2 Jan 2000 03:13:20.000,120.383,77.936,12103.048010
2 Jan 2000 03:13:30.000,121.345,77.837,12104.521026
2 Jan 2000 03:13:40.000,122.292,77.735,12106.054966
2 Jan 2000 03:13:50.000,123.223,77.629,12107.649822
2 Jan 2000 03:14:00.000,124.139,77.521,12109.305585
2 Jan 2000 03:14:10.000,125.039,77.410,12111.022243
2 Jan 2000 03:14:20.000,125.925,77.296,12112.799785
2 Jan 2000 03:14:30.000,126.795,77.179,12114.638198
2 Jan 2000 03:14:40.000,127.649,77.060,12116.537467
2 Jan 2000 03:14:50.000,128.489,76.938,12118.497575
2 Jan 2000 03:15:00.000,129.313,76.814,12120.518505
2 Jan 2000 03:15:10.000,130.122,76.687,12122.600239
2 Jan 2000 03:15:20.000,130.917,76.558,12124.742756
2 Jan 2000 03:15:30.000,131.697,76.426,12126.946035
2 Jan 2000 03:15:40.000,132.463,76.293,12129.210052
2 Jan 2000 03:15:50.000,133.214,76.157,12131.534783
2 Jan 2000 03:16:00.000,133.951,76.019,12133.920204
2 Jan 2000 03:16:10.000,134.674,75.879,12136.366286
2 Jan 2000 03:16:20.000,135.384,75.737,12138.873002
2 Jan 2000 03:16:30.000,136.080,75.594,12141.440322
2 Jan 2000 03:16:40.000,136.763,75.448,12144.068216
2 Jan 2000 03:16:50.000,137.433,75.301,12146.756650
2 Jan 2000 03:17:00.000,138.090,75.152,12149.505591
2 Jan 2000 03:17:10.000,138.735,75.001,12152.315004
2 Jan 2000 03:17:20.000,139.367,74.849,12155.184853
2 Jan 2000 03:17:30.000,139.988,74.695,12158.115101
2 Jan 2000 03:17:40.000,140.596,74.539,12161.105708
2 Jan 2000 03:17:50.000,141.193,74.382,12164.156634
2 Jan 2000 03:18:00.000,141.779,74.224,12167.267838
2 Jan 2000 03:18:10.000,142.353,74.064,12170.439277
2 Jan 2000 03:18:20.000,142.917,73.903,12173.670906
2 Jan 2000 03:18:30.000,143.470,73.741,12176.962680
2 Jan 2000 03:18:40.000,144.012,73.577,12180.314553
2 Jan 2000 03:18:50.000,144.545,73.412,12183.726476
2 Jan 2000 03:19:00.000,145.067,73.246,12187.198400
2 Jan 2000 03:19:10.000,145.580,73.079,12190.730273
2 Jan 2000 03:19:20.000,146.083,72.911,12194.322046
2 Jan 2000 03:19:30.000,146.577,72.742,12197.973663
2 Jan 2000 03:19:40.000,147.062,72.571,12201.685071
2 Jan 2000 03:19:50.000,147.538,72.400,12205.456213
2 Jan 2000 03:20:00.000,148.006,72.228,12209.287034
2 Jan 2000 03:20:10.000,148.464,72.054,12213.177473
2 Jan 2000 03:20:20.000,148.915,71.880,12217.127473
2 Jan 2000 03:20:30.000,149.358,71.705,12221.136972
2 Jan 2000 03:20:40.000,149.792,71.530,12225.205907
2 Jan 2000 03:20:50.000,150.220,71.353,12229.334217
2 Jan 2000 03:21:00.000,150.639,71.175,12233.521835
2 Jan 2000 03:21:10.000,151.051,70.997,12237.768697
2 Jan 2000 03:21:20.000,151.456,70.818,12242.074735
2 Jan 2000 03:21:30.000,151.854,70.639,12246.439882
2 Jan 2000 03:21:40.000,152.246,70.458,12250.864067
2 Jan 2000 03:21:50.000,152.630,70.277,12255.347219
2 Jan 2000 03:22:00.000,153.008,70.096,12259.889268
2 Jan 2000 03:22:10.000,153.380,69.913,12264.490140
2 Jan 2000 03:22:20.000,153.745,69.731,12269.149761
2 Jan 2000 03:22:30.000,154.105,69.547,12273.868055
2 Jan 2000 03:22:40.000,154.458,69.363,12278.644945
2 Jan 2000 03:22:50.000,154.806,69.178,12283.480354
2 Jan 2000 03:23:00.000,155.148,68.993,12288.374203
2 Jan 2000 03:23:10.000,155.484,68.808,12293.326411
2 Jan 2000 03:23:20.000,155.815,68.622,12298.336897
2 Jan 2000 03:23:30.000,156.141,68.435,12303.405579
2 Jan 2000 03:23:40.000,156.462,68.248,12308.532373
2 Jan 2000 03:23:50.000,156.778,68.060,12313.717194
2 Jan 2000 03:24:00.000,157.088,67.872,12318.959957
2 Jan 2000 03:24:10.000,157.394,67.684,12324.260573
2 Jan 2000 03:24:20.000,157.696,67.495,12329.618955
2 Jan 2000 03:24:30.000,157.992,67.306,12335.035014
2 Jan 2000 03:24:40.000,158.284,67.117,12340.508659
2 Jan 2000 03:24:50.000,158.572,66.927,12346.039799
2 Jan 2000 03:25:00.000,158.856,66.736,12351.628340
2 Jan 2000 03:25:10.000,159.135,66.546,12357.274190
2 Jan 2000 03:25:20.000,159.410,66.355,12362.977253
2 Jan 2000 03:25:30.000,159.681,66.164,12368.737433
2 Jan 2000 03:25:40.000,159.949,65.972,12374.554634
2 Jan 2000 03:25:50.000,160.212,65.780,12380.428757
2 Jan 2000 03:26:00.000,160.472,65.588,12386.359703
2 Jan 2000 03:26:10.000,160.728,65.396,12392.347372
2 Jan 2000 03:26:20.000,160.980,65.203,12398.391664
2 Jan 2000 03:26:30.000,161.229,65.011,12404.492475
2 Jan 2000 03:26:40.000,161.475,64.817,12410.649702
2 Jan 2000 03:26:50.000,161.717,64.624,12416.863241
2 Jan 2000 03:27:00.000,161.956,64.431,12423.132987
2 Jan 2000 03:27:10.000,162.191,64.237,12429.458833
2 Jan 2000 03:27:20.000,162.424,64.043,12435.840671
2 Jan 2000 03:27:30.000,162.653,63.849,12442.278395
2 Jan 2000 03:27:40.000,162.879,63.654,12448.771894
2 Jan 2000 03:27:50.000,163.103,63.460,12455.321057
2 Jan 2000 03:28:00.000,163.323,63.265,12461.925775
2 Jan 2000 03:28:10.000,163.541,63.070,12468.585933
2 Jan 2000 03:28:20.000,163.756,62.875,12475.301420
2 Jan 2000 03:28:30.000,163.968,62.680,12482.072121
2 Jan 2000 03:28:40.000,164.177,62.485,12488.897920
2 Jan 2000 03:28:50.000,164.384,62.289,12495.778703
2 Jan 2000 03:29:00.000,164.588,62.094,12502.714351
2 Jan 2000 03:29:10.000,164.790,61.898,12509.704747
2 Jan 2000 03:29:20.000,164.989,61.702,12516.749772
2 Jan 2000 03:29:30.000,165.186,61.507,12523.849306
2 Jan 2000 03:29:40.000,165.381,61.310,12531.003229
2 Jan 2000 03:29:50.000,165.573,61.114,12538.211420
2 Jan 2000 03:30:00.000,165.763,60.918,12545.473755
2 Jan 2000 03:30:10.000,165.950,60.722,12552.790111
2 Jan 2000 03:30:20.000,166.136,60.526,12560.160365
2 Jan 2000 03:30:30.000,166.319,60.329,12567.584391
2 Jan 2000 03:30:40.000,166.500,60.133,12575.062064
2 Jan 2000 03:30:50.000,166.679,59.936,12582.593256
2 Jan 2000 03:31:00.000,166.856,59.739,12590.177841
2 Jan 2000 03:31:10.000,167.031,59.543,12597.815689
2 Jan 2000 03:31:20.000,167.204,59.346,12605.506672
2 Jan 2000 03:31:30.000,167.375,59.149,12613.250659
2 Jan 2000 03:31:40.000,167.545,58.953,12621.047521
2 Jan 2000 03:31:50.000,167.712,58.756,12628.897125
2 Jan 2000 03:32:00.000,167.878,58.559,12636.799338
2 Jan 2000 03:32:10.000,168.041,58.362,12644.754028
2 Jan 2000 03:32:20.000,168.204,58.165,12652.761061
2 Jan 2000 03:32:30.000,168.364,57.968,12660.820301
2 Jan 2000 03:32:40.000,168.523,57.771,12668.931615
2 Jan 2000 03:32:50.000,168.679,57.574,12677.094864
2 Jan 2000 03:33:00.000,168.835,57.377,12685.309913
2 Jan 2000 03:33:10.000,168.989,57.180,12693.576623
2 Jan 2000 03:33:20.000,169.141,56.983,12701.894856
2 Jan 2000 03:33:30.000,169.291,56.786,12710.264474
2 Jan 2000 03:33:40.000,169.440,56.589,12718.685336
2 Jan 2000 03:33:50.000,169.588,56.393,12727.157301
2 Jan 2000 03:34:00.000,169.734,56.196,12735.680228
2 Jan 2000 03:34:10.000,169.879,55.999,12744.253976
2 Jan 2000 03:34:20.000,170.022,55.802,12752.878402
2 Jan 2000 03:34:30.000,170.164,55.605,12761.553362
2 Jan 2000 03:34:40.000,170.304,55.408,12770.278713
2 Jan 2000 03:34:50.000,170.443,55.211,12779.054310
2 Jan 2000 03:35:00.000,170.581,55.015,12787.880008
2 Jan 2000 03:35:10.000,170.718,54.818,12796.755661
2 Jan 2000 03:35:20.000,170.853,54.621,12805.681122
2 Jan 2000 03:35:30.000,170.987,54.425,12814.656244
2 Jan 2000 03:35:40.000,171.119,54.228,12823.680880
2 Jan 2000 03:35:50.000,171.251,54.032,12832.754881
2 Jan 2000 03:36:00.000,171.381,53.835,12841.878098
2 Jan 2000 03:36:10.000,171.510,53.639,12851.050382
2 Jan 2000 03:36:20.000,171.638,53.442,12860.271582
2 Jan 2000 03:36:30.000,171.764,53.246,12869.541548
2 Jan 2000 03:36:40.000,171.890,53.050,12878.860129
2 Jan 2000 03:36:50.000,172.014,52.854,12888.227173
2 Jan 2000 03:37:00.000,172.138,52.658,12897.642527
2 Jan 2000 03:37:10.000,172.260,52.462,12907.106039
2 Jan 2000 03:37:20.000,172.381,52.266,12916.617555
2 Jan 2000 03:37:30.000,172.501,52.070,12926.176921
2 Jan 2000 03:37:40.000,172.620,51.874,12935.783982
2 Jan 2000 03:37:50.000,172.739,51.678,12945.438585
2 Jan 2000 03:38:00.000,172.856,51.483,12955.140572
2 Jan 2000 03:38:10.000,172.972,51.287,12964.889789
2 Jan 2000 03:38:20.000,173.087,51.091,12974.686078
2 Jan 2000 03:38:30.000,173.201,50.896,12984.529283
2 Jan 2000 03:38:40.000,173.314,50.701,12994.419246
2 Jan 2000 03:38:50.000,173.426,50.506,13004.355809
2 Jan 2000 03:39:00.000,173.538,50.310,13014.338815
2 Jan 2000 03:39:10.000,173.648,50.115,13024.368103
2 Jan 2000 03:39:20.000,173.758,49.921,13034.443516
2 Jan 2000 03:39:30.000,173.866,49.726,13044.564892
2 Jan 2000 03:39:40.000,173.974,49.531,13054.732073
2 Jan 2000 03:39:50.000,174.081,49.336,13064.944897
2 Jan 2000 03:40:00.000,174.187,49.142,13075.203204
2 Jan 2000 03:40:10.000,174.293,48.947,13085.506832
2 Jan 2000 03:40:20.000,174.397,48.753,13095.855620
2 Jan 2000 03:40:30.000,174.501,48.559,13106.249405
2 Jan 2000 03:40:40.000,174.604,48.365,13116.688024
2 Jan 2000 03:40:50.000,174.706,48.171,13127.171316
2 Jan 2000 03:41:00.000,174.807,47.977,13137.699116
2 Jan 2000 03:41:10.000,174.907,47.783,13148.271261
2 Jan 2000 03:41:20.000,175.007,47.590,13158.887587
2 Jan 2000 03:41:30.000,175.106,47.396,13169.547930
2 Jan 2000 03:41:40.000,175.204,47.203,13180.252125
2 Jan 2000 03:41:50.000,175.302,47.010,13191.000006
2 Jan 2000 03:42:00.000,175.399,46.816,13201.791409
2 Jan 2000 03:42:10.000,175.495,46.623,13212.626169
2 Jan 2000 03:42:20.000,175.590,46.431,13223.504118
2 Jan 2000 03:42:30.000,175.685,46.238,13234.425091
2 Jan 2000 03:42:40.000,175.779,46.045,13245.388921
2 Jan 2000 03:42:50.000,175.872,45.853,13256.395441
2 Jan 2000 03:43:00.000,175.965,45.660,13267.444484
2 Jan 2000 03:43:10.000,176.057,45.468,13278.535883
2 Jan 2000 03:43:20.000,176.149,45.276,13289.669470
2 Jan 2000 03:43:30.000,176.239,45.084,13300.845077
2 Jan 2000 03:43:40.000,176.330,44.892,13312.062536
2 Jan 2000 03:43:50.000,176.419,44.700,13323.321678
2 Jan 2000 03:44:00.000,176.508,44.509,13334.622335
2 Jan 2000 03:44:10.000,176.596,44.317,13345.964337
2 Jan 2000 03:44:20.000,176.684,44.126,13357.347516
2 Jan 2000 03:44:30.000,176.771,43.935,13368.771702
2 Jan 2000 03:44:40.000,176.858,43.744,13380.236726
2 Jan 2000 03:44:50.000,176.943,43.553,13391.742416
2 Jan 2000 03:45:00.000,177.029,43.362,13403.288605
2 Jan 2000 03:45:10.000,177.114,43.172,13414.875121
2 Jan 2000 03:45:20.000,177.198,42.981,13426.501793
2 Jan 2000 03:45:30.000,177.282,42.791,13438.168452
2 Jan 2000 03:45:40.000,177.365,42.601,13449.874927
2 Jan 2000 03:45:50.000,177.447,42.411,13461.621045
2 Jan 2000 03:46:00.000,177.529,42.221,13473.406637
2 Jan 2000 03:46:10.000,177.611,42.031,13485.231531
2 Jan 2000 03:46:20.000,177.692,41.842,13497.095556
2 Jan 2000 03:46:30.000,177.772,41.652,13508.998540
2 Jan 2000 03:46:40.000,177.852,41.463,13520.940310
2 Jan 2000 03:46:50.000,177.932,41.274,13532.920696
2 Jan 2000 03:47:00.000,178.011,41.085,13544.939525
2 Jan 2000 03:47:10.000,178.089,40.896,13556.996625
2 Jan 2000 03:47:20.000,178.167,40.708,13569.091824
2 Jan 2000 03:47:30.000,178.245,40.519,13581.224950
2 Jan 2000 03:47:40.000,178.322,40.331,13593.395829
2 Jan 2000 03:47:50.000,178.398,40.143,13605.604289
2 Jan 2000 03:48:00.000,178.474,39.955,13617.850158
2 Jan 2000 03:48:10.000,178.550,39.767,13630.133263
2 Jan 2000 03:48:20.000,178.625,39.579,13642.453431
2 Jan 2000 03:48:30.000,178.700,39.391,13654.810489
2 Jan 2000 03:48:40.000,178.774,39.204,13667.204263
2 Jan 2000 03:48:50.000,178.848,39.017,13679.634581
2 Jan 2000 03:49:00.000,178.922,38.830,13692.101270
2 Jan 2000 03:49:10.000,178.995,38.643,13704.604156
2 Jan 2000 03:49:20.000,179.067,38.456,13717.143067
2 Jan 2000 03:49:30.000,179.139,38.270,13729.717828
2 Jan 2000 03:49:40.000,179.211,38.083,13742.328266
2 Jan 2000 03:49:50.000,179.282,37.897,13754.974208
2 Jan 2000 03:50:00.000,179.353,37.711,13767.655480
2 Jan 2000 03:50:10.000,179.424,37.525,13780.371910
2 Jan 2000 03:50:20.000,179.494,37.339,13793.123323
2 Jan 2000 03:50:30.000,179.563,37.154,13805.909545
2 Jan 2000 03:50:40.000,179.632,36.968,13818.730404
2 Jan 2000 03:50:50.000,179.701,36.783,13831.585726
2 Jan 2000 03:51:00.000,179.770,36.598,13844.475337
2 Jan 2000 03:51:10.000,179.838,36.413,13857.399064
2 Jan 2000 03:51:20.000,179.906,36.228,13870.356732
2 Jan 2000 03:51:30.000,179.973,36.044,13883.348169
2 Jan 2000 03:51:40.000,180.040,35.859,13896.373201
2 Jan 2000 03:51:50.000,180.107,35.675,13909.431655
2 Jan 2000 03:52:00.000,180.173,35.491,13922.523356
2 Jan 2000 03:52:10.000,180.239,35.307,13935.648132
2 Jan 2000 03:52:20.000,180.304,35.123,13948.805809
2 Jan 2000 03:52:26.673,180.348,35.001,13957.604675

Interval Statistics
"Min Elevation",2 Jan 2000 03:52:26.673,180.348,35.001,13957.604675
"Max Elevation",2 Jan 2000 03:09:14.006,92.912,79.203,12085.991329
"Mean Elevation",,,62.613,
"Min Range",2 Jan 2000 03:09:23.020,93.994,79.201,12085.966675
"Max Range",2 Jan 2000 03:52:26.673,180.348,35.001,13957.604675
"Mean Range",,,,12593.619387

"Time (UTCG)","Azimuth (deg)","Elevation (deg)","Range (km)"
2 Jan 2000 14:55:53.527,149.329,54.465,12813.919254
2 Jan 2000 14:56:03.000,149.281,54.663,12804.902604
2 Jan 2000 14:56:13.000,149.229,54.872,12795.434826
2 Jan 2000 14:56:23.000,149.177,55.081,12786.019050
2 Jan 2000 14:56:33.000,149.124,55.290,12776.655452
2 Jan 2000 14:56:43.000,149.069,55.499,12767.344208
2 Jan 2000 14:56:53.000,149.014,55.708,12758.085494
2 Jan 2000 14:57:03.000,148.958,55.917,12748.879484
2 Jan 2000 14:57:13.000,148.901,56.127,12739.726352
2 Jan 2000 14:57:23.000,148.843,56.337,12730.626271
2 Jan 2000 14:57:33.000,148.784,56.547,12721.579414
2 Jan 2000 14:57:43.000,148.724,56.756,12712.585953
2 Jan 2000 14:57:53.000,148.663,56.967,12703.646059
2 Jan 2000 14:58:03.000,148.601,57.177,12694.759903
2 Jan 2000 14:58:13.000,148.538,57.387,12685.927655
2 Jan 2000 14:58:23.000,148.474,57.597,12677.149484
2 Jan 2000 14:58:33.000,148.409,57.808,12668.425559
2 Jan 2000 14:58:43.000,148.343,58.019,12659.756046
2 Jan 2000 14:58:53.000,148.275,58.229,12651.141114
2 Jan 2000 14:59:03.000,148.206,58.440,12642.580929
2 Jan 2000 14:59:13.000,148.136,58.651,12634.075656
2 Jan 2000 14:59:23.000,148.065,58.862,12625.625460
2 Jan 2000 14:59:33.000,147.993,59.073,12617.230505
2 Jan 2000 14:59:43.000,147.919,59.284,12608.890954
2 Jan 2000 14:59:53.000,147.844,59.496,12600.606969
2 Jan 2000 15:00:03.000,147.767,59.707,12592.378713
2 Jan 2000 15:00:13.000,147.690,59.919,12584.206345
2 Jan 2000 15:00:23.000,147.610,60.130,12576.090026
2 Jan 2000 15:00:33.000,147.530,60.342,12568.029916
2 Jan 2000 15:00:43.000,147.448,60.554,12560.026171
2 Jan 2000 15:00:53.000,147.364,60.765,12552.078950
2 Jan 2000 15:01:03.000,147.279,60.977,12544.188410
2 Jan 2000 15:01:13.000,147.192,61.189,12536.354705
2 Jan 2000 15:01:23.000,147.104,61.401,12528.577991
2 Jan 2000 15:01:33.000,147.014,61.613,12520.858422
2 Jan 2000 15:01:43.000,146.922,61.825,12513.196150
2 Jan 2000 15:01:53.000,146.829,62.038,12505.591328
2 Jan 2000 15:02:03.000,146.733,62.250,12498.044106
2 Jan 2000 15:02:13.000,146.636,62.462,12490.554636
2 Jan 2000 15:02:23.000,146.537,62.674,12483.123065
2 Jan 2000 15:02:33.000,146.437,62.887,12475.749543
2 Jan 2000 15:02:43.000,146.334,63.099,12468.434217
2 Jan 2000 15:02:53.000,146.229,63.311,12461.177233
2 Jan 2000 15:03:03.000,146.122,63.524,12453.978737
2 Jan 2000 15:03:13.000,146.013,63.736,12446.838872
2 Jan 2000 15:03:23.000,145.902,63.949,12439.757783
2 Jan 2000 15:03:33.000,145.789,64.161,12432.735611
2 Jan 2000 15:03:43.000,145.674,64.374,12425.772498
2 Jan 2000 15:03:53.000,145.556,64.586,12418.868584
2 Jan 2000 15:04:03.000,145.436,64.799,12412.024009
2 Jan 2000 15:04:13.000,145.313,65.011,12405.238910
2 Jan 2000 15:04:23.000,145.188,65.223,12398.513425
2 Jan 2000 15:04:33.000,145.060,65.436,12391.847690
2 Jan 2000 15:04:43.000,144.930,65.648,12385.241839
2 Jan 2000 15:04:53.000,144.797,65.861,12378.696007
2 Jan 2000 15:05:03.000,144.661,66.073,12372.210327
2 Jan 2000 15:05:13.000,144.522,66.285,12365.784929
2 Jan 2000 15:05:23.000,144.380,66.497,12359.419945
2 Jan 2000 15:05:33.000,144.236,66.709,12353.115504
2 Jan 2000 15:05:43.000,144.088,66.922,12346.871733
2 Jan 2000 15:05:53.000,143.937,67.134,12340.688762
2 Jan 2000 15:06:03.000,143.783,67.345,12334.566714
2 Jan 2000 15:06:13.000,143.625,67.557,12328.505715
2 Jan 2000 15:06:23.000,143.464,67.769,12322.505889
2 Jan 2000 15:06:33.000,143.299,67.981,12316.567358
2 Jan 2000 15:06:43.000,143.131,68.192,12310.690244
2 Jan 2000 15:06:53.000,142.959,68.404,12304.874665
2 Jan 2000 15:07:03.000,142.783,68.615,12299.120742
2 Jan 2000 15:07:13.000,142.603,68.826,12293.428591
2 Jan 2000 15:07:23.000,142.419,69.037,12287.798329
2 Jan 2000 15:07:33.000,142.230,69.248,12282.230071
2 Jan 2000 15:07:43.000,142.038,69.458,12276.723931
2 Jan 2000 15:07:53.000,141.840,69.669,12271.280021
2 Jan 2000 15:08:03.000,141.639,69.879,12265.898454
2 Jan 2000 15:08:13.000,141.432,70.089,12260.579338
2 Jan 2000 15:08:23.000,141.220,70.299,12255.322783
2 Jan 2000 15:08:33.000,141.004,70.509,12250.128897
2 Jan 2000 15:08:43.000,140.782,70.718,12244.997784
2 Jan 2000 15:08:53.000,140.554,70.927,12239.929551
2 Jan 2000 15:09:03.000,140.321,71.136,12234.924301
2 Jan 2000 15:09:13.000,140.082,71.345,12229.982135
2 Jan 2000 15:09:23.000,139.838,71.553,12225.103156
2 Jan 2000 15:09:33.000,139.587,71.761,12220.287462
2 Jan 2000 15:09:43.000,139.330,71.969,12215.535152
2 Jan 2000 15:09:53.000,139.066,72.176,12210.846323
2 Jan 2000 15:10:03.000,138.795,72.383,12206.221070
2 Jan 2000 15:10:13.000,138.517,72.590,12201.659487
2 Jan 2000 15:10:23.000,138.232,72.796,12197.161667
2 Jan 2000 15:10:33.000,137.940,73.002,12192.727701
2 Jan 2000 15:10:43.000,137.640,73.207,12188.357680
2 Jan 2000 15:10:53.000,137.331,73.412,12184.051692
2 Jan 2000 15:11:03.000,137.014,73.616,12179.809824
2 Jan 2000 15:11:13.000,136.689,73.820,12175.632162
2 Jan 2000 15:11:23.000,136.355,74.024,12171.518790
2 Jan 2000 15:11:33.000,136.011,74.226,12167.469791
2 Jan 2000 15:11:43.000,135.658,74.429,12163.485246
2 Jan 2000 15:11:53.000,135.295,74.630,12159.565237
2 Jan 2000 15:12:03.000,134.921,74.831,12155.709841
2 Jan 2000 15:12:13.000,134.537,75.032,12151.919135
2 Jan 2000 15:12:23.000,134.142,75.231,12148.193195
2 Jan 2000 15:12:33.000,133.735,75.430,12144.532095
2 Jan 2000 15:12:43.000,133.316,75.628,12140.935908
2 Jan 2000 15:12:53.000,132.885,75.825,12137.404706
2 Jan 2000 15:13:03.000,132.440,76.022,12133.938558
2 Jan 2000 15:13:13.000,131.983,76.217,12130.537532
2 Jan 2000 15:13:23.000,131.511,76.412,12127.201695
2 Jan 2000 15:13:33.000,131.026,76.606,12123.931112
2 Jan 2000 15:13:43.000,130.525,76.798,12120.725848
2 Jan 2000 15:13:53.000,130.008,76.990,12117.585964
2 Jan 2000 15:14:03.000,129.476,77.180,12114.511522
2 Jan 2000 15:14:13.000,128.926,77.369,12111.502580
2 Jan 2000 15:14:23.000,128.359,77.557,12108.559196
2 Jan 2000 15:14:33.000,127.774,77.744,12105.681426
2 Jan 2000 15:14:43.000,127.170,77.929,12102.869325
2 Jan 2000 15:14:53.000,126.547,78.113,12100.122947
2 Jan 2000 15:15:03.000,125.903,78.295,12097.442342
2 Jan 2000 15:15:13.000,125.238,78.476,12094.827560
2 Jan 2000 15:15:23.000,124.551,78.655,12092.278651
2 Jan 2000 15:15:33.000,123.842,78.832,12089.795660
2 Jan 2000 15:15:43.000,123.108,79.007,12087.378634
2 Jan 2000 15:15:53.000,122.351,79.181,12085.027616
2 Jan 2000 15:16:03.000,121.567,79.352,12082.742648
2 Jan 2000 15:16:13.000,120.758,79.521,12080.523771
2 Jan 2000 15:16:23.000,119.921,79.688,12078.371024
2 Jan 2000 15:16:33.000,119.056,79.853,12076.284443
2 Jan 2000 15:16:43.000,118.162,80.015,12074.264067
2 Jan 2000 15:16:53.000,117.238,80.175,12072.309927
2 Jan 2000 15:17:03.000,116.282,80.331,12070.422058
2 Jan 2000 15:17:13.000,115.295,80.485,12068.600490
2 Jan 2000 15:17:23.000,114.274,80.636,12066.845253
2 Jan 2000 15:17:33.000,113.220,80.784,12065.156374
2 Jan 2000 15:17:43.000,112.131,80.928,12063.533880
2 Jan 2000 15:17:53.000,111.006,81.069,12061.977796
2 Jan 2000 15:18:03.000,109.845,81.206,12060.488145
2 Jan 2000 15:18:13.000,108.646,81.339,12059.064948
2 Jan 2000 15:18:23.000,107.411,81.468,12057.708225
2 Jan 2000 15:18:33.000,106.137,81.593,12056.417994
2 Jan 2000 15:18:43.000,104.824,81.713,12055.194273
2 Jan 2000 15:18:53.000,103.473,81.829,12054.037075
2 Jan 2000 15:19:03.000,102.083,81.940,12052.946415
2 Jan 2000 15:19:13.000,100.654,82.046,12051.922305
2 Jan 2000 15:19:23.000,99.188,82.147,12050.964754
2 Jan 2000 15:19:33.000,97.683,82.242,12050.073771
2 Jan 2000 15:19:43.000,96.142,82.332,12049.249363
2 Jan 2000 15:19:53.000,94.565,82.415,12048.491535
2 Jan 2000 15:20:03.000,92.953,82.493,12047.800292
2 Jan 2000 15:20:13.000,91.309,82.564,12047.175635
2 Jan 2000 15:20:23.000,89.634,82.629,12046.617564
2 Jan 2000 15:20:33.000,87.930,82.688,12046.126079
2 Jan 2000 15:20:43.000,86.200,82.739,12045.701177
2 Jan 2000 15:20:53.000,84.447,82.784,12045.342853
2 Jan 2000 15:21:03.000,82.673,82.822,12045.051101
2 Jan 2000 15:21:13.000,80.883,82.852,12044.825914
2 Jan 2000 15:21:23.000,79.078,82.876,12044.667282
2 Jan 2000 15:21:33.000,77.264,82.892,12044.575195
2 Jan 2000 15:21:43.000,75.444,82.900,12044.549640
2 Jan 2000 15:21:53.000,73.621,82.902,12044.590603
2 Jan 2000 15:22:03.000,71.800,82.896,12044.698068
2 Jan 2000 15:22:13.000,69.984,82.882,12044.872019
2 Jan 2000 15:22:23.000,68.177,82.861,12045.112435
2 Jan 2000 15:22:33.000,66.382,82.833,12045.419296
2 Jan 2000 15:22:43.000,64.604,82.798,12045.792581
2 Jan 2000 15:22:53.000,62.846,82.756,12046.232264
2 Jan 2000 15:23:03.000,61.110,82.707,12046.738322
2 Jan 2000 15:23:13.000,59.399,82.651,12047.310727
2 Jan 2000 15:23:23.000,57.717,82.588,12047.949451
2 Jan 2000 15:23:33.000,56.065,82.519,12048.654462
2 Jan 2000 15:23:43.000,54.445,82.444,12049.425730
2 Jan 2000 15:23:53.000,52.860,82.363,12050.263221
2 Jan 2000 15:24:03.000,51.310,82.275,12051.166900
2 Jan 2000 15:24:13.000,49.797,82.182,12052.136730
2 Jan 2000 15:24:23.000,48.321,82.084,12053.172674
2 Jan 2000 15:24:33.000,46.883,81.980,12054.274691
2 Jan 2000 15:24:43.000,45.484,81.871,12055.442740
2 Jan 2000 15:24:53.000,44.124,81.757,12056.676779
2 Jan 2000 15:25:03.000,42.803,81.639,12057.976763
2 Jan 2000 15:25:13.000,41.520,81.516,12059.342645
2 Jan 2000 15:25:23.000,40.276,81.389,12060.774378
2 Jan 2000 15:25:33.000,39.069,81.258,12062.271914
2 Jan 2000 15:25:43.000,37.900,81.123,12063.835200
2 Jan 2000 15:25:53.000,36.768,80.984,12065.464186
2 Jan 2000 15:26:03.000,35.671,80.842,12067.158817
2 Jan 2000 15:26:13.000,34.610,80.696,12068.919038
2 Jan 2000 15:26:23.000,33.582,80.547,12070.744791
2 Jan 2000 15:26:33.000,32.589,80.395,12072.636019
2 Jan 2000 15:26:43.000,31.627,80.240,12074.592662
2 Jan 2000 15:26:53.000,30.697,80.083,12076.614657
2 Jan 2000 15:27:03.000,29.798,79.923,12078.701942
2 Jan 2000 15:27:13.000,28.928,79.760,12080.854453
2 Jan 2000 15:27:23.000,28.086,79.595,12083.072123
2 Jan 2000 15:27:33.000,27.272,79.427,12085.354884
2 Jan 2000 15:27:43.000,26.485,79.258,12087.702669
2 Jan 2000 15:27:53.000,25.724,79.086,12090.115405
2 Jan 2000 15:28:03.000,24.988,78.913,12092.593022
2 Jan 2000 15:28:13.000,24.275,78.737,12095.135445
2 Jan 2000 15:28:23.000,23.586,78.560,12097.742600
2 Jan 2000 15:28:33.000,22.918,78.382,12100.414410
2 Jan 2000 15:28:43.000,22.273,78.201,12103.150798
2 Jan 2000 15:28:53.000,21.647,78.019,12105.951683
2 Jan 2000 15:29:03.000,21.042,77.836,12108.816985
2 Jan 2000 15:29:13.000,20.456,77.652,12111.746622
2 Jan 2000 15:29:23.000,19.888,77.466,12114.740510
2 Jan 2000 15:29:33.000,19.338,77.278,12117.798564
2 Jan 2000 15:29:43.000,18.805,77.090,12120.920697
2 Jan 2000 15:29:53.000,18.289,76.901,12124.106821
2 Jan 2000 15:30:03.000,17.788,76.710,12127.356848
2 Jan 2000 15:30:13.000,17.303,76.519,12130.670685
2 Jan 2000 15:30:23.000,16.832,76.326,12134.048241
2 Jan 2000 15:30:33.000,16.376,76.133,12137.489423
2 Jan 2000 15:30:43.000,15.933,75.938,12140.994135
2 Jan 2000 15:30:53.000,15.503,75.743,12144.562281
2 Jan 2000 15:31:03.000,15.086,75.547,12148.193764
2 Jan 2000 15:31:13.000,14.681,75.351,12151.888484
2 Jan 2000 15:31:23.000,14.287,75.153,12155.646340
2 Jan 2000 15:31:33.000,13.905,74.955,12159.467232
2 Jan 2000 15:31:43.000,13.534,74.757,12163.351055
2 Jan 2000 15:31:53.000,13.174,74.557,12167.297707
2 Jan 2000 15:32:03.000,12.823,74.357,12171.307080
2 Jan 2000 15:32:13.000,12.483,74.157,12175.379068
2 Jan 2000 15:32:23.000,12.152,73.956,12179.513562
2 Jan 2000 15:32:33.000,11.830,73.755,12183.710454
2 Jan 2000 15:32:43.000,11.516,73.553,12187.969631
2 Jan 2000 15:32:53.000,11.212,73.350,12192.290982
2 Jan 2000 15:33:03.000,10.915,73.147,12196.674393
2 Jan 2000 15:33:13.000,10.627,72.944,12201.119749
2 Jan 2000 15:33:23.000,10.346,72.740,12205.626935
2 Jan 2000 15:33:33.000,10.073,72.536,12210.195834
2 Jan 2000 15:33:43.000,9.807,72.332,12214.826326
2 Jan 2000 15:33:53.000,9.548,72.127,12219.518292
2 Jan 2000 15:34:03.000,9.295,71.922,12224.271612
2 Jan 2000 15:34:13.000,9.049,71.717,12229.086163
2 Jan 2000 15:34:23.000,8.810,71.511,12233.961821
2 Jan 2000 15:34:33.000,8.576,71.305,12238.898463
2 Jan 2000 15:34:43.000,8.349,71.099,12243.895963
2 Jan 2000 15:34:53.000,8.127,70.893,12248.954194
2 Jan 2000 15:35:03.000,7.911,70.686,12254.073028
2 Jan 2000 15:35:13.000,7.700,70.480,12259.252335
2 Jan 2000 15:35:23.000,7.494,70.273,12264.491986
2 Jan 2000 15:35:33.000,7.294,70.065,12269.791848
2 Jan 2000 15:35:43.000,7.098,69.858,12275.151791
2 Jan 2000 15:35:53.000,6.907,69.651,12280.571679
2 Jan 2000 15:36:03.000,6.721,69.443,12286.051378
2 Jan 2000 15:36:13.000,6.539,69.235,12291.590753
2 Jan 2000 15:36:23.000,6.362,69.027,12297.189666
2 Jan 2000 15:36:33.000,6.189,68.819,12302.847979
2 Jan 2000 15:36:43.000,6.020,68.611,12308.565554
2 Jan 2000 15:36:53.000,5.855,68.403,12314.342250
2 Jan 2000 15:37:03.000,5.694,68.194,12320.177925
2 Jan 2000 15:37:13.000,5.536,67.986,12326.072439
2 Jan 2000 15:37:23.000,5.383,67.777,12332.025647
2 Jan 2000 15:37:33.000,5.233,67.569,12338.037405
2 Jan 2000 15:37:43.000,5.086,67.360,12344.107569
2 Jan 2000 15:37:53.000,4.943,67.151,12350.235991
2 Jan 2000 15:38:03.000,4.803,66.942,12356.422525
2 Jan 2000 15:38:13.000,4.667,66.734,12362.667022
2 Jan 2000 15:38:23.000,4.533,66.525,12368.969334
2 Jan 2000 15:38:33.000,4.403,66.316,12375.329310
2 Jan 2000 15:38:43.000,4.275,66.107,12381.746799
2 Jan 2000 15:38:53.000,4.151,65.898,12388.221649
2 Jan 2000 15:39:03.000,4.029,65.689,12394.753708
2 Jan 2000 15:39:13.000,3.910,65.480,12401.342821
2 Jan 2000 15:39:23.000,3.794,65.272,12407.988833
2 Jan 2000 15:39:33.000,3.680,65.063,12414.691590
2 Jan 2000 15:39:43.000,3.569,64.854,12421.450934
2 Jan 2000 15:39:53.000,3.461,64.645,12428.266709
2 Jan 2000 15:40:03.000,3.354,64.436,12435.138755
2 Jan 2000 15:40:13.000,3.250,64.227,12442.066915
2 Jan 2000 15:40:23.000,3.149,64.019,12449.051027
2 Jan 2000 15:40:33.000,3.050,63.810,12456.090932
2 Jan 2000 15:40:43.000,2.953,63.601,12463.186467
2 Jan 2000 15:40:53.000,2.858,63.393,12470.337470
2 Jan 2000 15:41:03.000,2.765,63.184,12477.543779
2 Jan 2000 15:41:13.000,2.674,62.975,12484.805229
2 Jan 2000 15:41:23.000,2.586,62.767,12492.121655
2 Jan 2000 15:41:33.000,2.499,62.559,12499.492892
2 Jan 2000 15:41:43.000,2.414,62.350,12506.918774
2 Jan 2000 15:41:53.000,2.331,62.142,12514.399133
2 Jan 2000 15:42:03.000,2.250,61.934,12521.933802
2 Jan 2000 15:42:13.000,2.171,61.726,12529.522612
2 Jan 2000 15:42:23.000,2.093,61.518,12537.165394
2 Jan 2000 15:42:33.000,2.017,61.310,12544.861979
2 Jan 2000 15:42:43.000,1.943,61.102,12552.612195
2 Jan 2000 15:42:53.000,1.871,60.894,12560.415871
2 Jan 2000 15:43:03.000,1.800,60.687,12568.272835
2 Jan 2000 15:43:13.000,1.730,60.479,12576.182916
2 Jan 2000 15:43:23.000,1.663,60.272,12584.145938
2 Jan 2000 15:43:33.000,1.596,60.064,12592.161729
2 Jan 2000 15:43:43.000,1.532,59.857,12600.230114
2 Jan 2000 15:43:53.000,1.468,59.650,12608.350918
2 Jan 2000 15:44:03.000,1.406,59.443,12616.523964
2 Jan 2000 15:44:13.000,1.346,59.236,12624.749077
2 Jan 2000 15:44:23.000,1.287,59.030,12633.026079
2 Jan 2000 15:44:33.000,1.229,58.823,12641.354793
2 Jan 2000 15:44:43.000,1.172,58.616,12649.735041
2 Jan 2000 15:44:53.000,1.117,58.410,12658.166643
2 Jan 2000 15:45:03.000,1.063,58.204,12666.649421
2 Jan 2000 15:45:13.000,1.011,57.998,12675.183195
2 Jan 2000 15:45:23.000,0.959,57.792,12683.767784
2 Jan 2000 15:45:33.000,0.909,57.586,12692.403008
2 Jan 2000 15:45:43.000,0.860,57.380,12701.088685
2 Jan 2000 15:45:53.000,0.812,57.175,12709.824633
2 Jan 2000 15:46:03.000,0.765,56.969,12718.610669
2 Jan 2000 15:46:13.000,0.719,56.764,12727.446612
2 Jan 2000 15:46:23.000,0.674,56.559,12736.332277
2 Jan 2000 15:46:33.000,0.631,56.354,12745.267480
2 Jan 2000 15:46:43.000,0.588,56.149,12754.252038
2 Jan 2000 15:46:53.000,0.547,55.944,12763.285765
2 Jan 2000 15:47:03.000,0.506,55.740,12772.368477
2 Jan 2000 15:47:13.000,0.467,55.535,12781.499988
2 Jan 2000 15:47:23.000,0.428,55.331,12790.680111
2 Jan 2000 15:47:33.000,0.390,55.127,12799.908661
2 Jan 2000 15:47:43.000,0.354,54.923,12809.185450
2 Jan 2000 15:47:53.000,0.318,54.720,12818.510291
2 Jan 2000 15:48:03.000,0.283,54.516,12827.882997
2 Jan 2000 15:48:13.000,0.249,54.313,12837.303379
2 Jan 2000 15:48:23.000,0.216,54.109,12846.771250
2 Jan 2000 15:48:33.000,0.184,53.906,12856.286421
2 Jan 2000 15:48:43.000,0.153,53.703,12865.848702
2 Jan 2000 15:48:53.000,0.122,53.501,12875.457904
2 Jan 2000 15:49:03.000,0.092,53.298,12885.113838
2 Jan 2000 15:49:13.000,0.064,53.096,12894.816313
2 Jan 2000 15:49:23.000,0.035,52.894,12904.565139
2 Jan 2000 15:49:33.000,0.008,52.692,12914.360126
2 Jan 2000 15:49:43.000,359.982,52.490,12924.201082
2 Jan 2000 15:49:53.000,359.956,52.288,12934.087817
2 Jan 2000 15:50:03.000,359.931,52.087,12944.020139
2 Jan 2000 15:50:13.000,359.906,51.885,12953.997856
2 Jan 2000 15:50:23.000,359.883,51.684,12964.020776
2 Jan 2000 15:50:33.000,359.860,51.483,12974.088707
2 Jan 2000 15:50:43.000,359.838,51.283,12984.201457
2 Jan 2000 15:50:53.000,359.816,51.082,12994.358833
2 Jan 2000 15:51:03.000,359.795,50.882,13004.560641
2 Jan 2000 15:51:13.000,359.775,50.681,13014.806689
2 Jan 2000 15:51:23.000,359.756,50.481,13025.096784
2 Jan 2000 15:51:33.000,359.737,50.282,13035.430731
2 Jan 2000 15:51:43.000,359.719,50.082,13045.808338
2 Jan 2000 15:51:53.000,359.701,49.883,13056.229410
2 Jan 2000 15:52:03.000,359.684,49.683,13066.693753
2 Jan 2000 15:52:13.000,359.668,49.484,13077.201173
2 Jan 2000 15:52:23.000,359.652,49.286,13087.751476
2 Jan 2000 15:52:33.000,359.637,49.087,13098.344466
2 Jan 2000 15:52:43.000,359.622,48.889,13108.979950
2 Jan 2000 15:52:53.000,359.608,48.690,13119.657733
2 Jan 2000 15:53:03.000,359.595,48.492,13130.377619
2 Jan 2000 15:53:13.000,359.582,48.294,13141.139413
2 Jan 2000 15:53:23.000,359.570,48.097,13151.942922
2 Jan 2000 15:53:33.000,359.558,47.899,13162.787948
2 Jan 2000 15:53:43.000,359.547,47.702,13173.674297
2 Jan 2000 15:53:53.000,359.536,47.505,13184.601773
2 Jan 2000 15:54:03.000,359.526,47.308,13195.570181
2 Jan 2000 15:54:13.000,359.516,47.112,13206.579325
2 Jan 2000 15:54:23.000,359.507,46.915,13217.629010
2 Jan 2000 15:54:33.000,359.498,46.719,13228.719040
2 Jan 2000 15:54:43.000,359.490,46.523,13239.849219
2 Jan 2000 15:54:53.000,359.482,46.327,13251.019351
2 Jan 2000 15:55:03.000,359.475,46.132,13262.229241
2 Jan 2000 15:55:13.000,359.469,45.936,13273.478692
2 Jan 2000 15:55:23.000,359.462,45.741,13284.767510
2 Jan 2000 15:55:33.000,359.457,45.546,13296.095496
2 Jan 2000 15:55:43.000,359.451,45.351,13307.462457
2 Jan 2000 15:55:53.000,359.446,45.157,13318.868196
2 Jan 2000 15:56:03.000,359.442,44.963,13330.312517
2 Jan 2000 15:56:13.000,359.438,44.769,13341.795225
2 Jan 2000 15:56:23.000,359.434,44.575,13353.316122
2 Jan 2000 15:56:33.000,359.431,44.381,13364.875014
2 Jan 2000 15:56:43.000,359.429,44.187,13376.471705
2 Jan 2000 15:56:53.000,359.426,43.994,13388.105999
2 Jan 2000 15:57:03.000,359.425,43.801,13399.777700
2 Jan 2000 15:57:13.000,359.423,43.608,13411.486613
2 Jan 2000 15:57:23.000,359.422,43.416,13423.232541
2 Jan 2000 15:57:33.000,359.421,43.223,13435.015290
2 Jan 2000 15:57:43.000,359.421,43.031,13446.834664
2 Jan 2000 15:57:53.000,359.421,42.839,13458.690467
2 Jan 2000 15:58:03.000,359.422,42.647,13470.582504
2 Jan 2000 15:58:13.000,359.423,42.456,13482.510580
2 Jan 2000 15:58:23.000,359.424,42.265,13494.474500
2 Jan 2000 15:58:33.000,359.426,42.073,13506.474069
2 Jan 2000 15:58:43.000,359.428,41.883,13518.509091
2 Jan 2000 15:58:53.000,359.430,41.692,13530.579373
2 Jan 2000 15:59:03.000,359.433,41.501,13542.684718
2 Jan 2000 15:59:13.000,359.436,41.311,13554.824934
2 Jan 2000 15:59:23.000,359.440,41.121,13566.999824
